uid,name,cat_L1,cat_L2,province,city,area,address,street_id,detail,child_num,loc_lng,loc_lat,telephone,type,detail_url,price,shop_hours,overall_rating,taste_rating,service_rating,environment_rating,facility_rating,hygiene_rating,technology_rating,image_num,comment_num,groupon_num,discount_num,favorite_num,checkin_num,brand,content_tag,naviloc_lng,naviloc_lat,child_num
60a5b0377ff5bafb8bfc0690,沐茗咖啡,美食,咖啡厅,湖北省,武汉市,汉南区,武汉市汉南区兴城大道天仪豪庭,,1,0,114.08013,30.322312,,cater,http://api.map.baidu.com/place/detail?uid=60a5b0377ff5bafb8bfc0690&output=html&source=placeapi_v2,,,,,,,,,,,,,,,,,,,,0
7135259ec8bc799428b97cb4,年小咖,美食,咖啡厅,湖北省,武汉市,汉南区,湖北省武汉市汉南区薇湖路薇湖水岸第35栋501附19号,,1,0,114.079415,30.312532,18995588530,cater,http://api.map.baidu.com/place/detail?uid=7135259ec8bc799428b97cb4&output=html&source=placeapi_v2,,,,,,,,,,,,,,,,,,,,0
99c46bc6351d1f844e5547c8,卡斯摩手工披萨,美食,外国餐厅,湖北省,武汉市,汉南区,湖北省武汉市汉南区薇湖路403号,99c46bc6351d1f844e5547c8,1,0,114.081875,30.31261,13971499699,cater,http://api.map.baidu.com/place/detail?uid=99c46bc6351d1f844e5547c8&output=html&source=placeapi_v2,23.0,11:00-23:00,0,,,,,,,,1,,,,,,,,,0
64a8b2b21cff62438c772701,LAVAZZA(南国江城店),美食,其他,湖北省,武汉市,汉南区,汉南大道中百旁南国江城商业街B区二楼10号,,1,0,114.092073,30.316142,(027)51894517,cater,http://api.map.baidu.com/place/detail?uid=64a8b2b21cff62438c772701&output=html&source=placeapi_v2,,,,,,,,,,1,,,,,,,,,,0
5a519bd935916da94e2fdf74,天使咖啡(青龙山店),美食,咖啡厅,湖北省,武汉市,江夏区,武汉市江夏区中华古文化游览园,,1,0,114.332664,30.336521,18071069797,cater,http://api.map.baidu.com/place/detail?uid=5a519bd935916da94e2fdf74&output=html&source=placeapi_v2,51.0,09:30-22:30,4.3,,,,,,,,2,,,,,,,114.33275041513,30.33633300143,0
7158dff4b279ddcffd0eb022,代小姐的咖啡(欧镇奥特莱斯店),美食,咖啡厅,湖北省,武汉市,汉南区,武汉市汉南区绿地城东100米欧镇奥特莱斯F1,7158dff4b279ddcffd0eb022,1,0,114.070464,30.341821,,cater,http://api.map.baidu.com/place/detail?uid=7158dff4b279ddcffd0eb022&output=html&source=placeapi_v2,,,3.5,,,,,,,,1,,,,,,,114.07020164055,30.342184947442,0
4a6e4d3f345dddecf4eafc0c,星巴克(中百广场江夏店),美食,咖啡厅,湖北省,武汉市,江夏区,武汉市江夏区纸坊街文化路37号中百广场F1,,1,0,114.328531,30.370872,(027)81777600,cater,http://api.map.baidu.com/place/detail?uid=4a6e4d3f345dddecf4eafc0c&output=html&source=placeapi_v2,40.0,08:00-22:00,4.1,,,,,,,12,0,,,,,,,114.32867204074,30.37117394398,0
790bb0546ab9564fe856fa51,记得咖啡(江夏店),美食,咖啡厅,湖北省,武汉市,江夏区,武汉市江夏区四贤路97附1号,790bb0546ab9564fe856fa51,1,0,114.323014,30.361921,(027)87939380,cater,http://api.map.baidu.com/place/detail?uid=790bb0546ab9564fe856fa51&output=html&source=placeapi_v2,32.0,10:00-22:00,3.8,,,,,,,,2,,,,,,,114.32315501211,30.361908939396,0
9e1809b80420b2d6950319e0,Seven Club清吧・咖啡,美食,咖啡厅,湖北省,武汉市,江夏区,湖北省武汉市江夏区兴新街14号,,1,0,114.33056,30.353218,18672310101,cater,http://api.map.baidu.com/place/detail?uid=9e1809b80420b2d6950319e0&output=html&source=placeapi_v2,,10:00-23:30,,,,,,,,,,,,,,,,,,0
28d0cd252c5d661cc356acc3,博客咖啡语茶,美食,咖啡厅,湖北省,武汉市,江夏区,武汉市江夏区兴苑街富丽畅馨园南侧约30米,,1,0,114.320701,30.366172,,cater,http://api.map.baidu.com/place/detail?uid=28d0cd252c5d661cc356acc3&output=html&source=placeapi_v2,,,,,,,,,,,,,,,,,,,,0
687b03fe79026fbf725e80c9,那儿咖啡,美食,咖啡厅,湖北省,武汉市,江夏区,纸坊街立交桥路以南花山美庐1栋1层11室,687b03fe79026fbf725e80c9,1,0,114.33593,30.365901,13554343614,cater,http://api.map.baidu.com/place/detail?uid=687b03fe79026fbf725e80c9&output=html&source=placeapi_v2,,10:30-22:00,3.9,,,,,,,,1,,,,,,,,,0
4a6e4d3f345dddecf4eafc0c,星巴克(中百广场江夏店),美食,咖啡厅,湖北省,武汉市,江夏区,武汉市江夏区纸坊街文化路37号中百广场F1,,1,0,114.328531,30.370872,(027)81777600,cater,http://api.map.baidu.com/place/detail?uid=4a6e4d3f345dddecf4eafc0c&output=html&source=placeapi_v2,40.0,08:00-22:00,4.1,,,,,,,12,0,,,,,,,114.32867204074,30.37117394398,0
2223a48c4fd4d6f6dbd89175,静莲咖啡,美食,咖啡厅,湖北省,武汉市,蔡甸区,湖北省武汉市蔡甸区军山街道幸福桥凤凰大道幸福小区北门,2223a48c4fd4d6f6dbd89175,1,0,114.086956,30.416688,(027)69375846,cater,http://api.map.baidu.com/place/detail?uid=2223a48c4fd4d6f6dbd89175&output=html&source=placeapi_v2,36.0,08:30-17:30,4,,,,,,,,2,,,,,,,114.08686767182,30.416779431496,0
de21d31867ce075c6140a979,瑞幸咖啡(文昌路店),美食,蛋糕甜品店,湖北省,武汉市,江夏区,湖北省武汉市江夏区文化大道299号汉口学院中央生活区1栋1层45-1号,de21d31867ce075c6140a979,1,0,114.321559,30.419826,4000100100,cater,http://api.map.baidu.com/place/detail?uid=de21d31867ce075c6140a979&output=html&source=placeapi_v2,18.0,07:00-20:00,,,,,,,,,,,,,,,,114.32158223726,30.419952604832,0
7c7ae137bf27fcf54c3a5916,笔迹轻咖(长工职店),美食,咖啡厅,湖北省,武汉市,江夏区,湖北省武汉市江夏区长江工程职业技术学院长江食堂3楼电梯口,,1,0,114.320715,30.409755,,cater,http://api.map.baidu.com/place/detail?uid=7c7ae137bf27fcf54c3a5916&output=html&source=placeapi_v2,,,,,,,,,,,,,,,,,,,,0
d8d161e9440fa4aba2acc4ac,喵酱咖啡(武设店),美食,中餐厅,湖北省,武汉市,江夏区,杨桥湖大道阳光100大湖第西二门26-105号,d8d161e9440fa4aba2acc4ac,1,0,114.417969,30.406059,"18182191083,18616502306",cater,http://api.map.baidu.com/place/detail?uid=d8d161e9440fa4aba2acc4ac&output=html&source=placeapi_v2,27.0,11:00-22:00,3.8,,,,,,,,4,,,,,,,,,0
db0d8735b7e5d6f5b7265516,瑞幸咖啡(湖北经济学院店),美食,蛋糕甜品店,湖北省,武汉市,江夏区,湖北省武汉市江夏区湖北武汉经济学院藏龙岛校区北大门商业服务中心一层,db0d8735b7e5d6f5b7265516,1,0,114.437669,30.425285,4000100100,cater,http://api.map.baidu.com/place/detail?uid=db0d8735b7e5d6f5b7265516&output=html&source=placeapi_v2,18.0,07:00-20:00,3.9,,,,,,,,0,,,,,,,,,0
40d3020e57ee8be5471a3288,coffee黑咖骑士(湖经分店),美食,咖啡厅,湖北省,武汉市,江夏区,武汉市江夏区湖经对面阳光时尚商业街D区,40d3020e57ee8be5471a3288,1,0,114.433385,30.422729,,cater,http://api.map.baidu.com/place/detail?uid=40d3020e57ee8be5471a3288&output=html&source=placeapi_v2,12.0,09:30-21:30,5,,,,,,,,2,,,,,,,,,0
1bf3581512628333b13c81d0,D coffee,美食,咖啡厅,湖北省,武汉市,蔡甸区,全力南公寓三期10号楼1F03,,1,0,114.106492,30.455145,13720127129,cater,http://api.map.baidu.com/place/detail?uid=1bf3581512628333b13c81d0&output=html&source=placeapi_v2,,,,,,,,,,,,,,,,,,,,0
36291f2466dc12d8d0ff2397,白桦林咖啡馆(黄家湖大学城店),美食,中餐厅,湖北省,武汉市,洪山区,武汉市洪山区白沙洲大道武科大公交站园艺文化街5-5栋(武汉科技大学红霞物流),36291f2466dc12d8d0ff2397,1,0,114.267152,30.44479,,cater,http://api.map.baidu.com/place/detail?uid=36291f2466dc12d8d0ff2397&output=html&source=placeapi_v2,17.5,10:00-22:00,0,,,,,,,,3,,,,,,,,,0
4f80a5453f0182772bb97c56,武汉东湖新技术开发区宇约客咖啡馆,美食,咖啡厅,湖北省,武汉市,江夏区,大学园路18号领航园5栋1层,,1,0,114.407127,30.45934,,cater,http://api.map.baidu.com/place/detail?uid=4f80a5453f0182772bb97c56&output=html&source=placeapi_v2,,,,,,,,,,1,,,,,,,,,,0
d4e55cdacc497ac2f6eafc9c,博雅众创咖啡(华师店),美食,咖啡厅,湖北省,武汉市,江夏区,湖北省武汉市江夏区华师园路5号华师科技园2栋1楼,d4e55cdacc497ac2f6eafc9c,1,0,114.397885,30.463919,13971647458,cater,http://api.map.baidu.com/place/detail?uid=d4e55cdacc497ac2f6eafc9c&output=html&source=placeapi_v2,,08:00-20:00,3.5,,,,,,,,0,,,,,,,114.3978899711,30.463799067201,0
7079bcf33bf7da23715e80d5,爱上上咖啡,美食,咖啡厅,湖北省,武汉市,江夏区,武汉市江夏区华师园路光谷科技港西南侧约40米,,1,0,114.404484,30.4613,,cater,http://api.map.baidu.com/place/detail?uid=7079bcf33bf7da23715e80d5&output=html&source=placeapi_v2,,10:00-02:30,,,,,,,,,,,,,,,,,,0
17e7e8be787de8bb31870a61,瑞幸咖啡(立业路店),美食,蛋糕甜品店,湖北省,武汉市,蔡甸区,湖北省武汉市蔡甸区经济开发区创业路10号建银商务公馆第B栋一层7-1号,17e7e8be787de8bb31870a61,1,0,114.168667,30.498715,18502762925,cater,http://api.map.baidu.com/place/detail?uid=17e7e8be787de8bb31870a61&output=html&source=placeapi_v2,18.0,07:00-20:00,3.9,,,,,,,,4,,,,,,,114.168596577,30.498837728521,0
e387c9a88644f39bcb213dd5,103创业咖啡,美食,咖啡厅,湖北省,武汉市,蔡甸区,湖北省武汉市蔡甸区神龙大道18号c区c栋,e387c9a88644f39bcb213dd5,1,0,114.190137,30.498281,15971466831,cater,http://api.map.baidu.com/place/detail?uid=e387c9a88644f39bcb213dd5&output=html&source=placeapi_v2,,,3.6,,,,,,,,,,,,,,,,,0
58e4550e8fc166d4bca8228a,星巴克(创意天地店),美食,咖啡厅,湖北省,武汉市,洪山区,湖北省武汉市洪山区野芷湖西路16号武汉创意天地1期c-1栋1~3层1室2室,58e4550e8fc166d4bca8228a,1,0,114.33047,30.476784,(027)87107269,cater,http://api.map.baidu.com/place/detail?uid=58e4550e8fc166d4bca8228a&output=html&source=placeapi_v2,48.0,08:00-22:00,4.5,,,,,,,14,0,,,,,,,114.33051329036,30.476656451146,0
7f697818fbc394f96e20b94d,lighthouse cafe(创意天地店),美食,咖啡厅,湖北省,武汉市,洪山区,武汉市洪山区野芷湖西路创意天地21号商铺植物实验室内,,1,0,114.328567,30.475389,"13627238620,18602732825",cater,http://api.map.baidu.com/place/detail?uid=7f697818fbc394f96e20b94d&output=html&source=placeapi_v2,44.0,10:00-21:00,4,,,,,,,,1,,,,,,,114.32808684321,30.475163489674,0
0ffe34995a66f10572210bb5,陌伴咖啡,美食,咖啡厅,湖北省,武汉市,洪山区,湖北省武汉市洪山区野芷湖西路16号创意天地高层2号写字楼401室,0ffe34995a66f10572210bb5,1,0,114.32939,30.477968,18771950821,cater,http://api.map.baidu.com/place/detail?uid=0ffe34995a66f10572210bb5&output=html&source=placeapi_v2,,10:00-22:00,,,,,,,,,,,,,,,,,,0
91c26ed439af8c1bf4e73b89,氧气城市慢生活馆,美食,外国餐厅,湖北省,武汉市,洪山区,大华南湖公园世家3期B5105(保利・中央公馆北门文馨街),91c26ed439af8c1bf4e73b89,1,0,114.332356,30.501454,"13408026633,18717184186",cater,http://api.map.baidu.com/place/detail?uid=91c26ed439af8c1bf4e73b89&output=html&source=placeapi_v2,63.0,10:00-24:00,4,,,,,,,,3,,,,,,,114.33215179242,30.501372629675,0
28a6fbf98bc8ee32d518b766,茶酿南郡,美食,咖啡厅,湖北省,武汉市,洪山区,湖北省武汉市洪山区南李路29号,,1,0,114.319961,30.49449,18164274663,cater,http://api.map.baidu.com/place/detail?uid=28a6fbf98bc8ee32d518b766&output=html&source=placeapi_v2,,,,,,,,,,,,,,,,,,114.3205870513,30.494561770335,0
a8b893b8393e9b7e6fa3ccf8,杰克咖啡,美食,咖啡厅,湖北省,武汉市,洪山区,湖北省武汉市洪山区工业四路湖北工业大学f区2号楼,a8b893b8393e9b7e6fa3ccf8,1,0,114.312771,30.484419,,cater,http://api.map.baidu.com/place/detail?uid=a8b893b8393e9b7e6fa3ccf8&output=html&source=placeapi_v2,,,5,,,,,,,,2,,,,,,,,,0
4875d147041756161994c6b2,瑞幸咖啡,美食,咖啡厅,湖北省,武汉市,洪山区,洪山区狮子山街1号学院路华中农业大学国际学术交流中心5号楼一层大堂,4875d147041756161994c6b2,1,0,114.359358,30.481549,4000100100,cater,http://api.map.baidu.com/place/detail?uid=4875d147041756161994c6b2&output=html&source=placeapi_v2,19.0,08:00-19:00,4.1,,,,,,,,,,,,,,,114.35959374027,30.481736149171,0
7db385e40f8d4adcd7851fb3,嘉书coffee,美食,咖啡厅,湖北省,武汉市,洪山区,华中农业大学图书馆2层,7db385e40f8d4adcd7851fb3,1,0,114.363482,30.477948,18816839695,cater,http://api.map.baidu.com/place/detail?uid=7db385e40f8d4adcd7851fb3&output=html&source=placeapi_v2,15.0,09:00-22:00,3.7,,,,,,,,1,,,,,,,,,0
0dc3d82dda7b436f75e5b6f6,玉壶轩(南湖西路),美食,茶座,湖北省,武汉市,洪山区,湖北省武汉市洪山区南湖山庄・半岛花园商铺109号,0dc3d82dda7b436f75e5b6f6,1,0,114.351983,30.494843,(027)87229926,cater,http://api.map.baidu.com/place/detail?uid=0dc3d82dda7b436f75e5b6f6&output=html&source=placeapi_v2,,12:00-01:00,0,,,,,,,,2,,,,,,,114.35159926051,30.494829287597,0
ea4bd17846fa49c535b06cb4,星巴克(光谷新发展店),美食,咖啡厅,湖北省,武汉市,洪山区,湖北省武汉市洪山区东湖新技术开发区关山大道473号地上一层A1-2单元(自编号),,1,0,114.417529,30.48648,(027)52104026,cater,http://api.map.baidu.com/place/detail?uid=ea4bd17846fa49c535b06cb4&output=html&source=placeapi_v2,39.0,07:00-21:00,3.7,,,,,,,,,,,,,,,,,0
251374c96f7bb126a11de978,两岸咖啡(光谷软件园店),美食,咖啡厅,湖北省,武汉市,洪山区,湖北省武汉市洪山区关山大道特1号光谷软件园a区a5栋1层,,1,0,114.413822,30.480314,"(027)87611328,13986109200",cater,http://api.map.baidu.com/place/detail?uid=251374c96f7bb126a11de978&output=html&source=placeapi_v2,77.0,08:00-22:00,3.8,,,,,,,,13,,,,,,,114.41383346829,30.480342771384,0
50f8cce432895e551b11d511,星巴克(武汉同学广场店),美食,咖啡厅,湖北省,武汉市,洪山区,湖北省武汉市洪山区民族大道219号,50f8cce432895e551b11d511,1,0,114.40368,30.495028,(027)86643573,cater,http://api.map.baidu.com/place/detail?uid=50f8cce432895e551b11d511&output=html&source=placeapi_v2,39.0,07:00-22:00,3.8,,,,,,,,1,,,,,,,,,0
4c9c95d8e4651b998605bfa8,OVU创客星(Blackwhite coffee),美食,咖啡厅,湖北省,武汉市,洪山区,湖北省武汉市洪山区软件园东路1号,4c9c95d8e4651b998605bfa8,1,0,114.408938,30.483055,18827347149,cater,http://api.map.baidu.com/place/detail?uid=4c9c95d8e4651b998605bfa8&output=html&source=placeapi_v2,,08:00-18:00,4.5,,,,,,,,2,,,,,,,114.40847299006,30.483367677969,0
aad576326865cefdc6effb6f,麦咖啡(华罗利店),美食,咖啡厅,湖北省,武汉市,洪山区,武汉市洪山区民院路251号,,1,0,114.402515,30.489238,,cater,http://api.map.baidu.com/place/detail?uid=aad576326865cefdc6effb6f&output=html&source=placeapi_v2,,07:00-22:00,3.6,,,,,,,,,,,,,,,,,0
09a220ddcc4436d5d72ce2b7,星巴克(南湖时尚城店),美食,咖啡厅,湖北省,武汉市,江夏区,湖北省武汉市江夏区东湖新技术开发区南湖大道16号零售商区K4a号楼地上一层商1-6单元,09a220ddcc4436d5d72ce2b7,1,0,114.393598,30.484521,(027)87613958,cater,http://api.map.baidu.com/place/detail?uid=09a220ddcc4436d5d72ce2b7&output=html&source=placeapi_v2,39.0,07:00-22:00,3.8,,,,,,,23,1,,,,,,,114.39356658561,30.484564101213,0
29266df2b0dc70baee74f81e,三作咖啡(光谷软件园店),美食,咖啡厅,湖北省,武汉市,洪山区,湖北省武汉市洪山区关山一路1号光谷软件园f4栋1楼,29266df2b0dc70baee74f81e,1,0,114.415293,30.483937,18602737371,cater,http://api.map.baidu.com/place/detail?uid=29266df2b0dc70baee74f81e&output=html&source=placeapi_v2,41.0,08:00-19:00,4.6,,,,,,,,22,,,,,,,,,0
e01e4bbd271a5b7dd7851f32,星巴克(武汉保利广场店),美食,咖啡厅,湖北省,武汉市,洪山区,武汉市洪山区关山大道330号武汉保利广场F1,e01e4bbd271a5b7dd7851f32,1,0,114.41712,30.497025,(027)87573116,cater,http://api.map.baidu.com/place/detail?uid=e01e4bbd271a5b7dd7851f32&output=html&source=placeapi_v2,39.0,08:00-22:00,4.1,,,,,,,17,5,,,,,,,114.41628826955,30.495845018669,0
8362f1d33d06bd288936eeae,LinkCoffee,美食,咖啡厅,湖北省,武汉市,洪山区,软件园中路光谷软件园六期(光谷E城)E2栋一楼(玉树临风大酒店),8362f1d33d06bd288936eeae,1,0,114.408881,30.482328,,cater,http://api.map.baidu.com/place/detail?uid=8362f1d33d06bd288936eeae&output=html&source=placeapi_v2,21.5,09:00-18:30,0,,,,,,,,0,,,,,,,,,0
d53305b04e76dc9a9cec2bb3,星巴克(洪福添美店),美食,咖啡厅,湖北省,武汉市,洪山区,湖北省武汉市洪山区雄楚大道938号,d53305b04e76dc9a9cec2bb3,1,0,114.405258,30.503449,(027)87504661,life,http://api.map.baidu.com/place/detail?uid=d53305b04e76dc9a9cec2bb3&output=html&source=placeapi_v2,,07:30-22:00,3.7,,,,,,,25,12,,,,,,,114.40526580852,30.503652910745,0
d1ccb2b3c83ddddf45572660,梦想家DREAM+西餐吧,美食,外国餐厅,湖北省,武汉市,洪山区,湖北省武汉市洪山区关山大道465号光谷创意b座1楼,,1,0,114.41746,30.489076,18827650624,cater,http://api.map.baidu.com/place/detail?uid=d1ccb2b3c83ddddf45572660&output=html&source=placeapi_v2,35.0,09:00-21:00,3.7,,,,,,,,1,,,,,,,,,0
7097c690eac5d54b5b109321,WAGON COFFEE,美食,咖啡厅,湖北省,武汉市,洪山区,湖北省武汉市洪山区关山大道保利时代13栋10号门面,,1,0,114.416249,30.497335,18171308119,life,http://api.map.baidu.com/place/detail?uid=7097c690eac5d54b5b109321&output=html&source=placeapi_v2,,08:00-22:00,,,,,,,,14,2,,,,,,,,,0
5381c92796000287a8f72903,云上的猫咖,美食,咖啡厅,湖北省,武汉市,洪山区,湖北省武汉市洪山区新竹路保利国际公寓B栋1721室,5381c92796000287a8f72903,1,0,114.416417,30.496281,18672583408,cater,http://api.map.baidu.com/place/detail?uid=5381c92796000287a8f72903&output=html&source=placeapi_v2,45.0,11:00-22:00,3.8,,,,,,,,4,,,,,,,114.41623630527,30.496337890538,0
31a0aeef470d81f92102208d,燕园咖啡(财大店),美食,咖啡厅,湖北省,武汉市,江夏区,湖北省武汉市江夏区中南财经政法大学南湖校区北苑宿舍楼5栋2-101室(幼儿园旁),31a0aeef470d81f92102208d,1,0,114.395935,30.4831,18827411922,cater,http://api.map.baidu.com/place/detail?uid=31a0aeef470d81f92102208d&output=html&source=placeapi_v2,31.0,09:00-22:00,3.7,,,,,,,,0,,,,,,,114.39593449744,30.483208147709,0
ee00729e2f814e2e13293552,Restaurant Bar,美食,酒吧,湖北省,武汉市,洪山区,武汉市洪山区高新二路光谷新发展国际中心,,1,0,114.417972,30.485428,,cater,http://api.map.baidu.com/place/detail?uid=ee00729e2f814e2e13293552&output=html&source=placeapi_v2,,,,,,,,,,1,,,,,,,,114.41817224394,30.485401756392,0
4fe31544c924cfdf6e20b9d8,金谷国际酒店教授咖啡屋,美食,咖啡厅,湖北省,武汉市,江夏区,湖北省武汉市江夏区民族大道307号金谷国际酒店1楼,4fe31544c924cfdf6e20b9d8,1,0,114.399503,30.478086,(027)52111111,cater,http://api.map.baidu.com/place/detail?uid=4fe31544c924cfdf6e20b9d8&output=html&source=placeapi_v2,47.0,10:00-24:00,3.5,,,,,,,,0,,,,,,,,,0
5050366358a377d96b49f331,COFFEE,美食,咖啡厅,湖北省,武汉市,洪山区,武汉市洪山区高新二路光谷新发展国际中心,5050366358a377d96b49f331,1,0,114.418448,30.48576,,cater,http://api.map.baidu.com/place/detail?uid=5050366358a377d96b49f331&output=html&source=placeapi_v2,,,,,,,,,,,,,,,,,,,,0
9d39ec34f8d979e717948ee0,瑞幸咖啡(南湖大道店),美食,蛋糕甜品店,湖北省,武汉市,江夏区,湖北省武汉市江夏区南湖大道16号南湖时尚城商业圈K10栋一层10号商铺,9d39ec34f8d979e717948ee0,1,0,114.393201,30.483105,4000100100,cater,http://api.map.baidu.com/place/detail?uid=9d39ec34f8d979e717948ee0&output=html&source=placeapi_v2,17.0,08:00-21:00,3.8,,,,,,,,,,,,,,,114.3933265297,30.483002604552,0
9484c211e9a6d20e734b8730,灯芯咖啡(财大店),美食,咖啡厅,湖北省,武汉市,江夏区,湖北省武汉市江夏区致知街21号时尚城老乡鸡斜对面,9484c211e9a6d20e734b8730,1,0,114.393058,30.482391,18627731258,cater,http://api.map.baidu.com/place/detail?uid=9484c211e9a6d20e734b8730&output=html&source=placeapi_v2,17.0,10:00-22:30,3.8,,,,,,,,0,,,,,,,114.39304288704,30.48247492921,0
523cc512d3638a4fb45f1ede,街电(华夏阳光创业咖啡),生活服务,其他,湖北省,武汉市,江夏区,武汉市江夏区关山大道589号,523cc512d3638a4fb45f1ede,1,0,114.417321,30.473842,,life,http://api.map.baidu.com/place/detail?uid=523cc512d3638a4fb45f1ede&output=html&source=placeapi_v2,,00:00-24:00,,,,,,,,1,,,,,,,,,,0
a59097d5c48ca3a1c33644f8,红枫咖啡,美食,咖啡厅,湖北省,武汉市,洪山区,湖北武汉市洪山区文华园路8号文华学院创新创业基地1楼,a59097d5c48ca3a1c33644f8,1,0,114.447359,30.500569,13429894117,cater,http://api.map.baidu.com/place/detail?uid=a59097d5c48ca3a1c33644f8&output=html&source=placeapi_v2,,09:30-21:30,0,,,,,,,,1,,,,,,,,,0
1a5f9d216e398014d12dd679,星巴克(光谷金融中心店),美食,咖啡厅,湖北省,武汉市,洪山区,湖北省武汉市洪山区高新大道668号光谷金融中心1层,,1,0,114.486165,30.492113,"(027)87002312,(027)87002952",cater,http://api.map.baidu.com/place/detail?uid=1a5f9d216e398014d12dd679&output=html&source=placeapi_v2,43.0,07:30-19:00,4.0,,,,,,,4,1,,,,,,,114.486201209,30.49171147143,0
ea53152a1a78f176fb2d6193,星巴克(金色港湾店),美食,咖啡厅,湖北省,武汉市,蔡甸区,湖北省武汉市蔡甸区经济技术开发区博学路6号金色港湾1层B102商铺,ea53152a1a78f176fb2d6193,1,0,114.161255,30.523695,(027)84396717,cater,http://api.map.baidu.com/place/detail?uid=ea53152a1a78f176fb2d6193&output=html&source=placeapi_v2,35.0,08:00-21:30,3.9,,,,,,,10,0,,,,,,,114.16177554653,30.523608799818,0
c43da81e29b8ad7cb54f54c1,LuckinCoffee瑞幸咖啡(江汉大学店),美食,蛋糕甜品店,湖北省,武汉市,蔡甸区,湖北省武汉市蔡甸区三角湖路8号武汉明德酒店有限公司一层101室,c43da81e29b8ad7cb54f54c1,1,0,114.168304,30.514428,4000100100,cater,http://api.map.baidu.com/place/detail?uid=c43da81e29b8ad7cb54f54c1&output=html&source=placeapi_v2,20.0,07:00-20:00,4.1,,,,,,,,0,,,,,,,,,0
614c5ab56b3de36252e5c5f8,厝边咖啡馆,美食,咖啡厅,湖北省,武汉市,蔡甸区,湖北省武汉市蔡甸区东风三路91-1-101号泰禾百花公园91栋,,1,0,114.167942,30.509563,18802720146,cater,http://api.map.baidu.com/place/detail?uid=614c5ab56b3de36252e5c5f8&output=html&source=placeapi_v2,55.0,11:00-19:00,4.0,,,,,,,,,,,,,,,114.16787952259,30.50934483975,0
c7f721412083d8993517dccf,南来咖啡,美食,咖啡厅,湖北省,武汉市,蔡甸区,湖北省武汉市蔡甸区沌阳大道三角湖路江汉大学北区北苑路14栋,,1,0,114.17198,30.525084,,cater,http://api.map.baidu.com/place/detail?uid=c7f721412083d8993517dccf&output=html&source=placeapi_v2,,,,,,,,,,,,,,,,,,,,0
8bbe8b7d87479a81b020a85b,瑞幸咖啡(华中智谷店),美食,蛋糕甜品店,湖北省,武汉市,汉阳区,湖北省武汉市汉阳区芙蓉路1号华中智谷一期d5栋3楼,8bbe8b7d87479a81b020a85b,1,0,114.209622,30.515521,18502782067,cater,http://api.map.baidu.com/place/detail?uid=8bbe8b7d87479a81b020a85b&output=html&source=placeapi_v2,21.0,07:00-18:00,3,,,,,,,,1,,,,,,,,,0
5e230f49a772985d26d2bb84,星巴克(永旺梦乐城武汉经开店),美食,咖啡厅,湖北省,武汉市,汉阳区,湖北省武汉市经济开发区江城大道408号永旺梦乐城F1,5e230f49a772985d26d2bb84,1,0,114.213217,30.510657,(027)84733226,cater,http://api.map.baidu.com/place/detail?uid=5e230f49a772985d26d2bb84&output=html&source=placeapi_v2,37.0,09:00-22:00,4.5,,,,,,,,1,,,,,,,114.21348201168,30.510531412587,0
cb6b7e580a323e9cf5c59ca2,XMeet遇见咖啡(永旺梦乐城店),美食,咖啡厅,湖北省,武汉市,汉阳区,汉阳区蔷薇路碧桂园泰富城1栋2单元D501,cb6b7e580a323e9cf5c59ca2,1,0,114.21249,30.511687,13476848534,cater,http://api.map.baidu.com/place/detail?uid=cb6b7e580a323e9cf5c59ca2&output=html&source=placeapi_v2,,11:00-21:00,4.6,,,,,,,,13,,,,,,,,,0
46865bf1dbdf1a1b9cec2b81,Roll Coffee,美食,咖啡厅,湖北省,武汉市,汉阳区,湖北省武汉市汉阳区江城大道金地澜菲溪岸14栋103室,,1,0,114.220271,30.519562,15207100540,cater,http://api.map.baidu.com/place/detail?uid=46865bf1dbdf1a1b9cec2b81&output=html&source=placeapi_v2,41.0,10:00-22:00,4.2,,,,,,,,,,,,,,,,,0
f30c8b7512786b90735e8089,顺水鱼馆(永旺店),美食,中餐厅,湖北省,武汉市,汉阳区,湖北省武汉市汉阳区蔷薇路127~128号碧桂园泰富城2-127号,f30c8b7512786b90735e8089,1,0,114.211074,30.512401,13317180263,cater,http://api.map.baidu.com/place/detail?uid=f30c8b7512786b90735e8089&output=html&source=placeapi_v2,58.0,10:00-22:00,3.9,,,,,,,,1,,,,,,,114.21129792272,30.51224691129,0
3efcc0cb237acaf00869d943,猫翘咖啡店,美食,咖啡厅,湖北省,武汉市,汉阳区,湖北省武汉市汉阳区蔷薇路碧桂园泰富城3栋3单元D1706D1707号,,1,0,114.210221,30.512849,"13161275715,18607175326",cater,http://api.map.baidu.com/place/detail?uid=3efcc0cb237acaf00869d943&output=html&source=placeapi_v2,,,4.1,,,,,,,,,,,,,,,114.2106826878,30.513468425706,0
21317812cfeff33f1d580044,方舟ontheway・Cafe,美食,咖啡厅,湖北省,武汉市,蔡甸区,体育路经开万达B3栋写字楼2013室,,1,0,114.182746,30.512485,18971376406,cater,http://api.map.baidu.com/place/detail?uid=21317812cfeff33f1d580044&output=html&source=placeapi_v2,37.0,11:00-21:00,5.0,,,,,,,,7,,,,,,,,,0
a8dda8d0957eb977e9f853d0,sky house,美食,咖啡厅,湖北省,武汉市,蔡甸区,湖北省武汉市蔡甸区体育路2013号,a8dda8d0957eb977e9f853d0,1,0,114.182886,30.512359,13886113871,cater,http://api.map.baidu.com/place/detail?uid=a8dda8d0957eb977e9f853d0&output=html&source=placeapi_v2,,13:00-20:30,,,,,,,,,,,,,,,,,,0
cd286a8ae026daba43e192fc,星巴克(华发未来荟店),美食,咖啡厅,湖北省,武汉市,汉阳区,武汉市江城大道与四新南路交叉口东北角华发未来荟一层L1001商铺,cd286a8ae026daba43e192fc,1,0,114.224095,30.518473,(027)84467751,cater,http://api.map.baidu.com/place/detail?uid=cd286a8ae026daba43e192fc&output=html&source=placeapi_v2,46.0,08:00-21:00,4.0,,,,,,,4,1,,,,,,,114.22387964374,30.518214432027,0
f593ef9963eb5a49b34c49a8,瑞幸咖啡(星光国际店),美食,蛋糕甜品店,湖北省,武汉市,汉阳区,湖北武汉市汉阳区四新北路356号星光国际2期3栋1层7号,f593ef9963eb5a49b34c49a8,1,0,114.227301,30.529082,4000100100,cater,http://api.map.baidu.com/place/detail?uid=f593ef9963eb5a49b34c49a8&output=html&source=placeapi_v2,24.0,07:00-20:00,3.9,,,,,,,,0,,,,,,,,,0
46865bf1dbdf1a1b9cec2b81,Roll Coffee,美食,咖啡厅,湖北省,武汉市,汉阳区,湖北省武汉市汉阳区江城大道金地澜菲溪岸14栋103室,,1,0,114.220271,30.519562,15207100540,cater,http://api.map.baidu.com/place/detail?uid=46865bf1dbdf1a1b9cec2b81&output=html&source=placeapi_v2,41.0,10:00-22:00,4.2,,,,,,,,,,,,,,,,,0
97a34a00417bfef13ce2318d,woos honhgkong cuisine,美食,,湖北省,武汉市,汉阳区,武汉市汉阳区鄂渚路碧园居,97a34a00417bfef13ce2318d,1,0,114.237215,30.513168,,cater,http://api.map.baidu.com/place/detail?uid=97a34a00417bfef13ce2318d&output=html&source=placeapi_v2,,,,,,,,,,,,,,,,,,,,0
cd9d05dd764805af84420ee1,松涛咖啡,美食,咖啡厅,湖北省,武汉市,武昌区,湖北省武汉市武昌区瑞安街226号,cd9d05dd764805af84420ee1,1,0,114.327499,30.518606,13072706989,cater,http://api.map.baidu.com/place/detail?uid=cd9d05dd764805af84420ee1&output=html&source=placeapi_v2,32.0,10:00-02:00,3.5,,,,,,,,3,,,,,,,114.32754073634,30.518799989866,0
045783f81d30406411882431,漫咖啡(百瑞景店),美食,咖啡厅,湖北省,武汉市,武昌区,湖北省武汉市武昌区宝通寺路百瑞景中央花园12号(星巴克与佰乐星纯K中间),045783f81d30406411882431,1,0,114.341333,30.527321,(027)87662928,cater,http://api.map.baidu.com/place/detail?uid=045783f81d30406411882431&output=html&source=placeapi_v2,42.0,09:00-02:00,4.0,,,,,,,,147,,,,,,,114.34154103073,30.527263889725,0
5ffb1816b218a1466e47608f,尚古咖啡,美食,咖啡厅,湖北省,武汉市,武昌区,湖北省武汉市武昌区丁字桥路55号城市印象小区,5ffb1816b218a1466e47608f,1,0,114.335815,30.527769,(027)87735003,cater,http://api.map.baidu.com/place/detail?uid=5ffb1816b218a1466e47608f&output=html&source=placeapi_v2,38.0,,3.5,,,,,,,,14,,,,,,,114.33601346677,30.527720075535,0
7398a99b6e91c0a8c1f1cf98,星巴克(维佳体验城店),美食,咖啡厅,湖北省,武汉市,洪山区,武汉市洪山区丁字桥南路525号维佳体验城F1,7398a99b6e91c0a8c1f1cf98,1,0,114.332519,30.508162,(027)87582090,cater,http://api.map.baidu.com/place/detail?uid=7398a99b6e91c0a8c1f1cf98&output=html&source=placeapi_v2,39.0,07:30-22:30,4.0,,,,,,,18,61,,,,,,,114.3325497229,30.508192576821,0
97f87479b049f75e07fef53e,星巴克(万隆广场店),美食,咖啡厅,湖北省,武汉市,武昌区,湖北省武汉市武昌区白沙洲大道404号万隆广场F1,97f87479b049f75e07fef53e,1,0,114.309417,30.524942,(027)88733756,cater,http://api.map.baidu.com/place/detail?uid=97f87479b049f75e07fef53e&output=html&source=placeapi_v2,37.0,07:00-22:00,3.8,,,,,,,,3,,,,,,,114.30873823095,30.524919972451,0
ccef0f9cdbe77fe740afe600,DT咖啡,美食,咖啡厅,湖北省,武汉市,武昌区,武汉市武昌区雅安街五环广场A座,ccef0f9cdbe77fe740afe600,1,0,114.323126,30.515186,,cater,http://api.map.baidu.com/place/detail?uid=ccef0f9cdbe77fe740afe600&output=html&source=placeapi_v2,,,,,,,,,,,,,,,,,,,,0
2e573fc89c91573342d63e9b,星巴克(百瑞景店),美食,咖啡厅,湖北省,武汉市,武昌区,湖北省武汉市武昌区武珞路586号宝通寺路百瑞景商业5号楼1层,2e573fc89c91573342d63e9b,1,0,114.34114,30.527095,(027)87106769,life,http://api.map.baidu.com/place/detail?uid=2e573fc89c91573342d63e9b&output=html&source=placeapi_v2,,07:30-22:00,4.1,,,,,,,9,2,,,,,,,114.3412153842,30.526934396582,0
deab97a8099402c5283a9f1a,Miss J cake&coffee,美食,咖啡厅,湖北省,武汉市,武昌区,湖北省武汉市武昌区平安路152号,,1,0,114.326692,30.513003,18627912342,cater,http://api.map.baidu.com/place/detail?uid=deab97a8099402c5283a9f1a&output=html&source=placeapi_v2,,08:00-21:00,,,,,,,,,,,,,,,,114.32646315779,30.512986751707,0
4fcc625d20d017a1b5147f0b,星巴克(武汉理工大学南湖校区店),美食,咖啡厅,湖北省,武汉市,洪山区,湖北省武汉市洪山区雄楚大道258号理工大学南湖校区1层lg-122号,4fcc625d20d017a1b5147f0b,1,0,114.344195,30.514537,(027)87387360,cater,http://api.map.baidu.com/place/detail?uid=4fcc625d20d017a1b5147f0b&output=html&source=placeapi_v2,39.0,07:30-20:00,3.4,,,,,,,,,,,,,,,,,0
16782e380dec2d7fcc06a4f8,瑞幸咖啡(南湖松涛苑店),美食,蛋糕甜品店,湖北省,武汉市,武昌区,湖北省武汉市武昌区丁字桥南路345号,,1,0,114.331969,30.515978,4000100100,cater,http://api.map.baidu.com/place/detail?uid=16782e380dec2d7fcc06a4f8&output=html&source=placeapi_v2,,08:00-20:30,,,,,,,,,1,,,,,,,,,0
e277a4495bab1eceb320a884,有猫饼猫咪咖啡厅,美食,蛋糕甜品店,湖北省,武汉市,武昌区,雅云路南湖沃尔玛二号门右边today旁2栋9层8室,,1,0,114.331426,30.511817,,cater,http://api.map.baidu.com/place/detail?uid=e277a4495bab1eceb320a884&output=html&source=placeapi_v2,,,,,,,,,,,,,,,,,,,,0
813c53aeadccf7bde311031f,鑫乐园,美食,咖啡厅,湖北省,武汉市,武昌区,湖北省武汉市武昌区静安路静安上城鑫乐园,813c53aeadccf7bde311031f,1,0,114.328847,30.529634,,cater,http://api.map.baidu.com/place/detail?uid=813c53aeadccf7bde311031f&output=html&source=placeapi_v2,,,0,,,,,,,,1,,,,,,,114.32884619972,30.529737507897,0
9114c1bbc6fe8a6bb64f54b4,披萨咖啡,美食,小吃快餐店,湖北省,武汉市,武昌区,武汉市武昌区静安路梅苑小区-二期,9114c1bbc6fe8a6bb64f54b4,1,0,114.329523,30.535225,,cater,http://api.map.baidu.com/place/detail?uid=9114c1bbc6fe8a6bb64f54b4&output=html&source=placeapi_v2,,,,,,,,,,,,,,,,,,114.32935290062,30.535302956676,0
df5940b4077a78e525d2bbea,不只咖啡,美食,咖啡厅,湖北省,武汉市,洪山区,湖北省武汉市洪山区南湖文昌路金地格林小城美茵区西门口商铺(小桥梁教育隔壁、维佳青舍酒店对面),df5940b4077a78e525d2bbea,1,0,114.338417,30.507481,18108603260,cater,http://api.map.baidu.com/place/detail?uid=df5940b4077a78e525d2bbea&output=html&source=placeapi_v2,,,3.7,,,,,,,,4,,,,,,,,,0
fb7d27bef751cd45f82d61fb,半山迹,美食,中餐厅,湖北省,武汉市,洪山区,桂元路270号,,1,0,114.364586,30.518992,15927157886,cater,http://api.map.baidu.com/place/detail?uid=fb7d27bef751cd45f82d61fb&output=html&source=placeapi_v2,,09:00-23:00,,,,,,,,11,3,,,,,,,114.36442553787,30.518940633797,0
5a7d7e0db020661cdbecedbe,和物,美食,咖啡厅,湖北省,武汉市,洪山区,湖北省武汉市洪山区桂元路65号101(晨光文具旁铁门内),5a7d7e0db020661cdbecedbe,1,0,114.364444,30.529275,13807197875,cater,http://api.map.baidu.com/place/detail?uid=5a7d7e0db020661cdbecedbe&output=html&source=placeapi_v2,56.0,,4.2,,,,,,,,1,,,,,,,,,0
a1d717d6bbfc8d184107c13d,星巴克(群光百脑汇店),美食,咖啡厅,湖北省,武汉市,洪山区,湖北省武汉市洪山区珞喻路10号,a1d717d6bbfc8d184107c13d,1,0,114.363399,30.531381,(027)87515609,cater,http://api.map.baidu.com/place/detail?uid=a1d717d6bbfc8d184107c13d&output=html&source=placeapi_v2,34.0,,3.8,,,,,,,,1,,,,,,,114.36378882072,30.531533336204,0
6a172ac385b364db008972e5,猫岛咖啡(广八路店),美食,咖啡厅,湖北省,武汉市,洪山区,湖北省武汉市洪山区广八路106号,6a172ac385b364db008972e5,1,0,114.370411,30.532671,"15927547014,18457329013",cater,http://api.map.baidu.com/place/detail?uid=6a172ac385b364db008972e5&output=html&source=placeapi_v2,39.0,11:00-22:00,4.0,,,,,,,,3,,,,,,,,,0
bc6b91132da0d4f4cae33cf7,Lecoffee,美食,咖啡厅,湖北省,武汉市,洪山区,武汉市洪山区桂东路卓悦假日酒店西侧约50米,,1,0,114.374151,30.521689,13554025771,cater,http://api.map.baidu.com/place/detail?uid=bc6b91132da0d4f4cae33cf7&output=html&source=placeapi_v2,,09:30-22:30,4.6,,,,,,,,11,,,,,,,,,0
f1ad595a1657b3d33686f4c5,星巴克(新世界百货武昌店),美食,咖啡厅,湖北省,武汉市,洪山区,武汉市洪山区珞喻路1号新世界百货F1,f1ad595a1657b3d33686f4c5,1,0,114.360381,30.533188,(027)51799260,cater,http://api.map.baidu.com/place/detail?uid=f1ad595a1657b3d33686f4c5&output=html&source=placeapi_v2,37.0,07:30-22:00,4.2,,,,,,,,1,,,,,,,114.36062461322,30.534027393596,0
2d1455287eff43ee2afc4856,漫咖啡(街道口店),美食,咖啡厅,湖北省,武汉市,洪山区,湖北省武汉市洪山区珞瑜路35号(街道口群光广场对面)银泰创意城F1,2d1455287eff43ee2afc4856,1,0,114.36372,30.532321,(027)59908699,cater,http://api.map.baidu.com/place/detail?uid=2d1455287eff43ee2afc4856&output=html&source=placeapi_v2,45.0,08:00-01:00,4.1,,,,,,,,33,,,,,,,114.36392145373,30.533047330201,0
7dac6073b410e4ffe6e96555,荆楚创客咖啡,美食,咖啡厅,湖北省,武汉市,洪山区,湖北省武汉市洪山区珞狮路122号c区2楼,7dac6073b410e4ffe6e96555,1,0,114.358839,30.528288,18627192927,cater,http://api.map.baidu.com/place/detail?uid=7dac6073b410e4ffe6e96555&output=html&source=placeapi_v2,12.0,08:30-18:00,3.6,,,,,,,,1,,,,,,,114.35899738938,30.528285643474,0
8d310a35318d1f4bebe582fb,虎哥家的萌宠屋(街道口店),美食,咖啡厅,湖北省,武汉市,洪山区,湖北省武汉市洪山区珞狮路阜华大厦a座706室,8d310a35318d1f4bebe582fb,1,0,114.359879,30.532239,18507165267,cater,http://api.map.baidu.com/place/detail?uid=8d310a35318d1f4bebe582fb&output=html&source=placeapi_v2,41.0,11:00-22:00,4.6,,,,,,,,0,,,,,,,114.35978195684,30.532168897548,0
c4b381bc98046f4280a12e85,八目咖啡,美食,咖啡厅,湖北省,武汉市,洪山区,武汉市洪山区桂竹园北路武汉理工大学马房山校区东院,c4b381bc98046f4280a12e85,1,0,114.35933,30.524518,18695121659,cater,http://api.map.baidu.com/place/detail?uid=c4b381bc98046f4280a12e85&output=html&source=placeapi_v2,,10:00-21:00,3.5,,,,,,,,0,,,,,,,,,0
133922dd0dad2748f32d8397,救地球・Bistro&Cafe惠灵顿牛排(广八路店),美食,外国餐厅,湖北省,武汉市,洪山区,湖北省武汉市洪山区广八路94号94号附1号,,1,0,114.369321,30.531708,15808117784,cater,http://api.map.baidu.com/place/detail?uid=133922dd0dad2748f32d8397&output=html&source=placeapi_v2,73.0,11:00-21:00,4.4,,,,,,,,2,,,,,,,,,0
e2c3c451407dcc18bca82297,MissMiao猫咪主题咖啡馆(街道口店),购物,商铺,湖北省,武汉市,洪山区,湖北省武汉市洪山区珞喻路999号阜华大厦c座602室,e2c3c451407dcc18bca82297,1,0,114.360478,30.532242,18971688237,cater,http://api.map.baidu.com/place/detail?uid=e2c3c451407dcc18bca82297&output=html&source=placeapi_v2,37.0,,4.7,,,,,,,11,200,,,,,,,114.36057969884,30.532209502391,0
9a39e340e0effcee1f38949d,瑞幸咖啡(新世界百货武昌店),美食,蛋糕甜品店,湖北省,武汉市,洪山区,武汉市洪山区珞喻路1号新世界百货F2,9a39e340e0effcee1f38949d,1,0,114.360452,30.533721,4000100100,cater,http://api.map.baidu.com/place/detail?uid=9a39e340e0effcee1f38949d&output=html&source=placeapi_v2,17.0,09:30-21:00,4.5,,,,,,,,0,,,,,,,114.36062461322,30.534027393596,0
d0146ebdbe6bcc7642d63e82,MOON CAT CAFE悦猫咖啡厅,美食,中餐厅,湖北省,武汉市,洪山区,湖北省武汉市洪山区珞喻路街道口未来城E座2505号,d0146ebdbe6bcc7642d63e82,1,0,114.360387,30.53089,18064044163,cater,http://api.map.baidu.com/place/detail?uid=d0146ebdbe6bcc7642d63e82&output=html&source=placeapi_v2,38.0,11:00-21:00,4.6,,,,,,,,9,,,,,,,,,0
08daf2f0a51cd04042afe67c,未来城购物公园-咪呀现磨咖啡,美食,咖啡厅,湖北省,武汉市,洪山区,湖北省武汉市洪山区珞狮南路147号未来城购物公园F1,,1,0,114.359976,30.530776,,cater,http://api.map.baidu.com/place/detail?uid=08daf2f0a51cd04042afe67c&output=html&source=placeapi_v2,,,,,,,,,,,,,,,,,,114.35974833865,30.530316035241,0
50f42234349d98c30ab93a3d,DayDream,美食,咖啡厅,湖北省,武汉市,洪山区,武汉市洪山区群光上苑五栋2602号,50f42234349d98c30ab93a3d,1,0,114.361225,30.529969,15071667287,cater,http://api.map.baidu.com/place/detail?uid=50f42234349d98c30ab93a3d&output=html&source=placeapi_v2,,,,,,,,,,,,,,,,,,,,0
cd9d05dd6e5a0db584420e99,心语,美食,茶座,湖北省,武汉市,洪山区,湖北省武汉市洪山区石牌岭路8期19栋,cd9d05dd6e5a0db584420e99,1,0,114.349891,30.530068,18627009317,cater,http://api.map.baidu.com/place/detail?uid=cd9d05dd6e5a0db584420e99&output=html&source=placeapi_v2,,,0,,,,,,,,2,,,,,,,114.34986443314,30.530003364666,0
fafcde2d1245b0c2250bd033,WUHANPRISON,美食,酒吧,湖北省,武汉市,洪山区,武汉市洪山区鲁磨路国光大厦A座半地下室,fafcde2d1245b0c2250bd033,1,0,114.406174,30.518262,15902773437,cater,http://api.map.baidu.com/place/detail?uid=fafcde2d1245b0c2250bd033&output=html&source=placeapi_v2,77.0,10:00-21:00,0,,,,,,,,0,,,,,,,114.40619494207,30.518316838498,0
174a810f9674d0dfb01e360d,谷咖啡,美食,咖啡厅,湖北省,武汉市,洪山区,湖北省武汉市洪山区邮科院路88号,174a810f9674d0dfb01e360d,1,0,114.401445,30.523821,13638622369,cater,http://api.map.baidu.com/place/detail?uid=174a810f9674d0dfb01e360d&output=html&source=placeapi_v2,67.0,08:30-21:00,4.4,,,,,,,,1,,,,,,,114.40100792395,30.52394647478,0
c7c74b972435530af32d83ed,星巴克臻选(世界城广场店),美食,咖啡厅,湖北省,武汉市,洪山区,武汉市洪山区珞喻路766号世界城广场F1,c7c74b972435530af32d83ed,1,0,114.411442,30.512359,(027)87698522,cater,http://api.map.baidu.com/place/detail?uid=c7c74b972435530af32d83ed&output=html&source=placeapi_v2,34.0,08:00-22:30,4.1,,,,,,,,0,,,,,,,114.41141649736,30.512503982536,0
d718e34cdfad8a979122e0a8,氧气层(华科店),美食,咖啡厅,湖北省,武汉市,洪山区,湖北省武汉市洪山区珞喻路1037号华中科技大学主校区西三区华宏留学生公寓旁,d718e34cdfad8a979122e0a8,1,0,114.411222,30.521106,15827168114,cater,http://api.map.baidu.com/place/detail?uid=d718e34cdfad8a979122e0a8&output=html&source=placeapi_v2,37.0,10:00-22:00,3.2,,,,,,,,6,,,,,,,114.41130447238,30.52112600875,0
84fb64646106f4507ec87664,星巴克(光谷国际广场店),美食,咖啡厅,湖北省,武汉市,洪山区,湖北武汉市洪山区珞喻路889号光谷国际广场1层,84fb64646106f4507ec87664,1,0,114.404883,30.513215,,cater,http://api.map.baidu.com/place/detail?uid=84fb64646106f4507ec87664&output=html&source=placeapi_v2,39.0,07:00-21:30,3.9,,,,,,,82,89,,,,,,,114.40320287687,30.513233382992,0
6266adaf8e7a4e7132870a5a,星巴克(光谷世界城三期店),美食,咖啡厅,湖北省,武汉市,洪山区,湖北省武汉市洪山区珞喻路726号1楼,6266adaf8e7a4e7132870a5a,1,0,114.412926,30.508072,,life,http://api.map.baidu.com/place/detail?uid=6266adaf8e7a4e7132870a5a&output=html&source=placeapi_v2,,08:00-23:00,4.4,,,,,,,14,192,,,,,,,114.41279923927,30.507841591088,0
0ed8cda4059e6b0a0969d95c,星巴克(光谷泛悦城店),美食,咖啡厅,湖北省,武汉市,洪山区,湖北省武汉市洪山区关山大道21号,,1,0,114.420174,30.512066,(027)87340589,cater,http://api.map.baidu.com/place/detail?uid=0ed8cda4059e6b0a0969d95c&output=html&source=placeapi_v2,,07:30-21:30,,,,,,,,,1,,,,,,,114.42000376984,30.512081143741,0
2be9c1e7eb995810f33cba6e,武汉华美达光谷大酒店・广场咖啡西餐厅,美食,外国餐厅,湖北省,武汉市,洪山区,湖北省武汉市洪山区珞喻路726号,2be9c1e7eb995810f33cba6e,1,0,114.403843,30.51211,,cater,http://api.map.baidu.com/place/detail?uid=2be9c1e7eb995810f33cba6e&output=html&source=placeapi_v2,,"06:30-10:00,17:30-21:00",3.7,,,,,,,,7,,,,,,,114.40393901398,30.511908323889,0
ef4dc85805c39efd4307c1a3,星巴克(法国风情街店),美食,咖啡厅,湖北省,武汉市,洪山区,湖北省武汉市洪山区光谷街33号法国风情街南区4号楼1层h4106单元,ef4dc85805c39efd4307c1a3,1,0,114.417477,30.506217,(027)85560641,cater,http://api.map.baidu.com/place/detail?uid=ef4dc85805c39efd4307c1a3&output=html&source=placeapi_v2,34.0,07:00-21:00,3.7,,,,,,,,,,,,,,,114.41745842746,30.506669834914,0
27930c3b9c912d492d473399,轻饮咖啡(光谷店),美食,咖啡厅,湖北省,武汉市,洪山区,湖北省武汉市洪山区珞喻路11号加州阳光一期区18号,27930c3b9c912d492d473399,1,0,114.410374,30.510266,18062565922,cater,http://api.map.baidu.com/place/detail?uid=27930c3b9c912d492d473399&output=html&source=placeapi_v2,18.0,07:30-19:30,4.8,,,,,,,,200,,,,,,,,,0
e1fb379d317376d00b1cc7b5,慕乔猫咖(光谷二店),美食,中餐厅,湖北省,武汉市,洪山区,湖北省武汉市洪山区光谷街23号柏林广场8号楼,e1fb379d317376d00b1cc7b5,1,0,114.415572,30.507239,13628639991,cater,http://api.map.baidu.com/place/detail?uid=e1fb379d317376d00b1cc7b5&output=html&source=placeapi_v2,38.0,10:30-22:00,4.4,,,,,,,,98,,,,,,,114.41641541302,30.507279307303,0
de1bba792a402fd4c51b75fd,猫咖(世界城光谷步行街店),美食,蛋糕甜品店,湖北省,武汉市,洪山区,湖北省武汉市洪山区珞瑜路726号世界城光谷步行街B1,de1bba792a402fd4c51b75fd,1,0,114.409418,30.511271,18942119559,cater,http://api.map.baidu.com/place/detail?uid=de1bba792a402fd4c51b75fd&output=html&source=placeapi_v2,41.0,10:30-21:30,3.5,,,,,,,,3,,,,,,,114.40804600209,30.510313617967,0
57c48dd33ab4918b1ce999ff,怡程精品商务酒店-YICAFE餐厅,美食,咖啡厅,湖北省,武汉市,洪山区,湖北省武汉市洪山区鲁巷特2号,57c48dd33ab4918b1ce999ff,1,0,114.394804,30.511231,(027)65398477,cater,http://api.map.baidu.com/place/detail?uid=57c48dd33ab4918b1ce999ff&output=html&source=placeapi_v2,,"07:00-14:00,17:30-21:00",4,,,,,,,,1,,,,,,,,,0
56cd425dffadb51efbf0cbb5,瑞幸咖啡(中国地质大学中商2店),美食,蛋糕甜品店,湖北省,武汉市,洪山区,武汉市洪山区弘毅路中国地质大学(西区),56cd425dffadb51efbf0cbb5,1,0,114.403672,30.526159,4000100100,cater,http://api.map.baidu.com/place/detail?uid=56cd425dffadb51efbf0cbb5&output=html&source=placeapi_v2,18.0,07:30-19:30,4,,,,,,,,1,,,,,,,,,0
d53305b04e76dc9a9cec2bb3,星巴克(洪福添美店),美食,咖啡厅,湖北省,武汉市,洪山区,湖北省武汉市洪山区雄楚大道938号,d53305b04e76dc9a9cec2bb3,1,0,114.405258,30.503449,(027)87504661,life,http://api.map.baidu.com/place/detail?uid=d53305b04e76dc9a9cec2bb3&output=html&source=placeapi_v2,,07:30-22:00,3.7,,,,,,,25,12,,,,,,,114.40526580852,30.503652910745,0
c90a3cbec8f6027081288a18,有家猫咖啡馆(光谷店),美食,中餐厅,湖北省,武汉市,洪山区,洪山区民族大道尖东智能花园7栋402室,,1,0,114.404472,30.510343,,cater,http://api.map.baidu.com/place/detail?uid=c90a3cbec8f6027081288a18&output=html&source=placeapi_v2,,,,,,,,,,,,,,,,,,,,0
7aa6aab2cdf035aa3f9a5ef6,漫咖啡(泛悦城店),美食,咖啡厅,湖北省,武汉市,洪山区,湖北省武汉市洪山区关山大道21号泛悦城1层D-F1-1a、D-F1~2单元,,1,0,114.420808,30.511737,(027)65390796,cater,http://api.map.baidu.com/place/detail?uid=7aa6aab2cdf035aa3f9a5ef6&output=html&source=placeapi_v2,45.0,08:00-24:00,4.1,,,,,,,,2,,,,,,,114.4199725618,30.511808307325,0
6b80c67532bad2611e5800c0,旧黎咖啡(意大利风情街店),美食,咖啡厅,湖北省,武汉市,洪山区,湖北省武汉市洪山区珞瑜路726号光谷意大利风情街1号楼,6b80c67532bad2611e5800c0,1,0,114.41307,30.508371,,cater,http://api.map.baidu.com/place/detail?uid=6b80c67532bad2611e5800c0&output=html&source=placeapi_v2,37.0,10:30-22:30,0,,,,,,,,0,,,,,,,,,0
ab188a2a38ac95bb04fef5a9,27F空中鸡尾酒廊,美食,酒吧,湖北省,武汉市,洪山区,湖北省武汉市洪山区关山大道光谷时代广场b座27f,ab188a2a38ac95bb04fef5a9,1,0,114.420058,30.507491,15926254494,cater,http://api.map.baidu.com/place/detail?uid=ab188a2a38ac95bb04fef5a9&output=html&source=placeapi_v2,110.0,20:00-02:30,0,,,,,,,,0,,,,,,,114.41979825281,30.507511848563,0
83b1967be7e3aa594557260d,武汉光谷金盾大酒店-大堂吧,美食,酒吧,湖北省,武汉市,洪山区,湖北省武汉市洪山区吴家湾特1号光谷金盾大酒店内,83b1967be7e3aa594557260d,1,0,114.394945,30.519217,(027)87887788,cater,http://api.map.baidu.com/place/detail?uid=83b1967be7e3aa594557260d&output=html&source=placeapi_v2,,09:00-24:00,0,,,,,,,,0,,,,,,,114.39521548024,30.519322189444,0
ed4c64b2e4d323496d20b969,wagon coffee(世界城广场店),美食,咖啡厅,湖北省,武汉市,洪山区,武汉市洪山区珞喻路766号世界城广场F3,,1,0,114.412644,30.512138,"(027)87888515,18058346112",cater,http://api.map.baidu.com/place/detail?uid=ed4c64b2e4d323496d20b969&output=html&source=placeapi_v2,25.0,10:00-22:00,4.5,,,,,,,,,,,,,,,114.41305854684,30.511985956874,0
83179cf54b3b05eef5c59c7d,瑞幸咖啡(法国风情街店),美食,蛋糕甜品店,湖北省,武汉市,洪山区,湖北省武汉市东湖高新区关山路世界城广场法国风情街2号楼2107号,83179cf54b3b05eef5c59c7d,1,0,114.417334,30.505728,15071177006,cater,http://api.map.baidu.com/place/detail?uid=83179cf54b3b05eef5c59c7d&output=html&source=placeapi_v2,16.0,09:00-21:00,4.0,,,,,,,,6,,,,,,,114.41726230401,30.505346153553,0
1285a5dc243d39ddcf04efb1,wagon(世界城广场店),美食,咖啡厅,湖北省,武汉市,洪山区,武汉市洪山区珞喻路766号世界城广场F3,,1,0,114.412363,30.512163,,cater,http://api.map.baidu.com/place/detail?uid=1285a5dc243d39ddcf04efb1&output=html&source=placeapi_v2,,,,,,,,,,,,,,,,,,114.41305854684,30.511985956874,0
9f9b0be0150f635fb9df8ff9,STABUCKSCOFFEE,美食,咖啡厅,湖北省,武汉市,洪山区,武汉市洪山区步行街南路罗马凯撒广场,,1,0,114.415256,30.506888,"(027)87521096,18571616880",cater,http://api.map.baidu.com/place/detail?uid=9f9b0be0150f635fb9df8ff9&output=html&source=placeapi_v2,,08:00-22:00,3.5,,,,,,,,,,,,,,,,,0
de382f64b6fe6c96acee7a17,咖啡简餐,美食,咖啡厅,湖北省,武汉市,洪山区,武汉市洪山区梳子桥路广厦华庭永隆苑蓝巢逸品,,1,0,114.416604,30.507738,,cater,http://api.map.baidu.com/place/detail?uid=de382f64b6fe6c96acee7a17&output=html&source=placeapi_v2,,,,,,,,,,,,,,,,,,,,0
9855338c3a1ee0d440afe6e0,回光谷创业咖啡,美食,咖啡厅,湖北省,武汉市,洪山区,湖北省武汉市洪山区珞喻东路特1号,9855338c3a1ee0d440afe6e0,1,0,114.45993,30.517415,13607136090,cater,http://api.map.baidu.com/place/detail?uid=9855338c3a1ee0d440afe6e0&output=html&source=placeapi_v2,,08:00-21:00,,,,,,,,,,,,,,,,114.45992486555,30.517421900427,0
177e54ddc6b42ecd6d3e1bcc,8小时咖啡(慧谷时空店),美食,咖啡厅,湖北省,武汉市,洪山区,武汉市洪山区光谷森林大道慧谷时空一楼,177e54ddc6b42ecd6d3e1bcc,1,0,114.438742,30.510771,4000553336,cater,http://api.map.baidu.com/place/detail?uid=177e54ddc6b42ecd6d3e1bcc&output=html&source=placeapi_v2,,,3.5,,,,,,,,1,,,,,,,,,0
bbacaeaa57182907e81e97e3,武汉光谷咖啡创投有限公司,美食,咖啡厅,湖北省,武汉市,洪山区,湖北省武汉市洪山区珞瑜东路特1号,bbacaeaa57182907e81e97e3,1,0,114.460453,30.517762,,cater,http://api.map.baidu.com/place/detail?uid=bbacaeaa57182907e81e97e3&output=html&source=placeapi_v2,,,,,,,,,,,,,,,,,,114.4606097157,30.517618373321,0
d8449444b25d52769de321c4,星巴克(人信汇汉阳店),美食,咖啡厅,湖北省,武汉市,汉阳区,武汉市汉阳区龙阳大道58号人信汇F1,d8449444b25d52769de321c4,1,0,114.212034,30.558349,(027)84655121,cater,http://api.map.baidu.com/place/detail?uid=d8449444b25d52769de321c4&output=html&source=placeapi_v2,44.0,07:00-22:00,3.9,,,,,,,12,1,,,,,,,114.21240534492,30.558214966837,0
5e5c89c2f20a4e8833621274,星巴克(纽宾凯汉City店),美食,咖啡厅,湖北省,武汉市,汉阳区,湖北省武汉市汉阳区芳草路97号纽宾凯汉city1楼,5e5c89c2f20a4e8833621274,1,0,114.211882,30.538898,(027)59716290,cater,http://api.map.baidu.com/place/detail?uid=5e5c89c2f20a4e8833621274&output=html&source=placeapi_v2,33.0,08:30-21:00,3.9,,,,,,,,46,,,,,,,114.21144316091,30.539076290671,0
694d8bf02bddaa622bb97cd7,糖豆咖啡,美食,咖啡厅,湖北省,武汉市,汉阳区,湖北省武汉市汉阳区陶家岭陶馨阁8栋2401室,,1,0,114.197941,30.550061,,cater,http://api.map.baidu.com/place/detail?uid=694d8bf02bddaa622bb97cd7&output=html&source=placeapi_v2,,,,,,,,,,,,,,,,,,114.19776514979,30.549889377279,0
0df9ada33564f222028972c7,Y・COFFEE,美食,咖啡厅,湖北省,武汉市,汉阳区,汉阳区龙阳大道龙阳村A出口云栖雅智酒店5楼,,1,0,114.213325,30.558071,,cater,http://api.map.baidu.com/place/detail?uid=0df9ada33564f222028972c7&output=html&source=placeapi_v2,,,3.5,,,,,,,,,,,,,,,,,0
85d4274a844bcdafd7851fe2,GIRL PARK咖啡餐吧,美食,咖啡厅,湖北省,武汉市,汉阳区,龙阳大道58号人信汇C馆负一层B28号商铺,,1,0,114.212277,30.560031,,cater,http://api.map.baidu.com/place/detail?uid=85d4274a844bcdafd7851fe2&output=html&source=placeapi_v2,,,5.0,,,,,,,,2,,,,,,,,,0
0e129903d749eebb4657263e,丰华轩茗茶咖啡,美食,茶座,湖北省,武汉市,汉阳区,湖北省武汉市汉阳区永丰街街道龙阳大道龙阳熙苑A12号门面二楼,,1,0,114.211691,30.560049,"(027)84875558,13886159464",cater,http://api.map.baidu.com/place/detail?uid=0e129903d749eebb4657263e&output=html&source=placeapi_v2,,00:00-23:30,,,,,,,,,,,,,,,,114.21184296974,30.560005769799,0
3ae1601481578453210220d0,幺猫幺久猫咖,美食,中餐厅,湖北省,武汉市,汉阳区,武汉市汉阳区汉阳人信汇B座6号楼19层1919室,,1,0,114.21161,30.55847,18674075185,cater,http://api.map.baidu.com/place/detail?uid=3ae1601481578453210220d0&output=html&source=placeapi_v2,30.0,12:00-24:00,,,,,,,,,,,,,,,,114.21117181066,30.558267173622,0
d67f111bb5a19fb06c3e1b97,瑞幸咖啡(武汉摩尔城王家湾店),美食,蛋糕甜品店,湖北省,武汉市,汉阳区,湖北省武汉市汉阳区王家湾龙阳大道特6号武汉摩尔城F1,,1,0,114.214327,30.564512,4000100100,cater,http://api.map.baidu.com/place/detail?uid=d67f111bb5a19fb06c3e1b97&output=html&source=placeapi_v2,21.0,10:00-21:00,4.6,,,,,,,,0,,,,,,,114.212788,30.564649899804,0
d7ebb564078dab85b45f1ea2,枫逸社(名流公馆店),美食,蛋糕甜品店,湖北省,武汉市,汉阳区,湖北省武汉市汉阳区马鹦路名流公馆4期第1幢1~2层5号房,d7ebb564078dab85b45f1ea2,1,0,114.255532,30.54772,"13018060018,13135673366",cater,http://api.map.baidu.com/place/detail?uid=d7ebb564078dab85b45f1ea2&output=html&source=placeapi_v2,,11:00-23:00,3.5,,,,,,,,1,,,,,,,114.25581220288,30.547956766843,0
01189b92a25877b008f5eb21,星巴克(武汉招商公园1872店),美食,咖啡厅,湖北省,武汉市,汉阳区,湖北省武汉市汉阳区江城大道288号招商公园一期9栋1001号,,1,0,114.232867,30.538584,(027)84461119,cater,http://api.map.baidu.com/place/detail?uid=01189b92a25877b008f5eb21&output=html&source=placeapi_v2,38.0,08:00-21:30,4.1,,,,,,,,2,,,,,,,114.23310751494,30.538444511088,0
c3996b1b3cc244c0cf06a459,雅k咖啡,美食,咖啡厅,湖北省,武汉市,汉阳区,七里晴川112栋10号、11号商铺,c3996b1b3cc244c0cf06a459,1,0,114.230369,30.563701,,cater,http://api.map.baidu.com/place/detail?uid=c3996b1b3cc244c0cf06a459&output=html&source=placeapi_v2,,00:00-24:00,3.4,,,,,,,,,,,,,,,114.23052984704,30.563651967877,0
f713dcc572309deaae045786,漫慢来・ TYT Bakery Cafe,美食,咖啡厅,湖北省,武汉市,汉阳区,湖北省武汉市汉阳区汉阳大道2楼,,1,0,114.259246,30.557736,13986292844,cater,http://api.map.baidu.com/place/detail?uid=f713dcc572309deaae045786&output=html&source=placeapi_v2,,,,,,,,,,,1,,,,,,,114.25913280806,30.557214466407,0
be1ea5ef1623fba615948e8c,左岸咖啡吧(拦江路店),美食,咖啡厅,湖北省,武汉市,汉阳区,湖北省武汉市汉阳区拦江路47-9号,be1ea5ef1623fba615948e8c,1,0,114.275795,30.549506,(027)84801376,cater,http://api.map.baidu.com/place/detail?uid=be1ea5ef1623fba615948e8c&output=html&source=placeapi_v2,57.0,10:30-00:30,3.9,,,,,,,,64,,,,,,,114.27576563166,30.549592377456,0
7864c1aa122f906a0869d9ed,瑞幸咖啡(汉商银座购物中心店),美食,蛋糕甜品店,湖北省,武汉市,汉阳区,湖北省武汉市汉阳区汉阳大道139号汉商银座购物中心F1,,1,0,114.273662,30.554932,"18702792255,4000100100",cater,http://api.map.baidu.com/place/detail?uid=7864c1aa122f906a0869d9ed&output=html&source=placeapi_v2,,09:00-19:30,,,,,,,,,,,,,,,,114.27481169948,30.555666111645,0
3810c8798803d6929d09f7fa,岛上咖啡,美食,中餐厅,湖北省,武汉市,汉阳区,湖北省武汉市汉阳区汉阳大道180号,3810c8798803d6929d09f7fa,1,0,114.26851,30.555945,(027)84838173,cater,http://api.map.baidu.com/place/detail?uid=3810c8798803d6929d09f7fa&output=html&source=placeapi_v2,652.0,09:00-01:00,4,,,,,,,,45,,,,,,,114.26849093535,30.555819811924,0
f018c1846d94c5ee9e82ea28,漫花里咖啡,美食,咖啡厅,湖北省,武汉市,汉阳区,湖北省武汉市汉阳区阳新路181附1号,f018c1846d94c5ee9e82ea28,1,0,114.281165,30.548555,17771488088,cater,http://api.map.baidu.com/place/detail?uid=f018c1846d94c5ee9e82ea28&output=html&source=placeapi_v2,,,,,,,,,,,,,,,,,,114.28100896726,30.548612700531,0
244f7973ee174f4ba7c756f6,MaSu咖啡茶,美食,咖啡厅,湖北省,武汉市,汉阳区,湖北省武汉市汉阳区鹦鹉腰路堤路63附123号,,1,0,114.279142,30.546087,18827407014,cater,http://api.map.baidu.com/place/detail?uid=244f7973ee174f4ba7c756f6&output=html&source=placeapi_v2,,,,,,,,,,,,,,,,,,,,0
815b23a129b7ddc100ec01a5,丹餐d,美食,中餐厅,湖北省,武汉市,汉阳区,武汉市汉阳区月湖风景区绿道天下名企汇西侧约160米,815b23a129b7ddc100ec01a5,1,0,114.269764,30.565713,,cater,http://api.map.baidu.com/place/detail?uid=815b23a129b7ddc100ec01a5&output=html&source=placeapi_v2,32.0,11:00-24:00,0,,,,,,,,1,,,,,,,,,0
699a5267a41e47114c3a5964,楠熠猫咖,美食,咖啡厅,湖北省,武汉市,汉阳区,晴川大道世贸希尔顿酒店西20米世茂锦绣长江52F2,,1,0,114.280098,30.544138,18971471001,cater,http://api.map.baidu.com/place/detail?uid=699a5267a41e47114c3a5964&output=html&source=placeapi_v2,,10:00-22:00,,,,,,,,,,,,,,,,,,0
9a29b9b81b2659966fc02cc1,瑞幸咖啡(鹦鹉大道店),美食,咖啡厅,湖北省,武汉市,汉阳区,湖北省武汉市汉阳区鹦鹉大道48号天下名企汇c馆3楼b306,9a29b9b81b2659966fc02cc1,1,0,114.272321,30.565066,4000100100,cater,http://api.map.baidu.com/place/detail?uid=9a29b9b81b2659966fc02cc1&output=html&source=placeapi_v2,,,,,,,,,,,,,,,,,,,,0
e37f223756ae5270c16c14df,伯雅咖啡(昙华林店),美食,咖啡厅,湖北省,武汉市,武昌区,湖北省武汉市武昌区云架桥108号,e37f223756ae5270c16c14df,1,0,114.321392,30.555368,18668153059,cater,http://api.map.baidu.com/place/detail?uid=e37f223756ae5270c16c14df&output=html&source=placeapi_v2,31.0,10:00-21:00,4.7,,,,,,,,0,,,,,,,,,0
ff01d28a8a6b443821022032,星巴克臻选(昙华林店),美食,咖啡厅,湖北省,武汉市,武昌区,湖北省武汉市武昌区昙华林路202号南国昙华林A1一层1-1及1~2单元,ff01d28a8a6b443821022032,1,0,114.323193,30.557902,(027)88712085,cater,http://api.map.baidu.com/place/detail?uid=ff01d28a8a6b443821022032&output=html&source=placeapi_v2,40.0,08:00-21:30,4.2,,,,,,,,150,,,,,,,114.323769,30.557166902236,0
a8ca061fb081d1fd2b11d179,时光纪咖啡(粮道街店),美食,咖啡厅,湖北省,武汉市,武昌区,湖北省武汉市武昌区粮道街285附15号,a8ca061fb081d1fd2b11d179,1,0,114.319704,30.552849,"13349949713,17720205010",cater,http://api.map.baidu.com/place/detail?uid=a8ca061fb081d1fd2b11d179&output=html&source=placeapi_v2,37.0,10:00-21:00,3.4,,,,,,,,61,,,,,,,114.31960215633,30.552755963335,0
c9f5be9fd4f77ee2715e80ed,My书香咖啡美丽汇,美食,咖啡厅,湖北省,武汉市,武昌区,武汉市武昌区紫沙路小东门铁路小区西侧约30米,c9f5be9fd4f77ee2715e80ed,1,0,114.328828,30.552617,,cater,http://api.map.baidu.com/place/detail?uid=c9f5be9fd4f77ee2715e80ed&output=html&source=placeapi_v2,,,,,,,,,,,,,,,,,,114.32870457377,30.552563925219,0
631c415733effb7831f71dc9,融园咖啡馆(昙华林店),美食,咖啡厅,湖北省,武汉市,武昌区,武汉市武昌区昙华林68号(老中医院住院部旁),,1,0,114.315382,30.557821,(027)68897188,cater,http://api.map.baidu.com/place/detail?uid=631c415733effb7831f71dc9&output=html&source=placeapi_v2,51.0,10:30-24:00,3.7,,,,,,,,15,,,,,,,114.31547828187,30.558037137166,0
d8cec56f0b5157c24151c032,星巴克(奥山创意街区店),美食,咖啡厅,湖北省,武汉市,武昌区,湖北省武汉市武昌区武珞路奥山创意街区1层,d8cec56f0b5157c24151c032,1,0,114.337091,30.546989,(027)87732957,cater,http://api.map.baidu.com/place/detail?uid=d8cec56f0b5157c24151c032&output=html&source=placeapi_v2,39.0,,3.8,,,,,,,13,50,,,,,,,114.33706214756,30.547134764965,0
01932bc9f8da4b12afcb66d2,星巴克臻选(帝斯曼店),美食,咖啡厅,湖北省,武汉市,武昌区,湖北省武汉市武昌区武珞路421号一层9号,01932bc9f8da4b12afcb66d2,1,0,114.336066,30.541676,(027)86759098,cater,http://api.map.baidu.com/place/detail?uid=01932bc9f8da4b12afcb66d2&output=html&source=placeapi_v2,45.0,07:30-19:30,3.9,,,,,,,,2,,,,,,,114.33578449588,30.541250524898,0
15ab39c969dd7083c8213d80,星巴克(保利广场店),美食,咖啡厅,湖北省,武汉市,武昌区,湖北省武汉市武昌区中南路99号武汉保利广场一层,15ab39c969dd7083c8213d80,1,0,114.342159,30.549797,(027)87115573,cater,http://api.map.baidu.com/place/detail?uid=15ab39c969dd7083c8213d80&output=html&source=placeapi_v2,37.0,07:30-20:00,3.7,,,,,,,,0,,,,,,,,,0
53c90d7e22b9f838213bf203,SoulHouse,美食,咖啡厅,湖北省,武汉市,武昌区,友谊大道友谊国际D公馆3栋610室,53c90d7e22b9f838213bf203,1,0,114.322498,30.565156,13207141789,cater,http://api.map.baidu.com/place/detail?uid=53c90d7e22b9f838213bf203&output=html&source=placeapi_v2,58.0,12:00-22:00,4.7,,,,,,,,2,,,,,,,114.32213946426,30.56512961477,0
abdacdb2a67fa21f3fe23171,本周咖啡烘焙商店(粮道街店),美食,蛋糕甜品店,湖北省,武汉市,武昌区,湖北省武汉市武昌区粮道街236号一楼(武汉中学正对面),abdacdb2a67fa21f3fe23171,1,0,114.317894,30.552899,13647202072,cater,http://api.map.baidu.com/place/detail?uid=abdacdb2a67fa21f3fe23171&output=html&source=placeapi_v2,34.0,09:30-19:00,4.5,,,,,,,,69,,,,,,,114.31787491515,30.552984893543,0
925c550feeff71ab5b3ac8f6,大水的店(昙华林店),美食,咖啡厅,湖北省,武汉市,武昌区,湖北省武汉市武昌区粮道街56号,925c550feeff71ab5b3ac8f6,1,0,114.314661,30.558091,18627862256,cater,http://api.map.baidu.com/place/detail?uid=925c550feeff71ab5b3ac8f6&output=html&source=placeapi_v2,40.0,09:00-23:30,4.3,,,,,,,41,200,,,,,,,114.31480150388,30.558200179786,0
d0b1e70bebbb2a8f4d55477f,聚点咖啡,美食,咖啡厅,湖北省,武汉市,武昌区,湖北省武汉市武昌区紫沙路205号金湖居205号附7号,d0b1e70bebbb2a8f4d55477f,1,0,114.32882,30.557372,13871482929,cater,http://api.map.baidu.com/place/detail?uid=d0b1e70bebbb2a8f4d55477f&output=html&source=placeapi_v2,,,,,,,,,,,,,,,,,,,,0
20660db9f769e84df503b8f4,星巴克(洪山广场站店),美食,咖啡厅,湖北省,武汉市,武昌区,湖北省武汉市武昌区商业街负1层,20660db9f769e84df503b8f4,1,0,114.343065,30.552159,(027)87262279,cater,http://api.map.baidu.com/place/detail?uid=20660db9f769e84df503b8f4&output=html&source=placeapi_v2,40.0,07:30-21:30,3.7,,,,,,,,,,,,,,,,,0
d0b557ea76db2f837adbd21a,星巴克(武汉中南星荟城店),美食,咖啡厅,湖北省,武汉市,武昌区,湖北省武汉市武昌区中南路14号1层,d0b557ea76db2f837adbd21a,1,0,114.33995,30.543572,(027)87200355,cater,http://api.map.baidu.com/place/detail?uid=d0b557ea76db2f837adbd21a&output=html&source=placeapi_v2,38.0,07:30-22:30,4.3,,,,,,,9,6,,,,,,,114.33994664624,30.542932549331,0
3ed4f773085708f90f0e6b1d,可菲因咖啡,美食,咖啡厅,湖北省,武汉市,武昌区,武汉市武昌区棋盘街湖北美术学院(南校区)西北侧,3ed4f773085708f90f0e6b1d,1,0,114.319891,30.552082,,cater,http://api.map.baidu.com/place/detail?uid=3ed4f773085708f90f0e6b1d&output=html&source=placeapi_v2,,,,,,,,,,,,,,,,,,114.31995179659,30.552075162107,0
bb1d38e4717337540d0a70b7,人和世家,美食,咖啡厅,湖北省,武汉市,武昌区,湖北省武汉市武昌区紫阳路268号1号楼,bb1d38e4717337540d0a70b7,1,0,114.317301,30.538854,(027)88053657,cater,http://api.map.baidu.com/place/detail?uid=bb1d38e4717337540d0a70b7&output=html&source=placeapi_v2,59.0,09:00-23:00,3.6,,,,,,,,6,,,,,,,114.31743432684,30.539079599774,0
bccdf248d5954b0d9fec2b60,星巴克(新时代商务中心店),美食,咖啡厅,湖北省,武汉市,武昌区,湖北省武汉市武昌区武珞路456号新时代商务中心写字楼1层,bccdf248d5954b0d9fec2b60,1,0,114.336923,30.53978,(027)86657322,cater,http://api.map.baidu.com/place/detail?uid=bccdf248d5954b0d9fec2b60&output=html&source=placeapi_v2,33.0,07:00-22:00,4.4,,,,,,,61,4,,,,,,,114.33708996645,30.539169240239,0
b074830ad1be0473213bf211,星巴克臻选(武汉首义汇店),美食,咖啡厅,湖北省,武汉市,武昌区,湖北省武汉市武昌区张之洞路151号泛悦汇1层85~88室,b074830ad1be0473213bf211,1,0,114.31088,30.540222,(027)88392979,life,http://api.map.baidu.com/place/detail?uid=b074830ad1be0473213bf211&output=html&source=placeapi_v2,,07:00-22:30,4.4,,,,,,,49,19,,,,,,,114.31131624739,30.541989186155,0
9c44bd090615e62f2ad7ab54,说萌宠咖啡,美食,咖啡厅,湖北省,武汉市,武昌区,湖北省武汉市武昌区粮道街街道昙华林14号它说萌宠咖啡,,1,0,114.315558,30.557678,,cater,http://api.map.baidu.com/place/detail?uid=9c44bd090615e62f2ad7ab54&output=html&source=placeapi_v2,31.0,,,,,,,,,,,,,,,,,114.31589801781,30.557636540037,0
83ea6a3cbbc86939acee7a60,解忧咖啡屋(昙华林店),美食,咖啡厅,湖北省,武汉市,武昌区,湖北省武汉市武昌区昙华林20号,83ea6a3cbbc86939acee7a60,1,0,114.313661,30.558419,15072245030,cater,http://api.map.baidu.com/place/detail?uid=83ea6a3cbbc86939acee7a60&output=html&source=placeapi_v2,39.0,10:00-22:00,4.4,,,,,,,,179,,,,,,,114.31366825016,30.558504184645,0
052fe952deb190089cec2bfb,遇见咖啡馆,休闲娱乐,游戏场所,湖北省,武汉市,武昌区,湖北省武汉市武昌区中山路187号桂花公寓5栋ab01,052fe952deb190089cec2bfb,1,0,114.317049,30.56225,(027)88236221,life,http://api.map.baidu.com/place/detail?uid=052fe952deb190089cec2bfb&output=html&source=placeapi_v2,,09:00-23:00,,,,,,,,10,0,,,,,,,114.31694078971,30.562240331847,0
f33f8dc49434e7a3d92f2885,北海猫咖(昙华林店),美食,咖啡厅,湖北省,武汉市,武昌区,湖北省武汉市武昌区马道门2号,f33f8dc49434e7a3d92f2885,1,0,114.312774,30.558769,13986229813,cater,http://api.map.baidu.com/place/detail?uid=f33f8dc49434e7a3d92f2885&output=html&source=placeapi_v2,37.0,10:00-21:00,4.0,,,,,,,,1,,,,,,,114.31274306645,30.558682430863,0
c05cd6e126f3a19d932ca3c0,星巴克(长城汇店),美食,咖啡厅,湖北省,武汉市,武昌区,湖北省武汉市武昌区中北路9号长城汇二期1楼,c05cd6e126f3a19d932ca3c0,1,0,114.344896,30.555731,(027)87318729,cater,http://api.map.baidu.com/place/detail?uid=c05cd6e126f3a19d932ca3c0&output=html&source=placeapi_v2,41.0,08:00-21:00,3.8,,,,,,,7,0,,,,,,,,,0
391c84ea56041b4e1b11d558,琪琪阳光咖啡,美食,咖啡厅,湖北省,武汉市,武昌区,湖北省武汉市武昌区临江大道6号金都汉宫1栋1层16室,391c84ea56041b4e1b11d558,1,0,114.307768,30.562662,(027)88217977,cater,http://api.map.baidu.com/place/detail?uid=391c84ea56041b4e1b11d558&output=html&source=placeapi_v2,59.0,09:30-01:00,3.5,,,,,,,,1,,,,,,,114.30766580688,30.562783468036,0
f1571c8e14d135f10ab93a55,FLOATING COFFEE浮咖啡,美食,咖啡厅,湖北省,武汉市,武昌区,湖北省武汉市武昌区和平大道2号金地国际花园shr110号,f1571c8e14d135f10ab93a55,1,0,114.316922,30.568052,18186404219,cater,http://api.map.baidu.com/place/detail?uid=f1571c8e14d135f10ab93a55&output=html&source=placeapi_v2,37.0,09:00-23:30,4.7,,,,,,,,1,,,,,,,114.31675102087,30.568389840299,0
0cfd6e9dc349a010a8059d50,明岛咖啡屋,美食,咖啡厅,湖北省,武汉市,武昌区,湖北省武汉市武昌区张之洞路224号,0cfd6e9dc349a010a8059d50,1,0,114.312566,30.539414,16602727664,cater,http://api.map.baidu.com/place/detail?uid=0cfd6e9dc349a010a8059d50&output=html&source=placeapi_v2,,09:00-24:00,3.3,,,,,,,,3,,,,,,,114.31259442743,30.539636052663,0
a8d0fc93f76707f04e5547af,创意咖啡书吧,美食,咖啡厅,湖北省,武汉市,武昌区,湖北省武汉市武昌区和平大道450号武汉工人文化宫b区4号楼1楼,a8d0fc93f76707f04e5547af,1,0,114.320306,30.570678,,cater,http://api.map.baidu.com/place/detail?uid=a8d0fc93f76707f04e5547af&output=html&source=placeapi_v2,,,,,,,,,,,,,,,,,,,,0
a6cc31d0d3461e5c9b68b46a,1453土耳其江景咖啡,美食,咖啡厅,湖北省,武汉市,武昌区,湖北省武汉市武昌区和平大道积玉桥万达soho13号楼2301室,,1,0,114.316242,30.569235,18171231453,cater,http://api.map.baidu.com/place/detail?uid=a6cc31d0d3461e5c9b68b46a&output=html&source=placeapi_v2,66.0,,4.3,,,,,,,,,,,,,,,114.31654154771,30.569138268163,0
2735f930e7407c58eb1e9794,峰境咖啡,美食,咖啡厅,湖北省,武汉市,武昌区,湖北省武汉市武昌区体育街首义园1区2号,2735f930e7407c58eb1e9794,1,0,114.310553,30.544446,,cater,http://api.map.baidu.com/place/detail?uid=2735f930e7407c58eb1e9794&output=html&source=placeapi_v2,,11:00-01:00,0,,,,,,,,1,,,,,,,114.31077935623,30.544438343607,0
048f55553757d0cd49fd3f43,Lglavie,美食,中餐厅,湖北省,武汉市,武昌区,武汉市武昌区粮道街街道南国昙华林泛悦汇A3座3楼无名小酒馆后院,048f55553757d0cd49fd3f43,1,0,114.322713,30.557585,,cater,http://api.map.baidu.com/place/detail?uid=048f55553757d0cd49fd3f43&output=html&source=placeapi_v2,,,,,,,,,,,,,,,,,,,,0
eef2d528af6754be3be4a61e,玫瑰邑大堂吧,美食,酒吧,湖北省,武汉市,武昌区,武汉市武昌区民主路788号保利白玫瑰大酒店1楼,eef2d528af6754be3be4a61e,1,0,114.341122,30.549296,,cater,http://api.map.baidu.com/place/detail?uid=eef2d528af6754be3be4a61e&output=html&source=placeapi_v2,,10:00-22:00,3.5,,,,,,,,0,,,,,,,,,0
102127eed28a5ff2f503b874,茶语咖啡(楚民大酒店),美食,咖啡厅,湖北省,武汉市,武昌区,武汉市武昌区首义路115号楚民大酒店1楼,102127eed28a5ff2f503b874,1,0,114.316153,30.541123,,cater,http://api.map.baidu.com/place/detail?uid=102127eed28a5ff2f503b874&output=html&source=placeapi_v2,31.0,09:00-22:00,,,,,,,,,,,,,,,,,,0
82369947a16130d8f4e73b8a,财财的店(财大首义店),美食,咖啡厅,湖北省,武汉市,武昌区,湖北武汉市武昌区武珞路114号,82369947a16130d8f4e73b8a,1,0,114.319503,30.545825,18571620101,cater,http://api.map.baidu.com/place/detail?uid=82369947a16130d8f4e73b8a&output=html&source=placeapi_v2,17.0,10:00-22:00,3.7,,,,,,,,1,,,,,,,114.31954235164,30.545939309343,0
b6641c08708c06bb1e1d11b6,梅纳咖啡,美食,咖啡厅,湖北省,武汉市,武昌区,湖北省武汉市武昌区红巷30号,,1,0,114.306883,30.558463,13871405493,cater,http://api.map.baidu.com/place/detail?uid=b6641c08708c06bb1e1d11b6&output=html&source=placeapi_v2,,,3.6,,,,,,,,,,,,,,,,,0
e8df7c911d99d6f701294ff7,维纳斯钻石会所,美食,咖啡厅,湖北省,武汉市,武昌区,武汉市武昌区积玉桥万达广场12栋28楼,e8df7c911d99d6f701294ff7,1,0,114.310594,30.562999,"(027)88846888,15102758101",cater,http://api.map.baidu.com/place/detail?uid=e8df7c911d99d6f701294ff7&output=html&source=placeapi_v2,9.5,09:30-18:00,0.0,,,,,,,,,,,,,,,114.31087493864,30.563309523785,0
0d398483ba082ef6e856fa28,萌猫咖啡餐吧酒馆,美食,中餐厅,湖北省,武汉市,武昌区,湖北省武汉市武昌区马道门9号,0d398483ba082ef6e856fa28,1,0,114.312858,30.558756,13971441119,cater,http://api.map.baidu.com/place/detail?uid=0d398483ba082ef6e856fa28&output=html&source=placeapi_v2,,10:00-22:00,3.7,,,,,,,,,,,,,,,114.31282613456,30.558685002816,0
637225ebd00ed66cddee8bfb,STARBUCKC COFFEE,美食,咖啡厅,湖北省,武汉市,武昌区,武汉市武昌区张之洞路泛悦汇,637225ebd00ed66cddee8bfb,1,0,114.31093,30.540182,,cater,http://api.map.baidu.com/place/detail?uid=637225ebd00ed66cddee8bfb&output=html&source=placeapi_v2,,,,,,,,,,,,,,,,,,,,0
e2e416ad17e066fed22dd622,武汉可菲因咖啡有限公司,美食,咖啡厅,湖北省,武汉市,武昌区,湖北省武汉市武昌区积玉桥万达广场13号楼1508室,e2e416ad17e066fed22dd622,1,0,114.316311,30.569209,,cater,http://api.map.baidu.com/place/detail?uid=e2e416ad17e066fed22dd622&output=html&source=placeapi_v2,,,,,,,,,,,,,,,,,,114.31652098909,30.56910670092,0
5508504d4537d0d2c6f02594,参差咖啡(水果湖公园店),美食,咖啡厅,湖北省,武汉市,武昌区,水果湖儿童公园南楼1层西头第15号,5508504d4537d0d2c6f02594,1,0,114.350856,30.552334,"(027)87312087,15997415958",cater,http://api.map.baidu.com/place/detail?uid=5508504d4537d0d2c6f02594&output=html&source=placeapi_v2,35.0,11:00-21:30,4.7,,,,,,,,1,,,,,,,,,0
49c92a70cf0abfc1744ff119,星巴克(武汉大学店),美食,咖啡厅,湖北省,武汉市,洪山区,湖北省武汉市洪山区八一路483号中商平价珞珈山购物广场1楼,49c92a70cf0abfc1744ff119,1,0,114.362793,30.539542,(027)87162982,cater,http://api.map.baidu.com/place/detail?uid=49c92a70cf0abfc1744ff119&output=html&source=placeapi_v2,38.0,07:30-21:00,4.2,,,,,,,,13,,,,,,,114.36297946901,30.539692196972,0
45da54dfd2b84d96fbf0cba3,星巴克(凯德1818中北路店),美食,咖啡厅,湖北省,武汉市,武昌区,湖北省武汉市武昌区中北路与公正路交汇处凯德1818F7,45da54dfd2b84d96fbf0cba3,1,0,114.346388,30.559372,(027)87713870,cater,http://api.map.baidu.com/place/detail?uid=45da54dfd2b84d96fbf0cba3&output=html&source=placeapi_v2,39.0,09:00-21:30,3.5,,,,,,,36,6,,,,,,,114.34646705967,30.558077445603,0
f7885fbaff5e76c282288ae1,笔迹轻咖(武大工图店),美食,咖啡厅,湖北省,武汉市,武昌区,湖北省武汉市武昌区东湖南路8号,f7885fbaff5e76c282288ae1,1,0,114.367644,30.550151,,cater,http://api.map.baidu.com/place/detail?uid=f7885fbaff5e76c282288ae1&output=html&source=placeapi_v2,15.0,10:00-20:00,3.6,,,,,,,,1,,,,,,,114.36781751342,30.550428953772,0
0b11aeb78866996971210b37,微美咖啡,美食,咖啡厅,湖北省,武汉市,武昌区,湖北省武汉市武昌区东湖路1号湖北美术馆1楼,0b11aeb78866996971210b37,1,0,114.37181,30.56983,(027)86795949,cater,http://api.map.baidu.com/place/detail?uid=0b11aeb78866996971210b37&output=html&source=placeapi_v2,41.0,09:00-23:00,3.8,,,,,,,,1,,,,,,,114.37172366378,30.569764857518,0
29bbcf75e4e83b689a005041,武汉万达嘉华酒店美食汇全日餐厅(水果湖街店),美食,外国餐厅,湖北省,武汉市,武昌区,湖北省武汉市武昌区东湖路105号武汉万达嘉华酒店1层,29bbcf75e4e83b689a005041,1,0,114.352266,30.558535,(027)59376579,cater,http://api.map.baidu.com/place/detail?uid=29bbcf75e4e83b689a005041&output=html&source=placeapi_v2,192.0,"06:00-14:00,18:30-21:30",3.7,,,,,,,,149,,,,,,,114.35246377625,30.558422562947,0
d8ce3b99713d5711c056ac88,HIFIVE咖啡,美食,咖啡厅,湖北省,武汉市,武昌区,武汉市武昌区东湖路160号湖北省博物馆内,d8ce3b99713d5711c056ac88,1,0,114.371899,30.567702,,cater,http://api.map.baidu.com/place/detail?uid=d8ce3b99713d5711c056ac88&output=html&source=placeapi_v2,,,4.4,,,,,,,,43,,,,,,,,,0
d218f7d23aaffecdd72ce278,它山咖啡(武汉大学店),美食,咖啡厅,湖北省,武汉市,武昌区,武汉市武昌区珞珈山路16号武汉大学,d218f7d23aaffecdd72ce278,1,0,114.372166,30.538792,15902783176,cater,http://api.map.baidu.com/place/detail?uid=d218f7d23aaffecdd72ce278&output=html&source=placeapi_v2,35.0,09:30-22:30,3.9,,,,,,,,2,,,,,,,114.3720711023,30.538655722166,0
f9de7c66d5bbfd3d95ca072b,轻饮咖啡烘焙(武汉中央文化旅游区楚河汉街店),美食,蛋糕甜品店,湖北省,武汉市,武昌区,湖北省武汉市武昌区楚河汉街1号武汉中央文化旅游区楚河汉街F1,f9de7c66d5bbfd3d95ca072b,1,0,114.35109,30.560664,13125131729,cater,http://api.map.baidu.com/place/detail?uid=f9de7c66d5bbfd3d95ca072b&output=html&source=placeapi_v2,16.0,09:00-18:00,4.6,,,,,,,,0,,,,,,,114.34915788621,30.56233011156,0
d1b649abfb874c009cf779a4,COFFEE・Z,美食,咖啡厅,湖北省,武汉市,武昌区,武汉市武昌区东湖路10号水果湖广场A座(跃龙门教育)五楼,d1b649abfb874c009cf779a4,1,0,114.350933,30.554729,,cater,http://api.map.baidu.com/place/detail?uid=d1b649abfb874c009cf779a4&output=html&source=placeapi_v2,,08:30-21:30,0,,,,,,,,0,,,,,,,,,0
5719ba70cc0898df5c17c336,瑞幸咖啡(武汉中央文化旅游区楚河汉街店),美食,蛋糕甜品店,湖北省,武汉市,武昌区,湖北省武汉市武昌区楚河汉街1号武汉中央文化旅游区楚河汉街F2,,1,0,114.349096,30.562566,,cater,http://api.map.baidu.com/place/detail?uid=5719ba70cc0898df5c17c336&output=html&source=placeapi_v2,17.0,,4.1,,,,,,,,,,,,,,,,,0
f620fc359a29a953581093d5,漫崖咖啡,美食,咖啡厅,湖北省,武汉市,武昌区,武汉市武昌区珞珈山路武汉大学医院西南门东南侧约80米,,1,0,114.370839,30.539071,,cater,http://api.map.baidu.com/place/detail?uid=f620fc359a29a953581093d5&output=html&source=placeapi_v2,,,,,,,,,,,1,,,,,,,,,0
e684dc6409a3224d0482c264,梅・舍咖啡(东湖店),美食,咖啡厅,湖北省,武汉市,武昌区,湖北省武汉市武昌区鲁磨路622号,e684dc6409a3224d0482c264,1,0,114.410337,30.550706,19945054053,cater,http://api.map.baidu.com/place/detail?uid=e684dc6409a3224d0482c264&output=html&source=placeapi_v2,50.0,10:00-22:00,3.8,,,,,,,,0,,,,,,,114.41130040036,30.55128704305,0
d51ad262c988a6f01811d5d5,女巫时光咖啡馆,美食,咖啡厅,湖北省,武汉市,洪山区,湖北武汉市洪山区植物园路188号,d51ad262c988a6f01811d5d5,1,0,114.420441,30.547108,,cater,http://api.map.baidu.com/place/detail?uid=d51ad262c988a6f01811d5d5&output=html&source=placeapi_v2,32.0,10:00-22:00,0,,,,,,,,0,,,,,,,,,0
6123e184da50f880d6b74ed0,翠帷轩,旅游景点,风景区,湖北省,武汉市,武昌区,武汉市武昌区沿湖大道58号磨山景区内,,1,0,114.415774,30.554792,,scope,http://api.map.baidu.com/place/detail?uid=6123e184da50f880d6b74ed0&output=html&source=placeapi_v2,,,,,,,,,,,,,,,,,,,,0
6d98b3e1de692fb943e1923b,Rosa cake Cafe,美食,咖啡厅,湖北省,武汉市,蔡甸区,武汉市蔡甸区汉阳大街常兴花园东北侧约40米,6d98b3e1de692fb943e1923b,1,0,114.043231,30.582098,(027)69813939,cater,http://api.map.baidu.com/place/detail?uid=6d98b3e1de692fb943e1923b&output=html&source=placeapi_v2,,,,,,,,,,,,,,,,,,114.04314725853,30.581985287011,0
e89ad1fe8b83d40d441a320e,藏香阁咖啡简餐,美食,咖啡厅,湖北省,武汉市,蔡甸区,武汉市蔡甸区莲花湖大道莲花小区,,1,0,114.038686,30.574095,,cater,http://api.map.baidu.com/place/detail?uid=e89ad1fe8b83d40d441a320e&output=html&source=placeapi_v2,,,,,,,,,,,,,,,,,,114.03868113955,30.574339260382,0
1f5c9055b055abf117948e14,香江会馆,房地产,写字楼,湖北省,武汉市,蔡甸区,湖北省武汉市蔡甸区工农路81号附3号,1f5c9055b055abf117948e14,1,0,114.049763,30.582983,(027)69111377,cater,http://api.map.baidu.com/place/detail?uid=1f5c9055b055abf117948e14&output=html&source=placeapi_v2,,,3.4,,,,,,,,4,,,,,,,,,0
d9544f8c7cd9160541d63e73,茉咖,美食,咖啡厅,湖北省,武汉市,蔡甸区,武汉市蔡甸区五贤北路武汉深鸿润国际文化科技城,d9544f8c7cd9160541d63e73,1,0,114.074962,30.571996,,cater,http://api.map.baidu.com/place/detail?uid=d9544f8c7cd9160541d63e73&output=html&source=placeapi_v2,,,,,,,,,,,,,,,,,,,,0
77f799a9013f230037b06c80,星巴克(武汉万科翡翠滨江店),美食,咖啡厅,湖北省,武汉市,汉阳区,湖北省武汉市汉阳区琴台大道1088号万科翡翠滨江1000附11号,,1,0,114.214054,30.578257,(027)84463948,cater,http://api.map.baidu.com/place/detail?uid=77f799a9013f230037b06c80&output=html&source=placeapi_v2,,07:30-22:00,,,,,,,,,2,,,,,,,114.21377298991,30.57829643427,0
16e72f7a051b60feeddfcad2,星巴克臻选(凯德广场西城店),美食,咖啡厅,湖北省,武汉市,~口区,武汉市~口区解放大道32号凯德广场F1,16e72f7a051b60feeddfcad2,1,0,114.201009,30.603267,(027)83866945,cater,http://api.map.baidu.com/place/detail?uid=16e72f7a051b60feeddfcad2&output=html&source=placeapi_v2,36.0,08:00-22:00,4.3,,,,,,,,96,,,,,,,114.20151231444,30.602999378376,0
fccbdf5d460e5cd121026225,欧帝COFFEE&TEA,美食,咖啡厅,湖北省,武汉市,~口区,武汉市~口区江湾国际中心大厦/楼内第6层02单元,fccbdf5d460e5cd121026225,1,0,114.197952,30.600152,17786627747,cater,http://api.map.baidu.com/place/detail?uid=fccbdf5d460e5cd121026225&output=html&source=placeapi_v2,,09:00-18:00,0,,,,,,,,0,,,,,,,,,0
8b735458db4a42c6df1e5291,YOUMELODY COFFEE,美食,咖啡厅,湖北省,武汉市,~口区,武汉市~口区招商江湾国际A栋1-28号,,1,0,114.198011,30.602417,(027)83800880,cater,http://api.map.baidu.com/place/detail?uid=8b735458db4a42c6df1e5291&output=html&source=placeapi_v2,,,0,,,,,,,,0,,,,,,,,,0
e526f79a5e9cf079100daa4c,小糖记(凯德广场西城店),美食,咖啡厅,湖北省,武汉市,~口区,武汉市~口区解放大道32号凯德广场F1,,1,0,114.200617,30.60269,,cater,http://api.map.baidu.com/place/detail?uid=e526f79a5e9cf079100daa4c&output=html&source=placeapi_v2,,10:00-22:00,0,,,,,,,,0,,,,,,,114.20006391089,30.604841085885,0
af28d214d2a7799900ec015a,咖啡简餐棋牌,美食,咖啡厅,湖北省,武汉市,~口区,武汉市~口区古田二路招商江湾国际,,1,0,114.198037,30.599975,,cater,http://api.map.baidu.com/place/detail?uid=af28d214d2a7799900ec015a&output=html&source=placeapi_v2,,,,,,,,,,,,,,,,,,,,0
c158af729bf49519d5b74e01,瑞幸咖啡(南国・西汇店),美食,蛋糕甜品店,湖北省,武汉市,~口区,湖北省武汉市~口区解放大道387号泛悦南国广场B馆四层036号,c158af729bf49519d5b74e01,1,0,114.229276,30.591266,4000100100,cater,http://api.map.baidu.com/place/detail?uid=c158af729bf49519d5b74e01&output=html&source=placeapi_v2,20.0,09:30-20:00,4.5,,,,,,,,0,,,,,,,,,0
0c70f11054c1b3d9b54f5414,瑞幸咖啡(中海大厦店),美食,蛋糕甜品店,湖北省,武汉市,汉阳区,湖北省武汉市汉阳区知音大道257号中海大厦,0c70f11054c1b3d9b54f5414,1,0,114.251963,30.572035,4000100100,cater,http://api.map.baidu.com/place/detail?uid=0c70f11054c1b3d9b54f5414&output=html&source=placeapi_v2,19.0,07:00-20:00,3.8,,,,,,,,0,,,,,,,114.25204446343,30.571981704253,0
bbee90325ac1d797bea240d5,两岸咖啡(宗关店),美食,咖啡厅,湖北省,武汉市,~口区,湖北省武汉市~口区建一路2号,bbee90325ac1d797bea240d5,1,0,114.229676,30.584876,,cater,http://api.map.baidu.com/place/detail?uid=bbee90325ac1d797bea240d5&output=html&source=placeapi_v2,70.0,08:00-22:00,3.7,,,,,,,,5,,,,,,,114.22929839056,30.585076820095,0
c4b3b4cef9cccefe8f55ec49,秀玉(南大天地店),美食,中餐厅,湖北省,武汉市,~口区,湖北省武汉市~口区~口路162号(恩美幼儿园旁),,1,0,114.258494,30.580184,,cater,http://api.map.baidu.com/place/detail?uid=c4b3b4cef9cccefe8f55ec49&output=html&source=placeapi_v2,61.0,10:30-21:00,4.7,,,,,,,,1,,,,,,,114.25834671528,30.580212761214,0
7a7055d006230ac9afee7aeb,云都大酒店-咖啡厅,美食,咖啡厅,湖北省,武汉市,~口区,武汉市~口区宝丰路105号云都大酒店,7a7055d006230ac9afee7aeb,1,0,114.258712,30.590049,,cater,http://api.map.baidu.com/place/detail?uid=7a7055d006230ac9afee7aeb&output=html&source=placeapi_v2,,,0.0,,,,,,,,,,,,,,,,,0
94c0d91ff511e364cb213d51,Together融合咖啡,美食,咖啡厅,湖北省,武汉市,江汉区,京汉大道民意四路交叉口702号附4,,1,0,114.282763,30.585754,19947579192,cater,http://api.map.baidu.com/place/detail?uid=94c0d91ff511e364cb213d51&output=html&source=placeapi_v2,,07:30-18:00,5,,,,,,,,1,,,,,,,114.2826289265,30.585783895804,0
30d953927818ccff31870a1d,星巴克(武展东路店),美食,咖啡厅,湖北省,武汉市,江汉区,湖北省武汉市江汉区解放大道374号B座B1-1单元,30d953927818ccff31870a1d,1,0,114.280744,30.587441,(027)85610189,cater,http://api.map.baidu.com/place/detail?uid=30d953927818ccff31870a1d&output=html&source=placeapi_v2,37.0,07:30-21:30,4.3,,,,,,,8,2,,,,,,,114.2805865423,30.58742289845,0
c993125c00adb2a5ae31e5de,星巴克(协和医院店),美食,咖啡厅,湖北省,武汉市,江汉区,湖北省武汉市江汉区解放大道1277号协和医院b1f,c993125c00adb2a5ae31e5de,1,0,114.281188,30.589146,(027)85728919,cater,http://api.map.baidu.com/place/detail?uid=c993125c00adb2a5ae31e5de&output=html&source=placeapi_v2,37.0,06:00-21:00,3.8,,,,,,,,5,,,,,,,114.28157240334,30.589246269595,0
23e5db0d460bccc2441a32a8,瑞幸咖啡(汉商武展购物中心店),美食,咖啡厅,湖北省,武汉市,江汉区,武汉市江汉区解放大道696号汉商武展购物中心F1,23e5db0d460bccc2441a32a8,1,0,114.280523,30.586481,18502733675,cater,http://api.map.baidu.com/place/detail?uid=23e5db0d460bccc2441a32a8&output=html&source=placeapi_v2,19.0,08:00-20:00,4.3,,,,,,,,1,,,,,,,,,0
51edae64c155c9ae6fa3cc10,二楼里CAFE,美食,咖啡厅,湖北省,武汉市,江汉区,湖北省武汉市江汉区前进一巷7号2楼,51edae64c155c9ae6fa3cc10,1,0,114.28688,30.586842,13667226921,cater,http://api.map.baidu.com/place/detail?uid=51edae64c155c9ae6fa3cc10&output=html&source=placeapi_v2,36.0,11:00-18:00,4.7,,,,,,,,0,,,,,,,,,0
a1418eb4f0967066eae58281,COSTA COFFEE(武汉国际广场店),美食,咖啡厅,湖北省,武汉市,江汉区,武汉市江汉区解放大道690号武商MALL・国广F3,a1418eb4f0967066eae58281,1,0,114.2782,30.584649,(027)85517596,cater,http://api.map.baidu.com/place/detail?uid=a1418eb4f0967066eae58281&output=html&source=placeapi_v2,36.0,09:30-21:30,4.4,,,,,,,,200,,,,,,,114.27862718027,30.585858536506,0
240e09f632356b47d7b74e56,不正咖啡(武商MALL・国广B座店),美食,咖啡厅,湖北省,武汉市,江汉区,湖北省武汉市江汉区解放大道557号(武广正对面)武商MALL・国广B座B1,240e09f632356b47d7b74e56,1,0,114.278286,30.585916,13098836006,cater,http://api.map.baidu.com/place/detail?uid=240e09f632356b47d7b74e56&output=html&source=placeapi_v2,38.0,09:00-21:00,0,,,,,,,,0,,,,,,,114.27609645332,30.586070334938,0
56034c2c2ef679402bd7ab86,漫时光咖啡馆(江汉路步行街店),美食,咖啡厅,湖北省,武汉市,江汉区,湖北省武汉市江汉区新华街江汉北村246~247号一层(福星城市花园大门对面),56034c2c2ef679402bd7ab86,1,0,114.283583,30.595058,13910065441,cater,http://api.map.baidu.com/place/detail?uid=56034c2c2ef679402bd7ab86&output=html&source=placeapi_v2,44.0,10:00-24:00,3.5,,,,,,,,1,,,,,,,114.28350568705,30.595106948946,0
2fe6f1edf8e443807c29bdc5,星巴克(大润发江汉店),美食,咖啡厅,湖北省,武汉市,江汉区,湖北省武汉市江汉区江汉路257号大润发F1,2fe6f1edf8e443807c29bdc5,1,0,114.291889,30.591184,(027)85859373,cater,http://api.map.baidu.com/place/detail?uid=2fe6f1edf8e443807c29bdc5&output=html&source=placeapi_v2,33.0,09:30-18:00,4.3,,,,,,,37,11,,,,,,,114.29196305646,30.59137877389,0
c8e8f6333a988e75ab0dd8ca,天朗咖啡(新华路店),美食,咖啡厅,湖北省,武汉市,江汉区,湖北省武汉市江汉区新华路186号福星城市花园北区1楼,c8e8f6333a988e75ab0dd8ca,1,0,114.281772,30.595263,(027)85350001,cater,http://api.map.baidu.com/place/detail?uid=c8e8f6333a988e75ab0dd8ca&output=html&source=placeapi_v2,53.0,09:00-24:00,3,,,,,,,,1,,,,,,,114.2816575627,30.595079940629,0
0feb1e43491383972cb96d29,武汉K11星巴克臻选咖啡酒坊(武汉K11购物艺术中心店),美食,咖啡厅,湖北省,武汉市,~口区,武汉市~口区解放大道628号武汉K11购物艺术中心F2,,1,0,114.272093,30.584768,4008206998,cater,http://api.map.baidu.com/place/detail?uid=0feb1e43491383972cb96d29&output=html&source=placeapi_v2,,07:30-23:00,,,,,,,,,2,,,,,,,114.27169626099,30.585342943179,0
acb94bd3f2867374c6effbc6,UncleG咖啡(武商广场店),美食,咖啡厅,湖北省,武汉市,江汉区,武汉市江汉区解放大道688号,acb94bd3f2867374c6effbc6,1,0,114.276749,30.585767,,cater,http://api.map.baidu.com/place/detail?uid=acb94bd3f2867374c6effbc6&output=html&source=placeapi_v2,,,,,,,,,,,,,,,,,,,,0
8c3758c960e14acf0bccdd73,半夏咖啡馆(武胜路店),美食,咖啡厅,湖北省,武汉市,~口区,湖北省武汉市~口区利济北路利济西巷14号,8c3758c960e14acf0bccdd73,1,0,114.277458,30.577514,18607180736,cater,http://api.map.baidu.com/place/detail?uid=8c3758c960e14acf0bccdd73&output=html&source=placeapi_v2,28.0,10:30-24:00,3.7,,,,,,,,0,,,,,,,114.27747111498,30.577454296401,0
dbf4d6eeca03b2336ea3cc91,芦老师咖啡(台北一路店),美食,咖啡厅,湖北省,武汉市,江岸区,湖北省武汉市江岸区台北一路9号,dbf4d6eeca03b2336ea3cc91,1,0,114.282971,30.598849,(027)85783677,cater,http://api.map.baidu.com/place/detail?uid=dbf4d6eeca03b2336ea3cc91&output=html&source=placeapi_v2,30.0,09:00-20:20,4.1,,,,,,,,2,,,,,,,114.28295826237,30.598719656168,0
ce56fd9e57ff5fc8a2a934a9,瑞幸咖啡(武汉M+购物中心店),美食,蛋糕甜品店,湖北省,武汉市,江汉区,武汉市江汉区江汉路187号武汉M+购物中心B1,ce56fd9e57ff5fc8a2a934a9,1,0,114.292806,30.589784,4000100100,cater,http://api.map.baidu.com/place/detail?uid=ce56fd9e57ff5fc8a2a934a9&output=html&source=placeapi_v2,17.0,10:00-21:30,4.5,,,,,,,,0,,,,,,,114.29416534674,30.589124767315,0
c93bb6c3afee88d6455726e7,星巴克(中山大洋百货店),美食,咖啡厅,湖北省,武汉市,江汉区,湖北省武汉市江汉区中山大道756号宝丽金曼哈顿商业广场1座2楼77~78号,c93bb6c3afee88d6455726e7,1,0,114.296982,30.583127,(027)82456867,cater,http://api.map.baidu.com/place/detail?uid=c93bb6c3afee88d6455726e7&output=html&source=placeapi_v2,36.0,08:00-22:00,4.3,,,,,,,61,4,,,,,,,114.29755442436,30.583651403353,0
3206f3c2a6c002aa88fc0618,六也咖啡,美食,咖啡厅,湖北省,武汉市,江岸区,湖北省武汉市江岸区鄱阳街18号,3206f3c2a6c002aa88fc0618,1,0,114.301756,30.584836,18507161874,cater,http://api.map.baidu.com/place/detail?uid=3206f3c2a6c002aa88fc0618&output=html&source=placeapi_v2,35.0,06:00-12:00,3.9,,,,,,,,1,,,,,,,114.30136127962,30.584985122603,0
fe87841a4bd03e0d1ce9991c,[心(苗栗路店),美食,咖啡厅,湖北省,武汉市,江岸区,湖北省武汉市江岸区苗栗路17号,fe87841a4bd03e0d1ce9991c,1,0,114.294874,30.601317,15072426445,cater,http://api.map.baidu.com/place/detail?uid=fe87841a4bd03e0d1ce9991c&output=html&source=placeapi_v2,50.0,08:00-20:00,4.7,,,,,,,,99,,,,,,,114.29497385135,30.601200102736,0
362ca64d76fab442f4eafcd0,[心(手冲店),美食,咖啡厅,湖北省,武汉市,江岸区,湖北省武汉市江岸区吉庆街143号附10号,,1,0,114.300074,30.592835,18717193118,cater,http://api.map.baidu.com/place/detail?uid=362ca64d76fab442f4eafcd0&output=html&source=placeapi_v2,61.0,11:00-21:00,4.5,,,,,,,,15,,,,,,,114.30015448163,30.592692951314,0
1fda78e4806dedc33a04b19b,星巴克(凯德广场武胜店),美食,咖啡厅,湖北省,武汉市,~口区,武汉市~口区武汉市~口区中山大道238号凯德广场F1,1fda78e4806dedc33a04b19b,1,0,114.272693,30.574993,(027)83731637,cater,http://api.map.baidu.com/place/detail?uid=1fda78e4806dedc33a04b19b&output=html&source=placeapi_v2,41.0,08:00-22:00,4.1,,,,,,,46,10,,,,,,,114.2745023581,30.574348925823,0
ebebba90aec13ce8e81e9702,木棒咖啡店,美食,其他,湖北省,武汉市,江岸区,江岸区台北一路9号附5号,ebebba90aec13ce8e81e9702,1,0,114.283207,30.598827,18271808920,cater,http://api.map.baidu.com/place/detail?uid=ebebba90aec13ce8e81e9702&output=html&source=placeapi_v2,22.0,09:00-17:00,4.3,,,,,,,,2,,,,,,,114.28279046698,30.598758343156,0
9c110f02e226826bd92f2857,1881啤酒公社(吉庆街店),美食,酒吧,湖北省,武汉市,江岸区,湖北省武汉市江岸区江汉二路181-1号1层,9c110f02e226826bd92f2857,1,0,114.300315,30.591861,,cater,http://api.map.baidu.com/place/detail?uid=9c110f02e226826bd92f2857&output=html&source=placeapi_v2,116.0,19:00-02:00,0,,,,,,,,0,,,,,,,114.30046810523,30.591815803092,0
950788d3c8bb1f9ec5effb75,咖啡猫(台北一路店),美食,咖啡厅,湖北省,武汉市,江岸区,湖北省武汉市江岸区台北一路9号,950788d3c8bb1f9ec5effb75,1,0,114.282843,30.59885,13617167032,cater,http://api.map.baidu.com/place/detail?uid=950788d3c8bb1f9ec5effb75&output=html&source=placeapi_v2,28.0,10:00-21:00,3.6,,,,,,,,11,,,,,,,114.28281262189,30.598753186244,0
3e23565b800d6b5402897214,星巴克臻选(宝利金店),美食,咖啡厅,湖北省,武汉市,江汉区,湖北省武汉市江汉区花楼街198号1楼,3e23565b800d6b5402897214,1,0,114.299447,30.583935,(027)82299672,cater,http://api.map.baidu.com/place/detail?uid=3e23565b800d6b5402897214&output=html&source=placeapi_v2,41.0,07:00-22:30,4.1,,,,,,,17,4,,,,,,,114.29921049638,30.584228883334,0
1a8e45869c229ba8593ac880,西街coffee,美食,咖啡厅,湖北省,武汉市,~口区,湖北省武汉市~口区武胜西街地质村2附4号(武胜路地铁站Q口步行380米),1a8e45869c229ba8593ac880,1,0,114.272084,30.578281,13018014879,cater,http://api.map.baidu.com/place/detail?uid=1a8e45869c229ba8593ac880&output=html&source=placeapi_v2,13.0,,3.5,,,,,,,,0,,,,,,,,,0
c63d6ebe2515f96b71210b94,星巴克(华润桃源里店),美食,咖啡厅,湖北省,武汉市,江岸区,武汉市江岸区台北路96号华润桃源里商业街一楼,c63d6ebe2515f96b71210b94,1,0,114.29085,30.599956,(027)85539121,cater,http://api.map.baidu.com/place/detail?uid=c63d6ebe2515f96b71210b94&output=html&source=placeapi_v2,34.0,07:00-21:00,4.0,,,,,,,7,0,,,,,,,,,0
768ec931ee000be4b13c814a,瑞幸咖啡(新佳丽时尚广场店),美食,蛋糕甜品店,湖北省,武汉市,江汉区,武汉市江汉区中山大道818号新佳丽时尚广场F1新佳丽时尚广场F1,,1,0,114.297576,30.584241,4000100100,cater,http://api.map.baidu.com/place/detail?uid=768ec931ee000be4b13c814a&output=html&source=placeapi_v2,20.0,10:00-21:30,4.1,,,,,,,,,,,,,,,114.29820073452,30.584402744191,0
c989ee88d3819bd96240a971,星巴克(新世界百货建设店),美食,咖啡厅,湖北省,武汉市,江汉区,武汉市江汉区建设大道566号新世界百货F1,c989ee88d3819bd96240a971,1,0,114.276745,30.600867,(027)85267983,cater,http://api.map.baidu.com/place/detail?uid=c989ee88d3819bd96240a971&output=html&source=placeapi_v2,33.0,07:30-21:30,4.2,,,,,,,,2,,,,,,,114.27622865156,30.601316568942,0
27616162422d53d1cb213d11,星巴克臻选(青年路环贸ICC店),美食,咖啡厅,湖北省,武汉市,江汉区,湖北省武汉市江汉区青年路161号环球贸易中心一层B102单元,,1,0,114.268941,30.596328,(027)83565071,cater,http://api.map.baidu.com/place/detail?uid=27616162422d53d1cb213d11&output=html&source=placeapi_v2,38.0,07:30-21:00,3.9,,,,,,,,1,,,,,,,114.26958251039,30.596478115034,0
9664c0a68fb997e6c2f1cf9f,街角咖啡(汇通路店),美食,咖啡厅,湖北省,武汉市,江岸区,湖北省武汉市江岸区汇通路2-1-1号,,1,0,114.299278,30.5901,13636597690,cater,http://api.map.baidu.com/place/detail?uid=9664c0a68fb997e6c2f1cf9f&output=html&source=placeapi_v2,24.0,10:00-19:00,4.1,,,,,,,,,,,,,,,114.29937862774,30.590009382003,0
fddd11adaa48e2876f47609e,星巴克(广发银行大厦店),美食,咖啡厅,湖北省,武汉市,江岸区,湖北省武汉市江岸区建设大道737号广东发展银行大厦1楼,fddd11adaa48e2876f47609e,1,0,114.280938,30.603864,(027)85309195,cater,http://api.map.baidu.com/place/detail?uid=fddd11adaa48e2876f47609e&output=html&source=placeapi_v2,40.0,07:30-20:00,4.2,,,,,,,,1,,,,,,,114.28101110702,30.603656385782,0
c468955135bd0d38f82213a7,大里咖啡,美食,咖啡厅,湖北省,武汉市,江岸区,湖北省武汉市江岸区台北一路11号11号附4号,c468955135bd0d38f82213a7,1,0,114.280868,30.598997,13317134133,cater,http://api.map.baidu.com/place/detail?uid=c468955135bd0d38f82213a7&output=html&source=placeapi_v2,25.0,08:00-17:00,4.4,,,,,,,,,,,,,,,114.28082809075,30.59899416984,0
124b9ef1db04b25010293514,魔石咖啡(云林街店),美食,咖啡厅,湖北省,武汉市,江岸区,湖北省武汉市江岸区云林街19号,124b9ef1db04b25010293514,1,0,114.282914,30.602641,13971076675,cater,http://api.map.baidu.com/place/detail?uid=124b9ef1db04b25010293514&output=html&source=placeapi_v2,36.0,11:00-22:00,3.8,,,,,,,,0,,,,,,,114.28304551299,30.602726927455,0
1aaf6fcd9f1dd18822026297,乐信咖啡,美食,咖啡厅,湖北省,武汉市,江汉区,湖北省武汉市江汉区新华路218号浦发大厦1楼,,1,0,114.281527,30.596151,,cater,http://api.map.baidu.com/place/detail?uid=1aaf6fcd9f1dd18822026297&output=html&source=placeapi_v2,,08:00-18:00,3.4,,,,,,,,0,,,,,,,,,0
b67e41ef169bb16e3fe2312a,INE Coffee,美食,咖啡厅,湖北省,武汉市,江岸区,湖北省武汉市江岸区台北一路14号附3号,,1,0,114.282693,30.598655,13125044358,cater,http://api.map.baidu.com/place/detail?uid=b67e41ef169bb16e3fe2312a&output=html&source=placeapi_v2,29.0,,4.7,,,,,,,,,,,,,,,114.2827424831,30.598769512048,0
af1510683bc5c6043fe231c4,瑞幸咖啡(凯德广场武胜店),美食,蛋糕甜品店,湖北省,武汉市,~口区,武汉市~口区武汉市~口区中山大道238号凯德广场F2,af1510683bc5c6043fe231c4,1,0,114.273377,30.57498,4000100100,cater,http://api.map.baidu.com/place/detail?uid=af1510683bc5c6043fe231c4&output=html&source=placeapi_v2,18.0,10:00-21:30,4.0,,,,,,,,0,,,,,,,114.274506,30.574358896743,0
d6c5d991771b81f131169bef,星巴克臻选(花园道店),美食,咖啡厅,湖北省,武汉市,江汉区,湖北省武汉市江汉区青年路308号花园道c103区1楼,d6c5d991771b81f131169bef,1,0,114.272356,30.601586,(027)85776881,cater,http://api.map.baidu.com/place/detail?uid=d6c5d991771b81f131169bef&output=html&source=placeapi_v2,35.0,07:00-22:30,4.5,,,,,,,,22,,,,,,,114.27253306132,30.601612029999,0
d4210d4960624c4ca104642a,无意间咖啡&清吧,美食,茶座,湖北省,武汉市,江岸区,武汉市江岸区江汉路步行街7天酒店(武汉江汉路地铁站店)北侧约50米,,1,0,114.300785,30.584869,,cater,http://api.map.baidu.com/place/detail?uid=d4210d4960624c4ca104642a&output=html&source=placeapi_v2,,12:00-22:00,5.0,,,,,,,,12,,,,,,,,,0
921904ef6b0ce43cf32d83ac,A.C.T Coffee Lab,美食,咖啡厅,湖北省,武汉市,江汉区,湖北省武汉市江汉区红松巷10-附1号,,1,0,114.278153,30.597175,13437131266,cater,http://api.map.baidu.com/place/detail?uid=921904ef6b0ce43cf32d83ac&output=html&source=placeapi_v2,30.0,10:00-17:30,4.8,,,,,,,,,,,,,,,,,0
ab29cd50ff63e0f4a0acc481,星巴克臻选(武汉绿地缤纷城店),美食,咖啡厅,湖北省,武汉市,武昌区,湖北省武汉市武昌区临江大道606号武汉绿地缤纷城F1,ab29cd50ff63e0f4a0acc481,1,0,114.329266,30.588455,(027)88732181,cater,http://api.map.baidu.com/place/detail?uid=ab29cd50ff63e0f4a0acc481&output=html&source=placeapi_v2,37.0,,4.3,,,,,,,,1,,,,,,,,,0
0deea9e815561efe01294f58,星巴克(水岸国际店),美食,咖啡厅,湖北省,武汉市,武昌区,湖北省武汉市武昌区和平大道730号漫时区3号楼1楼,0deea9e815561efe01294f58,1,0,114.33092,30.580448,(027)88713122,cater,http://api.map.baidu.com/place/detail?uid=0deea9e815561efe01294f58&output=html&source=placeapi_v2,34.0,07:00-21:30,4.6,,,,,,,17,3,,,,,,,114.33056128233,30.580938649287,0
cc845bc966835765c7f025ee,咖啡陪你(绿地国际店),美食,咖啡厅,湖北省,武汉市,武昌区,湖北武汉市武昌区和平大道750号绿地国际金融城饕,cc845bc966835765c7f025ee,1,0,114.331301,30.588858,(027)88089477,cater,http://api.map.baidu.com/place/detail?uid=cc845bc966835765c7f025ee&output=html&source=placeapi_v2,34.0,09:00-22:00,5,,,,,,,,11,,,,,,,114.33130495263,30.588819352157,0
777032d96e0cbf2726d2bb3a,马哥孛罗武汉酒店咖啡厅,美食,咖啡厅,湖北省,武汉市,江岸区,湖北省武汉市江岸区沿江大道159号,777032d96e0cbf2726d2bb3a,1,0,114.308448,30.591075,(027)82758070,cater,http://api.map.baidu.com/place/detail?uid=777032d96e0cbf2726d2bb3a&output=html&source=placeapi_v2,172.0,06:30-22:30,3.8,,,,,,,,84,,,,,,,114.30814819873,30.591224599936,0
140e28c68012873fd23ce380,Fleur芙勒・江景cafe&bar,美食,咖啡厅,湖北省,武汉市,武昌区,湖北省武汉市武昌区和平大道750号绿地蓝海B座2104号,,1,0,114.330665,30.588936,18627033106,cater,http://api.map.baidu.com/place/detail?uid=140e28c68012873fd23ce380&output=html&source=placeapi_v2,48.0,23:30-06:00,5,,,,,,,,1,,,,,,,114.33083598146,30.589095473974,0
b2ae3b988e2250af8c1a89d1,星巴克臻选(黎黄陂路江滩店),美食,咖啡厅,湖北省,武汉市,江岸区,湖北省武汉市江岸区沿江大道111号,b2ae3b988e2250af8c1a89d1,1,0,114.308825,30.591755,(027)82203840,cater,http://api.map.baidu.com/place/detail?uid=b2ae3b988e2250af8c1a89d1&output=html&source=placeapi_v2,39.0,07:00-22:00,3.9,,,,,,,,1,,,,,,,114.30872307833,30.59168230471,0
108d55157f39ee36eedfca3e,小样咖啡(合伙人大厦店),美食,咖啡厅,湖北省,武汉市,武昌区,湖北武汉市武昌区学院路友谊大道118号v合伙人大厦1楼,108d55157f39ee36eedfca3e,1,0,114.335345,30.584158,,cater,http://api.map.baidu.com/place/detail?uid=108d55157f39ee36eedfca3e&output=html&source=placeapi_v2,,10:00-18:00,,,,,,,,,,,,,,,,114.33499780483,30.583900456059,0
b21dd2b13eb615ecb35c6a9a,Time Lounge&Cafe,美食,咖啡厅,湖北省,武汉市,江岸区,湖北省武汉市江岸区沿沿江大道159号时代一号2002室(马可孛罗酒店旁边),b21dd2b13eb615ecb35c6a9a,1,0,114.308385,30.591086,,cater,http://api.map.baidu.com/place/detail?uid=b21dd2b13eb615ecb35c6a9a&output=html&source=placeapi_v2,,,0,,,,,,,1,0,,,,,,,114.30864993201,30.590977929815,0
2fc35f195c2a67bdd7851f9a,九次列车咖啡厅,美食,咖啡厅,湖北省,武汉市,江岸区,湖北省武汉市江岸区沿江大道32号(粤汉码头绿皮小火车处),2fc35f195c2a67bdd7851f9a,1,0,114.311617,30.595392,,cater,http://api.map.baidu.com/place/detail?uid=2fc35f195c2a67bdd7851f9a&output=html&source=placeapi_v2,,10:00-22:00,,,,,,,,,,,,,,,,,,0
a38b91573003c0c48a36eeec,猫色咖啡,美食,咖啡厅,湖北省,武汉市,江岸区,湖北省武汉市江岸区胜利街160号泰兴里猫色7号楼,a38b91573003c0c48a36eeec,1,0,114.307136,30.594949,(027)82822202,cater,http://api.map.baidu.com/place/detail?uid=a38b91573003c0c48a36eeec&output=html&source=placeapi_v2,65.0,10:00-22:00,4.5,,,,,,,,7,,,,,,,114.30707426681,30.594872854994,0
b66cf04f530364b009f5eb4c,PLAY COFFEE,美食,咖啡厅,湖北省,武汉市,江岸区,湖北省武汉市江岸区洞庭街38号,,1,0,114.305683,30.588184,13593875943,cater,http://api.map.baidu.com/place/detail?uid=b66cf04f530364b009f5eb4c&output=html&source=placeapi_v2,37.0,10:00-22:00,4.3,,,,,,,,,,,,,,,114.30568310109,30.588184425608,0
f9ecce8ec1d1aab51d1d1116,爪哇空气酒吧,美食,酒吧,湖北省,武汉市,江岸区,湖北省武汉市江岸区天津路7号2苑,f9ecce8ec1d1aab51d1d1116,1,0,114.305358,30.589171,13396091339,cater,http://api.map.baidu.com/place/detail?uid=f9ecce8ec1d1aab51d1d1116&output=html&source=placeapi_v2,78.0,12:00-04:00,3.9,,,,,,,,0,,,,,,,114.30542695197,30.589243701881,0
a8d0fc93f76707f04e5547af,创意咖啡书吧,美食,咖啡厅,湖北省,武汉市,武昌区,湖北省武汉市武昌区和平大道450号武汉工人文化宫b区4号楼1楼,a8d0fc93f76707f04e5547af,1,0,114.320306,30.570678,,cater,http://api.map.baidu.com/place/detail?uid=a8d0fc93f76707f04e5547af&output=html&source=placeapi_v2,,,,,,,,,,,,,,,,,,,,0
23d64b710369be6b1f389432,Passing By,美食,酒吧,湖北省,武汉市,江岸区,湖北省武汉市江岸区黎黄陂路28号1层(近大智路),23d64b710369be6b1f389432,1,0,114.306094,30.593371,,life,http://api.map.baidu.com/place/detail?uid=23d64b710369be6b1f389432&output=html&source=placeapi_v2,49.5,09:00-03:00,4.1,,,,,,,55,58,,,,,,,114.30590022153,30.593510101492,0
45f71ad48f8a11002102205b,老时光(黎黄陂路店),美食,咖啡厅,湖北省,武汉市,江岸区,湖北省武汉市江岸区黎黄陂路30号,45f71ad48f8a11002102205b,1,0,114.306062,30.593359,(027)82880997,cater,http://api.map.baidu.com/place/detail?uid=45f71ad48f8a11002102205b&output=html&source=placeapi_v2,47.0,09:30-24:00,4.3,,,,,,,,4,,,,,,,114.30599811438,30.593347046079,0
2fa81d280b663dd29f09f70a,土耳其咖啡馆ISPARTA,美食,咖啡厅,湖北省,武汉市,江岸区,湖北省武汉市江岸区同兴里24号,,1,0,114.307631,30.593904,18162656520,cater,http://api.map.baidu.com/place/detail?uid=2fa81d280b663dd29f09f70a&output=html&source=placeapi_v2,45.0,11:30-22:00,4.7,,,,,,,,1,,,,,,,114.30800236512,30.593707757068,0
967fe6d1af32df9bdb1318ad,冰雨美式咖啡,美食,咖啡厅,湖北省,武汉市,武昌区,湖北省武汉市武昌区团结大道318号梦湖水岸正门车联网产业园1楼,967fe6d1af32df9bdb1318ad,1,0,114.335537,30.577648,(027)86611091,cater,http://api.map.baidu.com/place/detail?uid=967fe6d1af32df9bdb1318ad&output=html&source=placeapi_v2,31.0,,4.2,,,,,,,,0,,,,,,,,,0
eb2374d43c196124bda24072,1Z COFFEE(江景店),美食,外国餐厅,湖北省,武汉市,江岸区,湖北省武汉市江岸区沿江大道159号时代一号1号楼13楼1303室,eb2374d43c196124bda24072,1,0,114.308541,30.591425,18672725244,cater,http://api.map.baidu.com/place/detail?uid=eb2374d43c196124bda24072&output=html&source=placeapi_v2,70.0,10:00-23:00,4.7,,,,,,,,,,,,,,,114.30857996389,30.591619683058,0
8ef2f49c32cf7e8b4f3a5980,遥语荷,美食,咖啡厅,湖北省,武汉市,江岸区,湖北省武汉市江岸区中山大道907号,8ef2f49c32cf7e8b4f3a5980,1,0,114.308487,30.597959,18672776033,cater,http://api.map.baidu.com/place/detail?uid=8ef2f49c32cf7e8b4f3a5980&output=html&source=placeapi_v2,,20:00-02:00,,,,,,,,,,,,,,,,,,0
5cfb3aefcf41cf4c9f09f760,灵芝部落,美食,咖啡厅,湖北省,武汉市,江岸区,武汉市江岸区一元街街道洞庭社区合作路14号(界立方创意空间内一楼内),5cfb3aefcf41cf4c9f09f760,1,0,114.306496,30.58969,17786513380,life,http://api.map.baidu.com/place/detail?uid=5cfb3aefcf41cf4c9f09f760&output=html&source=placeapi_v2,,10:00-22:00,,,,,,,,15,0,,,,,,,,,0
4c97f5940baa9c559b68b4ca,瑞幸咖啡(汉口江滩江豚守护主题店),美食,蛋糕甜品店,湖北省,武汉市,江岸区,湖北省武汉市江岸区沿江大道汉口江滩一期主楼出口右侧一层6号商铺,4c97f5940baa9c559b68b4ca,1,0,114.307145,30.587366,18302712172,cater,http://api.map.baidu.com/place/detail?uid=4c97f5940baa9c559b68b4ca&output=html&source=placeapi_v2,19.0,,4.1,,,,,,,,2,,,,,,,114.30712605283,30.587612944723,0
b318a6e2675d11d555bfff2f,忙忙咖啡屋,美食,咖啡厅,湖北省,武汉市,江岸区,湖北省武汉市江岸区合作路11号附2号,b318a6e2675d11d555bfff2f,1,0,114.306289,30.589525,15927353563,cater,http://api.map.baidu.com/place/detail?uid=b318a6e2675d11d555bfff2f&output=html&source=placeapi_v2,43.0,10:30-18:00,4.5,,,,,,,,,,,,,,,114.30636913791,30.589604884122,0
550fd5f974299860921fc991,魔界咖啡(黎黄陂路店),美食,咖啡厅,湖北省,武汉市,江岸区,湖北省武汉市江岸区黎黄陂路26号1楼,550fd5f974299860921fc991,1,0,114.306165,30.593407,,cater,http://api.map.baidu.com/place/detail?uid=550fd5f974299860921fc991&output=html&source=placeapi_v2,39.0,09:30-23:30,4.2,,,,,,,,200,,,,,,,114.30605974442,30.593299338114,0
a94b515b9ba18c4aebe582de,一元路四号咖啡,美食,咖啡厅,湖北省,武汉市,江岸区,湖北省武汉市江岸区一元路4号,a94b515b9ba18c4aebe582de,1,0,114.309455,30.598839,17771802237,cater,http://api.map.baidu.com/place/detail?uid=a94b515b9ba18c4aebe582de&output=html&source=placeapi_v2,,11:00-23:00,4.5,,,,,,,,4,,,,,,,114.30948190215,30.598766094805,0
de8609efc5e718dd00ff2dba,蒹葭,美食,蛋糕甜品店,湖北省,武汉市,江岸区,湖北省武汉市江岸区珞珈山街14号3楼,de8609efc5e718dd00ff2dba,1,0,114.30604,30.59229,18040565025,cater,http://api.map.baidu.com/place/detail?uid=de8609efc5e718dd00ff2dba&output=html&source=placeapi_v2,47.0,13:00-17:00,4.8,,,,,,,,0,,,,,,,,,0
0a4c39036efc32e80b69d96d,She Cafe栖咖屋,美食,咖啡厅,湖北省,武汉市,江岸区,湖北省武汉市江岸区洞庭街37号,0a4c39036efc32e80b69d96d,1,0,114.304351,30.586921,"18627777652,18627947601",cater,http://api.map.baidu.com/place/detail?uid=0a4c39036efc32e80b69d96d&output=html&source=placeapi_v2,34.0,10:00-22:00,4.8,,,,,,,1,144,,,,,,,,,0
91eab6851bb7c7f2b14c495e,慢半拍咖啡(黄兴路店),美食,咖啡厅,湖北省,武汉市,江岸区,湖北省武汉市江岸区黄兴路2号,91eab6851bb7c7f2b14c495e,1,0,114.30619,30.594675,,cater,http://api.map.baidu.com/place/detail?uid=91eab6851bb7c7f2b14c495e&output=html&source=placeapi_v2,41.0,10:00-22:00,4.2,,,,,,,,,,,,,,,114.30629498908,30.594604882998,0
6db9de5bc20375d922f017ea,老泡茶庄,美食,咖啡厅,湖北省,武汉市,江岸区,湖北武汉市江岸区洞庭街56-3号,6db9de5bc20375d922f017ea,1,0,114.306348,30.590856,13971115248,cater,http://api.map.baidu.com/place/detail?uid=6db9de5bc20375d922f017ea&output=html&source=placeapi_v2,,00:00-24:00,,,,,,,,,,,,,,,,114.30623611054,30.590891380997,0
940fe071b3765227aecb66b1,passing by coffee,美食,咖啡厅,湖北省,武汉市,江岸区,湖北省武汉市江岸区黎黄陂路28号,940fe071b3765227aecb66b1,1,0,114.306104,30.593345,18163510215,cater,http://api.map.baidu.com/place/detail?uid=940fe071b3765227aecb66b1&output=html&source=placeapi_v2,,08:30-21:30,0,,,,,,,,0,,,,,,,,,0
320c2b945f42a78695031981,7号咖啡馆,美食,咖啡厅,湖北省,武汉市,江岸区,湖北省武汉市江岸区黎黄陂路32号,,1,0,114.305972,30.593474,13476211801,cater,http://api.map.baidu.com/place/detail?uid=320c2b945f42a78695031981&output=html&source=placeapi_v2,,12:00-02:00,3.7,,,,,,,,,,,,,,,114.30591013883,30.593394108272,0
aaaa06667c6449508c55ece7,臻尚咖啡(一元路店),美食,咖啡厅,湖北省,武汉市,江岸区,湖北省武汉市江岸区中山大道911号附3号,aaaa06667c6449508c55ece7,1,0,114.308845,30.598018,,cater,http://api.map.baidu.com/place/detail?uid=aaaa06667c6449508c55ece7&output=html&source=placeapi_v2,32.0,10:00-23:00,3.8,,,,,,,,0,,,,,,,114.30887486501,30.597949321229,0
aae4d431a1ef3728cd04ef96,BLACK BEAN COFFEE,美食,咖啡厅,湖北省,武汉市,江岸区,湖北省武汉市江岸区汉口江滩入口一楼沿江大道36-1号,,1,0,114.307427,30.586714,,cater,http://api.map.baidu.com/place/detail?uid=aae4d431a1ef3728cd04ef96&output=html&source=placeapi_v2,,,,,,,,,,,,,,,,,,,,0
526a126a6e40c5f3a20464d8,羽啡吧咖啡屋(黎黄陂路店),美食,咖啡厅,湖北省,武汉市,江岸区,湖北省武汉市江岸区大智街办事处黎黄陂路珞珈山街42号1楼,526a126a6e40c5f3a20464d8,1,0,114.306265,30.592846,18986098806,cater,http://api.map.baidu.com/place/detail?uid=526a126a6e40c5f3a20464d8&output=html&source=placeapi_v2,52.0,12:30-23:00,3.8,,,,,,,,8,,,,,,,,,0
8312e33a76170331adcb66cd,魔界咖啡(胜利街店),美食,咖啡厅,湖北省,武汉市,江岸区,湖北省武汉市江岸区胜利街142号,8312e33a76170331adcb66cd,1,0,114.306449,30.594656,18694058988,cater,http://api.map.baidu.com/place/detail?uid=8312e33a76170331adcb66cd&output=html&source=placeapi_v2,33.0,10:30-23:30,3.9,,,,,,,,1,,,,,,,114.30633482893,30.594629381466,0
a4f8c77bac5f7b68f7e73b7a,猫咪咖啡(胜利街店),美食,咖啡厅,湖北省,武汉市,江岸区,武汉市江岸区胜利街160号泰兴里7号(武汉红十字会巷内),,1,0,114.309244,30.598723,17771802237,cater,http://api.map.baidu.com/place/detail?uid=a4f8c77bac5f7b68f7e73b7a&output=html&source=placeapi_v2,42.0,10:30-22:30,,,,,,,,,,,,,,,,114.30926715323,30.598763929118,0
66a918c2a68520d38605bf89,咖啡茶艺,美食,茶座,湖北省,武汉市,江岸区,武汉市江岸区洞庭街玉龙居小区,,1,0,114.306498,30.590854,,cater,http://api.map.baidu.com/place/detail?uid=66a918c2a68520d38605bf89&output=html&source=placeapi_v2,,11:00-24:00,,,,,,,,,,,,,,,,,,0
fe6c6dee1d92c91790114c7a,ROUND2,购物,商铺,湖北省,武汉市,江岸区,湖北省武汉市江岸区珞珈山街4号,,1,0,114.30557,30.592305,13028802895,shopping,http://api.map.baidu.com/place/detail?uid=fe6c6dee1d92c91790114c7a&output=html&source=placeapi_v2,,10:30-21:30,,,,,,,,,,,,,,,,,,0
ffdc0f9d776bcf04740269f0,No Seat Coffee(洞庭街店),美食,中餐厅,湖北省,武汉市,江岸区,江岸区青岛路10号多牛世界一层F栋10-2,,1,0,114.304853,30.587775,,cater,http://api.map.baidu.com/place/detail?uid=ffdc0f9d776bcf04740269f0&output=html&source=placeapi_v2,32.0,,,,,,,,,,,,,,,,,,,0
d263e4d4bae9a69a2a02e126,星巴克(东湖国贸店),美食,咖啡厅,湖北省,武汉市,洪山区,湖北省武汉市洪山区欢乐大道1号东湖moma城a栋1层1-a-04单元,d263e4d4bae9a69a2a02e126,1,0,114.367958,30.584537,(027)88108159,cater,http://api.map.baidu.com/place/detail?uid=d263e4d4bae9a69a2a02e126&output=html&source=placeapi_v2,31.0,07:30-20:00,3.8,,,,,,,6,3,,,,,,,,,0
d0447f38eac8ae2b0b69d9e6,星巴克(骏业财富中心店),美食,咖啡厅,湖北省,武汉市,洪山区,湖北省武汉市洪山区欢乐大道75号骏业财富中心B座一层06单元,d0447f38eac8ae2b0b69d9e6,1,0,114.371215,30.588242,(027)88391796,cater,http://api.map.baidu.com/place/detail?uid=d0447f38eac8ae2b0b69d9e6&output=html&source=placeapi_v2,41.0,08:00-22:00,3.8,,,,,,,,1,,,,,,,114.37113035724,30.588209297454,0
550fd5f9008fec60931fc97b,星巴克(菩提金国际广场店),美食,咖啡厅,湖北省,武汉市,武昌区,湖北省武汉市武昌区中北路166号普提金商务中心2期1楼,550fd5f9008fec60931fc97b,1,0,114.366946,30.581087,(027)88735916,life,http://api.map.baidu.com/place/detail?uid=550fd5f9008fec60931fc97b&output=html&source=placeapi_v2,,07:30-22:00,4.0,,,,,,,53,5,,,,,,,114.36685160234,30.581195875994,0
3b978f46ab22269b2811d15a,星巴克臻选(群星城店),美食,咖啡厅,湖北省,武汉市,武昌区,武汉市武昌区徐东大街120号群星城F1,3b978f46ab22269b2811d15a,1,0,114.355205,30.589666,(027)88107022,cater,http://api.map.baidu.com/place/detail?uid=3b978f46ab22269b2811d15a&output=html&source=placeapi_v2,40.0,07:30-23:00,4.6,,,,,,,,4,,,,,,,114.35531824172,30.58923268732,0
6e7a87ddabbdf5f62db908a2,慕金空间,美食,咖啡厅,湖北省,武汉市,武昌区,湖北省武汉市武昌区中北路166号山河企业大厦19楼,6e7a87ddabbdf5f62db908a2,1,0,114.368051,30.581858,(027)88863699,cater,http://api.map.baidu.com/place/detail?uid=6e7a87ddabbdf5f62db908a2&output=html&source=placeapi_v2,,09:00-18:00,,,,,,,,,,,,,,,,114.36762496253,30.58191931425,0
9ec82aa0b35a3f989868b45e,星巴克(保利城店),美食,咖啡厅,湖北省,武汉市,洪山区,湖北省武汉市洪山区团结大道1049号保利城二期c座1层,9ec82aa0b35a3f989868b45e,1,0,114.366307,30.600949,(027)88076501,cater,http://api.map.baidu.com/place/detail?uid=9ec82aa0b35a3f989868b45e&output=html&source=placeapi_v2,36.0,,3.8,,,,,,,,,,,,,,,114.36647299082,30.601111568779,0
55fdf2aaf7afc616d518b7c4,星巴克(徐东新世界店),美食,咖啡厅,湖北省,武汉市,洪山区,湖北省武汉市洪山区徐东大街31号徐东新世界百货2期1层09b号,55fdf2aaf7afc616d518b7c4,1,0,114.352678,30.595245,(027)59397292,life,http://api.map.baidu.com/place/detail?uid=55fdf2aaf7afc616d518b7c4&output=html&source=placeapi_v2,,07:30-22:00,4.1,,,,,,,17,5,,,,,,,114.35264068923,30.59522455999,0
d1f9f88605ad41f528b97c33,茫麓咖啡(茫书吧),美食,咖啡厅,湖北省,武汉市,武昌区,武汉市武昌区沙湖大道沙湖公园东门西南侧约40米,,1,0,114.357504,30.577797,(027)86797688,cater,http://api.map.baidu.com/place/detail?uid=d1f9f88605ad41f528b97c33&output=html&source=placeapi_v2,,11:00-18:00,3.4,,,,,,,,5,,,,,,,114.35803210531,30.577586617152,0
cd56b085146f4ffbfb2d619e,乐菩菩咖啡馆,美食,蛋糕甜品店,湖北省,武汉市,武昌区,武昌区武汉纺织大学东湖校区8C栋三单元一楼,,1,0,114.377774,30.586176,13517244292,cater,http://api.map.baidu.com/place/detail?uid=cd56b085146f4ffbfb2d619e&output=html&source=placeapi_v2,,"10:30-16:30,19:00-21:00",,,,,,,,,,,,,,,,,,0
35fb11282fc734cffa0cad3d,瑞幸咖啡(徐东匠心汇店),美食,咖啡厅,湖北省,武汉市,洪山区,湖北省武汉市洪山区徐东大街地铁8号线负一楼G出口64号,35fb11282fc734cffa0cad3d,1,0,114.354813,30.593134,4000100100,cater,http://api.map.baidu.com/place/detail?uid=35fb11282fc734cffa0cad3d&output=html&source=placeapi_v2,19.0,07:00-20:30,4.5,,,,,,,,0,,,,,,,114.35478915595,30.593045550103,0
31f9101b6398e8a026e0a075,星巴克(销品茂店),美食,咖啡厅,湖北省,武汉市,武昌区,湖北省武汉市武昌区徐东大街18号销品茂F1,31f9101b6398e8a026e0a075,1,0,114.350393,30.594906,(027)88611991,cater,http://api.map.baidu.com/place/detail?uid=31f9101b6398e8a026e0a075&output=html&source=placeapi_v2,40.0,07:30-22:00,4.3,,,,,,,33,200,,,,,,,114.35049666865,30.595039485766,0
b3223658c0a8565a0782c2f3,东湖咖啡小镇,美食,咖啡厅,湖北省,武汉市,武昌区,湖北省武汉市武昌区黄鹂路88号听涛区内,b3223658c0a8565a0782c2f3,1,0,114.383791,30.579185,18611149425,cater,http://api.map.baidu.com/place/detail?uid=b3223658c0a8565a0782c2f3&output=html&source=placeapi_v2,64.0,10:00-22:00,4.2,,,,,,,,4,,,,,,,,,0
efbd153dcf826c3beb12e413,大福咖啡,美食,咖啡厅,湖北省,武汉市,洪山区,湖北省武汉市洪山区欢乐大道189附3号东湖尚郡1栋,efbd153dcf826c3beb12e413,1,0,114.375301,30.59096,15377551297,cater,http://api.map.baidu.com/place/detail?uid=efbd153dcf826c3beb12e413&output=html&source=placeapi_v2,82.0,08:30-20:30,4.7,,,,,,,,,,,,,,,114.37525626187,30.590933436748,0
6c5ce408c8d8b428f4231029,春林咖啡语茶(东亭分店),美食,咖啡厅,湖北省,武汉市,武昌区,湖北省武汉市武昌区东湖东亭花园碧竹苑门面14号,6c5ce408c8d8b428f4231029,1,0,114.370249,30.576839,(027)86791766,cater,http://api.map.baidu.com/place/detail?uid=6c5ce408c8d8b428f4231029&output=html&source=placeapi_v2,39.0,09:00-02:00,3.5,,,,,,,,1,,,,,,,114.37015167405,30.576914959373,0
b719318cc744c5bd35b06c5f,瑞幸咖啡(东原时光道店),美食,蛋糕甜品店,湖北省,武汉市,武昌区,湖北省武汉市武昌区团结路16号星华思维学堂销品茂3楼,b719318cc744c5bd35b06c5f,1,0,114.346496,30.591238,4000100100,cater,http://api.map.baidu.com/place/detail?uid=b719318cc744c5bd35b06c5f&output=html&source=placeapi_v2,19.0,07:00-20:00,3.9,,,,,,,,0,,,,,,,,,0
1e53062771ed41f795f08c47,锦咖啡,美食,咖啡厅,湖北省,武汉市,洪山区,湖北省武汉市洪山区东湖风景区街道雁中路绿道二期濮锦酒店旁,,1,0,114.424106,30.588276,19907152650,cater,http://api.map.baidu.com/place/detail?uid=1e53062771ed41f795f08c47&output=html&source=placeapi_v2,40.0,"09:00-21:00,21:10-22:00",3.7,,,,,,,,4,,,,,,,,,0
939226715c63574b31f71df2,漫咖啡(武汉华侨城店),美食,咖啡厅,湖北省,武汉市,洪山区,湖北省武汉市洪山区欢乐大道166号,939226715c63574b31f71df2,1,0,114.389774,30.595278,(027)88858687,cater,http://api.map.baidu.com/place/detail?uid=939226715c63574b31f71df2&output=html&source=placeapi_v2,49.0,08:00-01:00,4.3,,,,,,,,19,,,,,,,114.38948052718,30.595156344065,0
a0ba840cc8550b664e776e6d,星巴克(华侨城东方里店),美食,咖啡厅,湖北省,武汉市,洪山区,湖北省武汉市洪山区欢乐大道186号华侨城东方里商业街S3栋一楼105商铺,,1,0,114.391874,30.595566,(027)86600824,cater,http://api.map.baidu.com/place/detail?uid=a0ba840cc8550b664e776e6d&output=html&source=placeapi_v2,38.0,08:00-22:00,4.4,,,,,,,11,0,,,,,,,114.39188128729,30.595359750196,0
36b11905c0386fcf4557267f,茶与时光(革新大道店),美食,蛋糕甜品店,湖北省,武汉市,东西湖区,长青办事处二大队革新大道十支沟至十一支沟之间革新大道496号,36b11905c0386fcf4557267f,1,0,114.120852,30.618056,,cater,http://api.map.baidu.com/place/detail?uid=36b11905c0386fcf4557267f&output=html&source=placeapi_v2,,,,,,,,,,,,,,,,,,114.12074911284,30.618030356869,0
bb274b20754cfdd68bdb738b,瑞幸咖啡(海林广场店),美食,蛋糕甜品店,湖北省,武汉市,东西湖区,武汉市东西湖区东吴大道1116号海林广场F1,,1,0,114.150399,30.629147,4000100100,cater,http://api.map.baidu.com/place/detail?uid=bb274b20754cfdd68bdb738b&output=html&source=placeapi_v2,17.0,,3.8,,,,,,,,,,,,,,,114.15137558786,30.628718098199,0
afc2c352401e39a0b35c6a8e,星巴克(大泽东西湖中心广场店),美食,咖啡厅,湖北省,武汉市,东西湖区,湖北省武汉市东西湖区临空港大道与东吴大道交界处大泽东西湖中心广场F2,afc2c352401e39a0b35c6a8e,1,0,114.144639,30.629598,(027)83296282,cater,http://api.map.baidu.com/place/detail?uid=afc2c352401e39a0b35c6a8e&output=html&source=placeapi_v2,40.0,07:00-21:00,3.8,,,,,,,36,4,,,,,,,114.14408651058,30.62901738041,0
f59a9697859d1f3695ca07dc,宜家餐厅和咖啡厅(武汉荟聚店),美食,咖啡厅,湖北省,武汉市,~口区,湖北省武汉市~口区园博大道1号武汉荟聚购物中心F4,f59a9697859d1f3695ca07dc,1,0,114.173638,30.623941,,cater,http://api.map.baidu.com/place/detail?uid=f59a9697859d1f3695ca07dc&output=html&source=placeapi_v2,46.0,10:00-22:00,5,,,,,,,,2,,,,,,,114.17175782548,30.621643284443,0
16e72f7a051b60feeddfcad2,星巴克臻选(凯德广场西城店),美食,咖啡厅,湖北省,武汉市,~口区,武汉市~口区解放大道32号凯德广场F1,16e72f7a051b60feeddfcad2,1,0,114.201009,30.603267,(027)83866945,cater,http://api.map.baidu.com/place/detail?uid=16e72f7a051b60feeddfcad2&output=html&source=placeapi_v2,36.0,08:00-22:00,4.3,,,,,,,,96,,,,,,,114.20151231444,30.602999378376,0
8b735458db4a42c6df1e5291,YOUMELODY COFFEE,美食,咖啡厅,湖北省,武汉市,~口区,武汉市~口区招商江湾国际A栋1-28号,,1,0,114.198011,30.602417,(027)83800880,cater,http://api.map.baidu.com/place/detail?uid=8b735458db4a42c6df1e5291&output=html&source=placeapi_v2,,,0,,,,,,,,0,,,,,,,,,0
e526f79a5e9cf079100daa4c,小糖记(凯德广场西城店),美食,咖啡厅,湖北省,武汉市,~口区,武汉市~口区解放大道32号凯德广场F1,,1,0,114.200617,30.60269,,cater,http://api.map.baidu.com/place/detail?uid=e526f79a5e9cf079100daa4c&output=html&source=placeapi_v2,,10:00-22:00,0,,,,,,,,0,,,,,,,114.20006391089,30.604841085885,0
0e7b9e4f81f2c895ad31e560,Miss cake私家烘焙,美食,蛋糕甜品店,湖北省,武汉市,江汉区,湖北省武汉市江汉区柏润路49号,,1,0,114.244228,30.620781,15871814457,cater,http://api.map.baidu.com/place/detail?uid=0e7b9e4f81f2c895ad31e560&output=html&source=placeapi_v2,,08:00-24:00,3.7,,,,,,,,,,,,,,,114.24433826517,30.62067544596,0
71b81d4318e2e424223bf2b0,参差咖啡博物馆,美食,咖啡厅,湖北省,武汉市,~口区,武汉市~口区园博园东路9号2-3-1号,71b81d4318e2e424223bf2b0,1,0,114.231222,30.625839,(027)83553277,scope,http://api.map.baidu.com/place/detail?uid=71b81d4318e2e424223bf2b0&output=html&source=placeapi_v2,,11:00-18:00,0,,,,,,,,0,,,,,,,114.23047513125,30.626113909353,0
58b053adac6d06bcb320a8fe,瑞幸咖啡(红T时尚创意街店),美食,咖啡厅,湖北省,武汉市,江汉区,湖北省武汉市江汉区江旺路8号红T时尚创意街区2栋一层08室,58b053adac6d06bcb320a8fe,1,0,114.242352,30.629378,4000100100,cater,http://api.map.baidu.com/place/detail?uid=58b053adac6d06bcb320a8fe&output=html&source=placeapi_v2,20.0,07:00-20:00,4.5,,,,,,,,0,,,,,,,114.24231479877,30.629451821774,0
e88f53edeb2951071c3894d8,两岸咖啡(长港路店),美食,咖啡厅,湖北省,武汉市,江汉区,湖北省武汉市江汉区长港路常青南园A1-1,e88f53edeb2951071c3894d8,1,0,114.252053,30.635569,(027)63372377,cater,http://api.map.baidu.com/place/detail?uid=e88f53edeb2951071c3894d8&output=html&source=placeapi_v2,98.0,09:00-21:00,3.5,,,,,,,,26,,,,,,,114.25207504444,30.635346619994,0
ad04d5aff723952d250bd051,茶蘼咖啡TOME COFFEE,美食,咖啡厅,湖北省,武汉市,江汉区,湖北省武汉市江汉区江发路17号,ad04d5aff723952d250bd051,1,0,114.23993,30.626969,13080627033,cater,http://api.map.baidu.com/place/detail?uid=ad04d5aff723952d250bd051&output=html&source=placeapi_v2,32.0,11:00-18:00,0,,,,,,,,0,,,,,,,114.2398614851,30.627111261791,0
fad0fa19bd63c352f50e77e7,Joker,美食,咖啡厅,湖北省,武汉市,江汉区,湖北省武汉市江汉区发展二路2号爱帝集团4栋1楼,fad0fa19bd63c352f50e77e7,1,0,114.242002,30.628526,18107230940,cater,http://api.map.baidu.com/place/detail?uid=fad0fa19bd63c352f50e77e7&output=html&source=placeapi_v2,34.0,09:00-18:00,4.3,,,,,,,,2,,,,,,,,,0
117b01f84cfd276ff942b27c,car coffee,美食,咖啡厅,湖北省,武汉市,江汉区,湖北省武汉市江汉区江发路9号,117b01f84cfd276ff942b27c,1,0,114.24085,30.627644,,cater,http://api.map.baidu.com/place/detail?uid=117b01f84cfd276ff942b27c&output=html&source=placeapi_v2,36.0,09:00-20:30,3.7,,,,,,,,0,,,,,,,114.24089051652,30.627552742962,0
d062cbe568f866e840afe617,一杯花茶(发展大道店),美食,蛋糕甜品店,湖北省,武汉市,~口区,湖北省武汉市~口区发展大道27号,d062cbe568f866e840afe617,1,0,114.242531,30.613124,,cater,http://api.map.baidu.com/place/detail?uid=d062cbe568f866e840afe617&output=html&source=placeapi_v2,,00:00-24:00,3.5,,,,,,,,1,,,,,,,114.24254683288,30.613065276575,0
961fee878be968b5eb12e40b,Wagon coffee(园博园店),美食,咖啡厅,湖北省,武汉市,~口区,湖北武汉市~口区园博园东路4-3-1号,,1,0,114.230705,30.62578,13797084049,cater,http://api.map.baidu.com/place/detail?uid=961fee878be968b5eb12e40b&output=html&source=placeapi_v2,39.0,10:00-20:00,0,,,,,,,,1,,,,,,,114.23040527902,30.625912947567,0
1a169acec6372164f2193750,瑞幸咖啡(中百仓储常青店),美食,蛋糕甜品店,湖北省,武汉市,江汉区,湖北省武汉市江汉区常青路168号中百仓储购物中心1楼,1a169acec6372164f2193750,1,0,114.246329,30.631906,4000100100,cater,http://api.map.baidu.com/place/detail?uid=1a169acec6372164f2193750&output=html&source=placeapi_v2,21.0,09:00-17:00,4.0,,,,,,,,0,,,,,,,114.24684712736,30.63279760848,0
bb8bb35beaa13c3d00ff2d2d,Memocafe,美食,咖啡厅,湖北省,武汉市,江汉区,武汉市江汉区红旗渠路8号锦绣人家14栋五单元1202号,bb8bb35beaa13c3d00ff2d2d,1,0,114.258839,30.627953,17786123364,cater,http://api.map.baidu.com/place/detail?uid=bb8bb35beaa13c3d00ff2d2d&output=html&source=placeapi_v2,35.0,09:30-20:30,4.2,,,,,,,,2,,,,,,,114.25885988039,30.628163775119,0
6e739d6d549583edfb2d61d6,云创咖啡,美食,咖啡厅,湖北省,武汉市,江汉区,湖北省武汉市江汉区江旺路6号火凤凰云基地1楼,6e739d6d549583edfb2d61d6,1,0,114.243481,30.629343,13886019161,cater,http://api.map.baidu.com/place/detail?uid=6e739d6d549583edfb2d61d6&output=html&source=placeapi_v2,34.0,10:00-17:00,3.6,,,,,,,,,,,,,,,,,0
d9c020d6fdbd189000ff2d98,八月红茶馆,美食,茶座,湖北省,武汉市,~口区,湖北武汉市~口区古田四路199号199号附35号,d9c020d6fdbd189000ff2d98,1,0,114.222873,30.612498,13827055181,cater,http://api.map.baidu.com/place/detail?uid=d9c020d6fdbd189000ff2d98&output=html&source=placeapi_v2,57.0,09:30-22:30,3.5,,,,,,,,2,,,,,,,114.2228090082,30.612539361878,0
e5ed29dba7d1ba6fe812e4e4,瑞幸咖啡(恒大中心店),美食,蛋糕甜品店,湖北省,武汉市,江汉区,湖北省武汉市江汉区常青路47号武汉恒大中心大厦一层2-1号(today隔壁),e5ed29dba7d1ba6fe812e4e4,1,0,114.256771,30.616039,4000100100,cater,http://api.map.baidu.com/place/detail?uid=e5ed29dba7d1ba6fe812e4e4&output=html&source=placeapi_v2,15.0,07:00-20:00,3.9,,,,,,,,0,,,,,,,114.25673620621,30.616088780668,0
b193df79c07436940d3dda71,咖啡陪你(汉口火车站店),美食,咖啡厅,湖北省,武汉市,江汉区,武汉市江汉区汉口站横路欧亚达建材广场(汉口店),,1,0,114.261011,30.621134,,cater,http://api.map.baidu.com/place/detail?uid=b193df79c07436940d3dda71&output=html&source=placeapi_v2,,,4.3,,,,,,,,3,,,,,,,,,0
9f7bc53a3a6dcf13eb1e976e,咖啡小镇(香港路店),美食,咖啡厅,湖北省,武汉市,江汉区,湖北省武汉市江汉区唐家墩街道唐家墩路62附1号,9f7bc53a3a6dcf13eb1e976e,1,0,114.279542,30.617792,"13098801483,18771090681",cater,http://api.map.baidu.com/place/detail?uid=9f7bc53a3a6dcf13eb1e976e&output=html&source=placeapi_v2,33.0,11:00-22:00,3.6,,,,,,,,8,,,,,,,114.27971163175,30.61798502868,0
a45ffb6fce147a00fb2213c5,red donkey coffee(红毛驴咖啡),美食,咖啡厅,湖北省,武汉市,江汉区,湖北省武汉市江汉区香港路269附13号,a45ffb6fce147a00fb2213c5,1,0,114.281953,30.61603,13971017422,cater,http://api.map.baidu.com/place/detail?uid=a45ffb6fce147a00fb2213c5&output=html&source=placeapi_v2,31.0,09:30-18:00,4.7,,,,,,,,0,,,,,,,114.28201570992,30.615975464968,0
6ac208f59709d5663913fd62,星巴克(新华路CFD店),美食,咖啡厅,湖北省,武汉市,江汉区,湖北省武汉市江汉区新华路468号,6ac208f59709d5663913fd62,1,0,114.277657,30.610954,(027)83968623,cater,http://api.map.baidu.com/place/detail?uid=6ac208f59709d5663913fd62&output=html&source=placeapi_v2,39.0,08:00-22:00,4.1,,,,,,,7,1,,,,,,,114.27731744814,30.610762341629,0
417ee4f018abbcae87154181,那时花开咖啡馆,美食,咖啡厅,湖北省,武汉市,江岸区,湖北省武汉市江岸区惠济一路10号,417ee4f018abbcae87154181,1,0,114.295142,30.616492,15972013137,cater,http://api.map.baidu.com/place/detail?uid=417ee4f018abbcae87154181&output=html&source=placeapi_v2,49.0,09:30-22:00,3.7,,,,,,,,1,,,,,,,114.29507510116,30.616453330499,0
aeb76855c5080ec39cf779b7,LING,美食,蛋糕甜品店,湖北省,武汉市,江汉区,江汉区唐家墩路九头鸟小区2号门内(2号门走到头右转第二个店铺),aeb76855c5080ec39cf779b7,1,0,114.278784,30.617907,13260653118,cater,http://api.map.baidu.com/place/detail?uid=aeb76855c5080ec39cf779b7&output=html&source=placeapi_v2,71.0,11:30-21:00,4.5,,,,,,,,0,,,,,,,114.27830691549,30.618057148786,0
