uid,name,cat_L1,cat_L2,province,city,area,address,street_id,detail,child_num,loc_lng,loc_lat,telephone,type,detail_url,price,shop_hours,overall_rating,taste_rating,service_rating,environment_rating,facility_rating,hygiene_rating,technology_rating,image_num,comment_num,groupon_num,discount_num,favorite_num,checkin_num,brand,content_tag,naviloc_lng,naviloc_lat,child_num
ef313a8dfa7c9bdcd6b74e9f,武汉罐子把农庄,美食,中餐厅,湖北省,武汉市,汉南区,湖北省武汉市汉南区S13(汉洪高速),,1,0,114.035226,30.333958,,cater,http://api.map.baidu.com/place/detail?uid=ef313a8dfa7c9bdcd6b74e9f&output=html&source=placeapi_v2,,,3.0,,,,,,,,0,,,,,,,,,0
fa01fd4b6140e3d5c4f50dbc,台湾苏示牛排(汉南店),美食,外国餐厅,湖北省,武汉市,汉南区,湖北省武汉市汉南区兴城大道圣特立国际花园a区10-4铺,fa01fd4b6140e3d5c4f50dbc,1,0,114.085511,30.323057,18674875720,cater,http://api.map.baidu.com/place/detail?uid=fa01fd4b6140e3d5c4f50dbc&output=html&source=placeapi_v2,,11:00-21:30,3.6,,,,,,,,0,,,,,,,114.08542368793,30.322896334497,0
99c46bc6351d1f844e5547c8,卡斯摩手工披萨,美食,外国餐厅,湖北省,武汉市,汉南区,湖北省武汉市汉南区薇湖路403号,99c46bc6351d1f844e5547c8,1,0,114.081875,30.31261,13971499699,cater,http://api.map.baidu.com/place/detail?uid=99c46bc6351d1f844e5547c8&output=html&source=placeapi_v2,23.0,11:00-23:00,0,,,,,,,,1,,,,,,,,,0
e7d40b6f77d8644e4251c003,萨兰尼(东亭郡园店),美食,外国餐厅,湖北省,武汉市,汉南区,武汉市汉南区纱帽街兴城大道兴一路东亭郡园住宅小区2-4号楼1-17号1楼世纪华联超市内,,1,0,114.089072,30.32876,,cater,http://api.map.baidu.com/place/detail?uid=e7d40b6f77d8644e4251c003&output=html&source=placeapi_v2,,,,,,,,,,,,,,,,,,,,0
07ea47d530841dc329fc4899,沙县小吃,美食,小吃快餐店,湖北省,武汉市,江夏区,武汉市江夏区金口街永胜村还建楼15-16号门,07ea47d530841dc329fc4899,1,0,114.152106,30.333039,15079504239,cater,http://api.map.baidu.com/place/detail?uid=07ea47d530841dc329fc4899&output=html&source=placeapi_v2,,,,,,,,,,,,,,,,,,,,0
854de01a25753e053be4a6c6,天天有鱼家常菜馆(金口大道店),美食,中餐厅,湖北省,武汉市,江夏区,武汉市江夏区金口街淮山村还建楼三单元一层101-一号,,1,0,114.153982,30.337139,18210829379,cater,http://api.map.baidu.com/place/detail?uid=854de01a25753e053be4a6c6&output=html&source=placeapi_v2,,09:00-21:00,5,,,,,,,,3,,,,,,,,,0
637c3cfcfb79d90d5e17c3be,本味农家菜,美食,中餐厅,湖北省,武汉市,江夏区,湖北省武汉市江夏区S102(金口大道),,1,0,114.153492,30.337331,18062113216,cater,http://api.map.baidu.com/place/detail?uid=637c3cfcfb79d90d5e17c3be&output=html&source=placeapi_v2,,,,,,,,,,,,,,,,,,,,0
bd4241521d2e4dc3b01e3681,普仁鲜满汇,美食,中餐厅,湖北省,武汉市,江夏区,武汉市江夏区物流大道武汉海吉星农产品物流园,,1,0,114.279865,30.319071,,cater,http://api.map.baidu.com/place/detail?uid=bd4241521d2e4dc3b01e3681&output=html&source=placeapi_v2,,,,,,,,,,,,,,,,,,,,0
ec646220e639fc56f503b8ae,兴家坡农家菜馆,美食,中餐厅,湖北省,武汉市,江夏区,廖桥村9组,,1,0,114.271922,30.312444,18071064956,cater,http://api.map.baidu.com/place/detail?uid=ec646220e639fc56f503b8ae&output=html&source=placeapi_v2,,09:00-21:00,5,,,,,,,,1,,,,,,,114.27176325212,30.312411899753,0
36e75355432448b21811d55a,尚品坊(107国道店),美食,中餐厅,湖北省,武汉市,江夏区,武汉市江夏区107国道兴家坡农家菜馆东南侧150米,36e75355432448b21811d55a,1,0,114.272627,30.310349,"(027)87977907,18963951712",cater,http://api.map.baidu.com/place/detail?uid=36e75355432448b21811d55a&output=html&source=placeapi_v2,12.0,00:00-24:00,5,,,,,,,,2,,,,,,,114.27237149927,30.310255758912,0
aedf505bf408408040ab9aff,周师傅三鲜粉面馆,美食,小吃快餐店,湖北省,武汉市,江夏区,湖北省武汉市江夏区郑店107国道(张宜城综合超市旁),,1,0,114.272018,30.311741,15926331780,cater,http://api.map.baidu.com/place/detail?uid=aedf505bf408408040ab9aff&output=html&source=placeapi_v2,,06:00-12:00,3.4,,,,,,,,0,,,,,,,114.27194224219,30.311722926825,0
09dce355754dca7c8c55ec3e,特色纸上烤鱼,美食,中餐厅,湖北省,武汉市,江夏区,武汉市江夏区郑店路武汉市郑店派出所南侧约220米,,1,0,114.267847,30.331681,"13995677272,15098064448",cater,http://api.map.baidu.com/place/detail?uid=09dce355754dca7c8c55ec3e&output=html&source=placeapi_v2,,,,,,,,,,,,,,,,,,114.26785411669,30.331796224469,0
79bdaaeb5f039a2fb5f42f12,正宗兰州牛肉拉面刀削面,美食,小吃快餐店,湖北省,武汉市,江夏区,武汉市江夏区郑店路武汉市郑店派出所东南侧约210米,,1,0,114.26817,30.331944,13349888075,cater,http://api.map.baidu.com/place/detail?uid=79bdaaeb5f039a2fb5f42f12&output=html&source=placeapi_v2,,,,,,,,,,,,,,,,,,,,0
14b03cb04b8fd4dcab175ae0,武汉市银辉粉丝厂,美食,小吃快餐店,湖北省,武汉市,江夏区,湖北省武汉市江夏区郑店街郑家老屋,,1,0,114.268918,30.333396,13037137895,cater,http://api.map.baidu.com/place/detail?uid=14b03cb04b8fd4dcab175ae0&output=html&source=placeapi_v2,,08:00-20:00,,,,,,,,,1,,,,,,,,,0
b3c2e324ab0358045e0d02d2,十里有家小厨,美食,中餐厅,湖北省,武汉市,江夏区,湖北省武汉市江夏区郑店街劳一村石洞王54号,b3c2e324ab0358045e0d02d2,1,0,114.282837,30.337054,17786574355,cater,http://api.map.baidu.com/place/detail?uid=b3c2e324ab0358045e0d02d2&output=html&source=placeapi_v2,,07:00-20:30,,,,,,,,,,,,,,,,114.28288651471,30.336919543911,0
e95bd5cd253dc5378bdb7340,杰杰美食经济小炒,美食,中餐厅,湖北省,武汉市,江夏区,武汉市江夏区郑店路武汉市郑店派出所南侧约180米,,1,0,114.267343,30.331967,15972945705,cater,http://api.map.baidu.com/place/detail?uid=e95bd5cd253dc5378bdb7340&output=html&source=placeapi_v2,,,,,,,,,,,,,,,,,,,,0
e54c63e5c60e2409213bf21d,祥胜农庄,美食,中餐厅,湖北省,武汉市,江夏区,武汉市江夏区青龙南路江夏区纸坊街胜利小学北侧约260米,e54c63e5c60e2409213bf21d,1,0,114.322552,30.32549,,cater,http://api.map.baidu.com/place/detail?uid=e54c63e5c60e2409213bf21d&output=html&source=placeapi_v2,,09:00-21:00,,,,,,,,,1,,,,,,,114.32256912198,30.325351640222,0
9d30b222c5ca329c4e5547f1,桔子红烤全羊(江夏环山绿道店),美食,中餐厅,湖北省,武汉市,江夏区,武汉市江夏区环山路北50米,9d30b222c5ca329c4e5547f1,1,0,114.33715,30.327699,13037138281,cater,http://api.map.baidu.com/place/detail?uid=9d30b222c5ca329c4e5547f1&output=html&source=placeapi_v2,,09:00-20:00,3.7,,,,,,,,4,,,,,,,114.33736028724,30.328344747746,0
ea173d8f47ddbe46471a32f6,卤卤印象,美食,小吃快餐店,湖北省,武汉市,江夏区,武汉市江夏区纸贺线江北路幼儿园南侧约260米,,1,0,114.311371,30.326709,15827270941,cater,http://api.map.baidu.com/place/detail?uid=ea173d8f47ddbe46471a32f6&output=html&source=placeapi_v2,,,,,,,,,,,,,,,,,,,,0
82d473d3fdff168588db7327,发小农庄,美食,中餐厅,湖北省,武汉市,江夏区,湖北省武汉市江夏区武梁路腾飞隆生态园内,,1,0,114.434187,30.309763,,cater,http://api.map.baidu.com/place/detail?uid=82d473d3fdff168588db7327&output=html&source=placeapi_v2,,,,,,,,,,,,,,,,,,114.43393116134,30.309641184546,0
16f4ed6f9db4aa2108ccdd5a,三将餐厅,美食,中餐厅,湖北省,武汉市,汉南区,武汉市汉南区文化路乌金山社区东北侧约30米,,1,0,114.060637,30.351491,,cater,http://api.map.baidu.com/place/detail?uid=16f4ed6f9db4aa2108ccdd5a&output=html&source=placeapi_v2,,,,,,,,,,,,,,,,,,,,0
57f634a2df9939fa2cb908de,老农场餐厅,美食,中餐厅,湖北省,武汉市,汉南区,武汉市汉南区文化路乌金山社区东北侧约40米,,1,0,114.061602,30.351054,,cater,http://api.map.baidu.com/place/detail?uid=57f634a2df9939fa2cb908de&output=html&source=placeapi_v2,,,,,,,,,,,,,,,,,,,,0
ef6e467a78ff35454f3a5910,小四川餐厅(马影河大道店),美食,中餐厅,湖北省,武汉市,汉南区,武汉市汉南区东荆街碧桂园峰悦3-2号铺,ef6e467a78ff35454f3a5910,1,0,114.087538,30.356945,15872066541,cater,http://api.map.baidu.com/place/detail?uid=ef6e467a78ff35454f3a5910&output=html&source=placeapi_v2,,,,,,,,,,,,,,,,,,114.08755902211,30.356901480355,0
92234c7b30c72b859d82ea4a,大众餐厅(乌金农场乌金山社区店),美食,中餐厅,湖北省,武汉市,汉南区,湖北省武汉市汉南区东荆街道永清路乌金农场乌金山社区旁,,1,0,114.059217,30.351524,13100645239,cater,http://api.map.baidu.com/place/detail?uid=92234c7b30c72b859d82ea4a&output=html&source=placeapi_v2,,,,,,,,,,,,,,,,,,,,0
6d9ada402c10384a7369d30e,七月家餐饮复合坊(奥特莱斯店),美食,中餐厅,湖北省,武汉市,汉南区,湖北省武汉市汉南区马影河大道19号欧镇奥特莱斯B区2号楼1号铺,6d9ada402c10384a7369d30e,1,0,114.070243,30.341951,18672322592,cater,http://api.map.baidu.com/place/detail?uid=6d9ada402c10384a7369d30e&output=html&source=placeapi_v2,,10:00-21:00,3.5,,,,,,,,0,,,,,,,,,0
f2559c9d5adcd53681288a34,常青麦香园(马影河大道店),美食,小吃快餐店,湖北省,武汉市,汉南区,武汉市汉南区马影河大道武汉碧桂园翠堤春晓西南侧约290米,f2559c9d5adcd53681288a34,1,0,114.087332,30.356918,15271924716,cater,http://api.map.baidu.com/place/detail?uid=f2559c9d5adcd53681288a34&output=html&source=placeapi_v2,,10:00-22:00,3.4,,,,,,,,,,,,,,,114.08745525884,30.356863004215,0
f0b22d91acb6203a744ff13b,蒸品汇(绿地城奥特莱斯店),美食,中餐厅,湖北省,武汉市,汉南区,湖北省武汉市汉南区绿地城东区南侧绿地城奥特莱斯F1,f0b22d91acb6203a744ff13b,1,0,114.068756,30.339609,13995645956,cater,http://api.map.baidu.com/place/detail?uid=f0b22d91acb6203a744ff13b&output=html&source=placeapi_v2,,10:00-22:00,3.6,,,,,,,,0,,,,,,,114.0687288552,30.339676335373,0
109f8955df8638e522f01744,陈记公安牛肉鱼杂(马影河大道店),美食,中餐厅,湖北省,武汉市,汉南区,湖北省武汉市汉南区商业街风情3号楼114号,,1,0,114.09376,30.357122,(027)84857778,shopping,http://api.map.baidu.com/place/detail?uid=109f8955df8638e522f01744&output=html&source=placeapi_v2,,"09:30-14:00,16:30-21:30",,,,,,,,,1,,,,,,,,,0
299c8b0b49fbc2dd8bfc0681,东北饺子馆(碧桂园店),美食,小吃快餐店,湖北省,武汉市,汉南区,湖北省武汉市汉南区东荆街碧桂园峰景1号楼14号,,1,0,114.088095,30.356747,18404546575,cater,http://api.map.baidu.com/place/detail?uid=299c8b0b49fbc2dd8bfc0681&output=html&source=placeapi_v2,,00:00-24:00,3.5,,,,,,,,,,,,,,,,,0
ea6b8775b019c2450b69d9a5,川香缘(永清路店),美食,中餐厅,湖北省,武汉市,汉南区,湖北省武汉市汉南区乌金农场乌金山社区(永清路西),ea6b8775b019c2450b69d9a5,1,0,114.060928,30.351018,13476101530,cater,http://api.map.baidu.com/place/detail?uid=ea6b8775b019c2450b69d9a5&output=html&source=placeapi_v2,,,3.4,,,,,,,,,,,,,,,,,0
5bb0bbc2201474879de3211d,土厨子家味馆,美食,中餐厅,湖北省,武汉市,汉南区,武汉市汉南区马影河大道武汉碧桂园翠堤春晓东南侧约80米,5bb0bbc2201474879de3211d,1,0,114.093597,30.357165,"(027)84391699,18771035206",cater,http://api.map.baidu.com/place/detail?uid=5bb0bbc2201474879de3211d&output=html&source=placeapi_v2,,08:00-22:00,5,,,,,,,,1,,,,,,,114.09361517238,30.357021757954,0
502297e9cf1113395e0d0282,兰州国平牛肉拉面,美食,小吃快餐店,湖北省,武汉市,汉南区,湖北省武汉市汉南区马影河大道3-109号,502297e9cf1113395e0d0282,1,0,114.093869,30.357688,18696147541,cater,http://api.map.baidu.com/place/detail?uid=502297e9cf1113395e0d0282&output=html&source=placeapi_v2,,07:00-21:00,5,,,,,,,,2,,,,,,,,,0
5b604f2e254b89725a3ac8d0,再回首酒家,美食,中餐厅,湖北省,武汉市,汉南区,东荆街乌金山社区永清苑10-12号,,1,0,114.060145,30.351025,15871811222,cater,http://api.map.baidu.com/place/detail?uid=5b604f2e254b89725a3ac8d0&output=html&source=placeapi_v2,,,,,,,,,,,,,,,,,,,,0
2084a7bbe367fd3cd22dd68d,派乐汉堡(碧桂园店),美食,小吃快餐店,湖北省,武汉市,汉南区,汉南区马影河大道,2084a7bbe367fd3cd22dd68d,1,0,114.086755,30.35659,13437125168,cater,http://api.map.baidu.com/place/detail?uid=2084a7bbe367fd3cd22dd68d&output=html&source=placeapi_v2,22.0,10:30-21:30,3.4,,,,,,,,5,,,,,,,114.08686863121,30.356421096359,0
e0d7ae2b13448f0b901fc99e,501农家菜,美食,中餐厅,湖北省,武汉市,汉南区,汉南区东荆街碧桂园峰景6栋14号铺,,1,0,114.086468,30.356005,13971628683,cater,http://api.map.baidu.com/place/detail?uid=e0d7ae2b13448f0b901fc99e&output=html&source=placeapi_v2,,,,,,,,,,,,,,,,,,114.08637584686,30.356112153206,0
37e395bc5b01ea42aeb22acc,梓源酒家,美食,中餐厅,湖北省,武汉市,汉南区,武汉市汉南区东荆街金创路14号附5号,,1,0,114.060753,30.350996,18627055213,cater,http://api.map.baidu.com/place/detail?uid=37e395bc5b01ea42aeb22acc&output=html&source=placeapi_v2,,10:30-23:55,,,,,,,,,,,,,,,,,,0
7c5b9d7439d0d4cdfb2d616a,有滋有味(乌金店),美食,中餐厅,湖北省,武汉市,汉南区,武汉市汉南区Y014乌金山社区,,1,0,114.059805,30.351096,,cater,http://api.map.baidu.com/place/detail?uid=7c5b9d7439d0d4cdfb2d616a&output=html&source=placeapi_v2,,,,,,,,,,,,,,,,,,,,0
76ee9b85db77474d83a00c49,小龙牛骨头面,美食,小吃快餐店,湖北省,武汉市,汉南区,湖北省武汉市汉南区东荆街乌金农场清江大队武汉碧桂园(峰景)1栋1层12号铺(碧桂园凰城峰景),76ee9b85db77474d83a00c49,1,0,114.088002,30.356712,15007104649,cater,http://api.map.baidu.com/place/detail?uid=76ee9b85db77474d83a00c49&output=html&source=placeapi_v2,,,,,,,,,,,,,,,,,,,,0
6f5d4cf35259e6d508f5eb27,沙县小吃,美食,小吃快餐店,湖北省,武汉市,汉南区,武汉市汉南区Y014乌金工业园,,1,0,114.056889,30.351425,,cater,http://api.map.baidu.com/place/detail?uid=6f5d4cf35259e6d508f5eb27&output=html&source=placeapi_v2,,,,,,,,,,,,,,,,,,,,0
afab9ba47d73660d31870ad6,东北饺子馆,美食,小吃快餐店,湖北省,武汉市,汉南区,湖北省武汉市汉南区东荆街道碧桂园峰景1号楼14号商铺,afab9ba47d73660d31870ad6,1,0,114.086528,30.357313,,cater,http://api.map.baidu.com/place/detail?uid=afab9ba47d73660d31870ad6&output=html&source=placeapi_v2,,,,,,,,,,,,,,,,,,,,0
712263d4d2a52b84e81e97f0,常青麦香园(乌金闸桥店),美食,小吃快餐店,湖北省,武汉市,汉南区,湖北省武汉市汉南区东荆街乌金山金桥社区,,1,0,114.058183,30.351395,13125135880,life,http://api.map.baidu.com/place/detail?uid=712263d4d2a52b84e81e97f0&output=html&source=placeapi_v2,,06:00-18:00,,,,,,,,3,1,,,,,,,114.05826855914,30.351280194812,0
3dbbfded0093dd2c9900509e,兰州拉面(武汉碧桂园凤凰酒店西),美食,小吃快餐店,湖北省,武汉市,汉南区,湖北省武汉市汉南区兴五路2楼,,1,0,114.089027,30.357024,,cater,http://api.map.baidu.com/place/detail?uid=3dbbfded0093dd2c9900509e&output=html&source=placeapi_v2,,,,,,,,,,,,,,,,,,,,0
0c187d7c82941530c7f0254c,桂康源酒楼,美食,中餐厅,湖北省,武汉市,汉南区,武汉市汉南区马影河大道武汉碧桂园江汉山色,0c187d7c82941530c7f0254c,1,0,114.101023,30.36118,(027)84391699,cater,http://api.map.baidu.com/place/detail?uid=0c187d7c82941530c7f0254c&output=html&source=placeapi_v2,,09:00-22:30,0,,,,,,,,0,,,,,,,,,0
16968e066c6d5d1d9cf779df,桂子湖农庄,美食,中餐厅,湖北省,武汉市,汉南区,湖北省武汉市汉南区碧桂园北100米,16968e066c6d5d1d9cf779df,1,0,114.098481,30.360377,15972122756,cater,http://api.map.baidu.com/place/detail?uid=16968e066c6d5d1d9cf779df&output=html&source=placeapi_v2,,10:00-21:00,3.2,,,,,,,,2,,,,,,,114.09838077833,30.360348655688,0
6c6aa62b801ec9ad5cd4feeb,精粉世家湘菜馆,美食,中餐厅,湖北省,武汉市,江夏区,湖北省武汉市江夏区金港新区金港一号东区1号楼21号,,1,0,114.159479,30.346205,13657360607,cater,http://api.map.baidu.com/place/detail?uid=6c6aa62b801ec9ad5cd4feeb&output=html&source=placeapi_v2,,10:00-22:00,,,,,,,,,,,,,,,,114.15957687552,30.346123011839,0
7528f2b9baa408783b221cba,天天鲜鱼楼,美食,中餐厅,湖北省,武汉市,江夏区,湖北省武汉市江夏区金口大道金港一号小区东区17栋商铺2楼,7528f2b9baa408783b221cba,1,0,114.155153,30.346229,(027)81565779,cater,http://api.map.baidu.com/place/detail?uid=7528f2b9baa408783b221cba&output=html&source=placeapi_v2,,10:00-21:00,3.5,,,,,,,,5,,,,,,,114.15494010185,30.346322102341,0
a546509b9bf36b644d2fdf9a,湘香阁(金港店),美食,中餐厅,湖北省,武汉市,江夏区,湖北省武汉市江夏区金港一号东区3号楼一楼7~8号,a546509b9bf36b644d2fdf9a,1,0,114.158928,30.345374,(027)81566275,cater,http://api.map.baidu.com/place/detail?uid=a546509b9bf36b644d2fdf9a&output=html&source=placeapi_v2,39.0,"11:00-14:00,16:30-21:00",3.1,,,,,,,,0,,,,,,,114.15916869808,30.345109609133,0
d8e702faeecfebd83586f4f1,小吴纸包鱼,美食,中餐厅,湖北省,武汉市,江夏区,江夏区花园小区131号,d8e702faeecfebd83586f4f1,1,0,114.154295,30.345293,15527486373,cater,http://api.map.baidu.com/place/detail?uid=d8e702faeecfebd83586f4f1&output=html&source=placeapi_v2,,10:00-24:00,3.4,,,,,,,,,,,,,,,114.1544558523,30.345260732717,0
0e996e1a77597e3603897267,亮点烧烤农家菜,美食,中餐厅,湖北省,武汉市,江夏区,湖北省武汉市江夏区金口街金港小区东区134号,0e996e1a77597e3603897267,1,0,114.154792,30.345356,13437110604,cater,http://api.map.baidu.com/place/detail?uid=0e996e1a77597e3603897267&output=html&source=placeapi_v2,,16:00-02:00,,,,,,,,,,,,,,,,,,0
854de01a25753e053be4a6c6,天天有鱼家常菜馆(金口大道店),美食,中餐厅,湖北省,武汉市,江夏区,武汉市江夏区金口街淮山村还建楼三单元一层101-一号,,1,0,114.153982,30.337139,18210829379,cater,http://api.map.baidu.com/place/detail?uid=854de01a25753e053be4a6c6&output=html&source=placeapi_v2,,09:00-21:00,5,,,,,,,,3,,,,,,,,,0
471113c847b2a893b05c6a53,沙县小吃,美食,小吃快餐店,湖北省,武汉市,江夏区,武汉市江夏区金港一号3号楼东区,471113c847b2a893b05c6a53,1,0,114.159039,30.345627,,cater,http://api.map.baidu.com/place/detail?uid=471113c847b2a893b05c6a53&output=html&source=placeapi_v2,,,,,,,,,,,,,,,,,,114.15910438479,30.345572392371,0
fbb95a0de58ab747b34c49ca,康鸡子家常菜烧烤,美食,中餐厅,湖北省,武汉市,江夏区,江夏区金港新区金港一号19号楼东区一楼133-1号,fbb95a0de58ab747b34c49ca,1,0,114.154876,30.345488,13657258930,cater,http://api.map.baidu.com/place/detail?uid=fbb95a0de58ab747b34c49ca&output=html&source=placeapi_v2,,10:00-14:00,,,,,,,,,,,,,,,,114.15488202191,30.345637316967,0
36254b2cc855560a430245c4,爱尚麻辣烫(汝南路店),美食,小吃快餐店,湖北省,武汉市,江夏区,武汉市江夏区汝南路金港一号小区西侧约40米,36254b2cc855560a430245c4,1,0,114.154259,30.3455,18827674152,cater,http://api.map.baidu.com/place/detail?uid=36254b2cc855560a430245c4&output=html&source=placeapi_v2,,,,,,,,,,,,,,,,,,114.15451945682,30.345420433382,0
5ce2637d37c1f751ae31e5d5,小竹林(凤凰台街店),美食,中餐厅,湖北省,武汉市,江夏区,武汉市江夏区凤凰台街,,1,0,114.170228,30.346382,,cater,http://api.map.baidu.com/place/detail?uid=5ce2637d37c1f751ae31e5d5&output=html&source=placeapi_v2,,,,,,,,,,,,,,,,,,114.17095499906,30.346522085973,0
e0798184ef9c45e414b54b63,食味家常菜,美食,中餐厅,湖北省,武汉市,江夏区,湖北省武汉市江夏区金港新区金港一号小区24号楼西区17-2号,e0798184ef9c45e414b54b63,1,0,114.154361,30.345724,13545908539,cater,http://api.map.baidu.com/place/detail?uid=e0798184ef9c45e414b54b63&output=html&source=placeapi_v2,,16:00-04:00,0,,,,,,,,1,,,,,,,,,0
acaff6ceb110f2186f3e1bf1,万家精粉世家湘菜馆,美食,中餐厅,湖北省,武汉市,江夏区,湖北省武汉市江夏区金口大道金港一号小区西区133号,,1,0,114.156006,30.345638,"13477718660,13548845791",cater,http://api.map.baidu.com/place/detail?uid=acaff6ceb110f2186f3e1bf1&output=html&source=placeapi_v2,,10:00-21:30,,,,,,,,,,,,,,,,,,0
d94481f99fd6afa0bb17e736,艳军家常菜,美食,中餐厅,湖北省,武汉市,江夏区,湖北省武汉市江夏区金口街道淮山村凤凰山路金口中学附近,d94481f99fd6afa0bb17e736,1,0,114.143039,30.34221,13135664006,cater,http://api.map.baidu.com/place/detail?uid=d94481f99fd6afa0bb17e736&output=html&source=placeapi_v2,,,,,,,,,,,,,,,,,,114.14305057389,30.342309011101,0
7f8b94b3e74bee012fb17e83,辣条家の饭,美食,中餐厅,湖北省,武汉市,江夏区,湖北省武汉市江夏区金口街金湖大道10号附2号,,1,0,114.143489,30.341805,15387010702,cater,http://api.map.baidu.com/place/detail?uid=7f8b94b3e74bee012fb17e83&output=html&source=placeapi_v2,,09:00-01:00,,,,,,,,,,,,,,,,,,0
1fa2f06e678d522181a12eaf,王平牛骨头火锅,美食,中餐厅,湖北省,武汉市,江夏区,湖北省武汉市江夏区金岭路96号,1fa2f06e678d522181a12eaf,1,0,114.146725,30.340824,,cater,http://api.map.baidu.com/place/detail?uid=1fa2f06e678d522181a12eaf&output=html&source=placeapi_v2,,,,,,,,,,,,,,,,,,,,0
637c3cfcfb79d90d5e17c3be,本味农家菜,美食,中餐厅,湖北省,武汉市,江夏区,湖北省武汉市江夏区S102(金口大道),,1,0,114.153492,30.337331,18062113216,cater,http://api.map.baidu.com/place/detail?uid=637c3cfcfb79d90d5e17c3be&output=html&source=placeapi_v2,,,,,,,,,,,,,,,,,,,,0
d317f491ab73e535f219370c,翔宇家常菜,美食,中餐厅,湖北省,武汉市,江夏区,武汉市江夏区凤凰山路江夏区金口中心卫生院东侧约140米,d317f491ab73e535f219370c,1,0,114.143027,30.342258,17771867412,cater,http://api.map.baidu.com/place/detail?uid=d317f491ab73e535f219370c&output=html&source=placeapi_v2,,"07:00-15:00,16:00-21:00",,,,,,,,,,,,,,,,,,0
ec51ab9b16c248b90bf5ebfa,牛肉面馆,美食,小吃快餐店,湖北省,武汉市,江夏区,武汉市江夏区纸金路金口街长山幼儿园西南侧约160米,ec51ab9b16c248b90bf5ebfa,1,0,114.197899,30.348365,,cater,http://api.map.baidu.com/place/detail?uid=ec51ab9b16c248b90bf5ebfa&output=html&source=placeapi_v2,,,,,,,,,,,,,,,,,,,,0
23cdc7ae3955d035276e98c4,湘香园酒店,美食,中餐厅,湖北省,武汉市,江夏区,武汉市江夏区郑店瞿家湾附近,,1,0,114.251457,30.348078,15327315101,cater,http://api.map.baidu.com/place/detail?uid=23cdc7ae3955d035276e98c4&output=html&source=placeapi_v2,,,5,,,,,,,,1,,,,,,,114.2515722395,30.348074039728,0
b6af58f849f06c0e6240a9c7,绿茵阁西餐厅(中百广场江夏店),美食,外国餐厅,湖北省,武汉市,江夏区,武汉市江夏区纸坊街文化路37号中百广场F5,b6af58f849f06c0e6240a9c7,1,0,114.327661,30.370227,(027)87911699,cater,http://api.map.baidu.com/place/detail?uid=b6af58f849f06c0e6240a9c7&output=html&source=placeapi_v2,80.0,11:00-21:00,4.1,,,,,,,,4,,,,,,,114.32867204074,30.37117394398,0
104a65634907d96048cc4acd,一品红(西交路店),美食,中餐厅,湖北省,武汉市,江夏区,湖北省武汉市江夏区纸坊大街1059号,104a65634907d96048cc4acd,1,0,114.314877,30.348445,18771132994,cater,http://api.map.baidu.com/place/detail?uid=104a65634907d96048cc4acd&output=html&source=placeapi_v2,30.0,08:00-23:00,,,,,,,,,,,,,,,,,,0
81c1f8b4b809ef1bb9df8f3e,清真正宗兰州牛肉拉面(西交路店),美食,小吃快餐店,湖北省,武汉市,江夏区,湖北省武汉市江夏区中兴街19号,81c1f8b4b809ef1bb9df8f3e,1,0,114.323456,30.350686,13294161323,cater,http://api.map.baidu.com/place/detail?uid=81c1f8b4b809ef1bb9df8f3e&output=html&source=placeapi_v2,20.0,10:00-22:00,0,,,,,,,,1,,,,,,,,,0
860ad0d839e2428b2efaa790,胖子餐馆(武汉市江夏区城市管理执法局西店),美食,中餐厅,湖北省,武汉市,江夏区,武汉市江夏区纸坊大街1027号(城市管理执法局西),860ad0d839e2428b2efaa790,1,0,114.315216,30.348543,(027)81782992,cater,http://api.map.baidu.com/place/detail?uid=860ad0d839e2428b2efaa790&output=html&source=placeapi_v2,35.0,,3.6,,,,,,,,2,,,,,,,114.3151810703,30.348692934746,0
69b7ea9b24079b8bd6b74e3d,丁记正宗贵州花江狗肉火锅城(西交路),美食,中餐厅,湖北省,武汉市,江夏区,纸坊大街1047号(纸坊饭店隔壁),69b7ea9b24079b8bd6b74e3d,1,0,114.314807,30.348356,18788668090,cater,http://api.map.baidu.com/place/detail?uid=69b7ea9b24079b8bd6b74e3d&output=html&source=placeapi_v2,,09:00-22:00,5,,,,,,,,2,,,,,,,114.31484400002,30.348536998061,0
0bc72340e1b81ca7da2f2891,胖子家常菜(武汉市江夏区城市管理执法局西店),美食,中餐厅,湖北省,武汉市,江夏区,湖北省武汉市江夏区纸坊大街877号,0bc72340e1b81ca7da2f2891,1,0,114.319846,30.348576,13006181552,cater,http://api.map.baidu.com/place/detail?uid=0bc72340e1b81ca7da2f2891&output=html&source=placeapi_v2,,"05:00-14:00,16:30-20:00",3.5,,,,,,,,,,,,,,,,,0
bdd86086dfae7ffed8d891e6,西G酒家,美食,中餐厅,湖北省,武汉市,江夏区,武汉市江夏区复江道龙泉逸舍西侧,,1,0,114.321374,30.365585,"13871298027,13871542165",cater,http://api.map.baidu.com/place/detail?uid=bdd86086dfae7ffed8d891e6&output=html&source=placeapi_v2,,09:00-21:00,,,,,,,,,,,,,,,,114.32145310674,30.365574803413,0
c7b76b4dbf14899cc0f1cfe9,小菜香(西交路店),美食,中餐厅,湖北省,武汉市,江夏区,湖北省武汉市江夏区长乐路2附4号,c7b76b4dbf14899cc0f1cfe9,1,0,114.315264,30.351664,13080639990,cater,http://api.map.baidu.com/place/detail?uid=c7b76b4dbf14899cc0f1cfe9&output=html&source=placeapi_v2,,,,,,,,,,,,,,,,,,114.3153631712,30.351716281107,0
7cdedc6b9e6b89235e17c3a9,二环路西区・卤味火锅串串(九全嘉店),美食,中餐厅,湖北省,武汉市,江夏区,九全嘉购物广场4楼,,1,0,114.336146,30.364795,15392935201,cater,http://api.map.baidu.com/place/detail?uid=7cdedc6b9e6b89235e17c3a9&output=html&source=placeapi_v2,71.0,10:30-22:00,3.8,,,,,,,,,,,,,,,,,0
656c14f432333cab33169b69,胜利酒家(秀山大厦西),美食,中餐厅,湖北省,武汉市,江夏区,湖北省武汉市江夏区武昌大道461号,656c14f432333cab33169b69,1,0,114.308144,30.345047,13871111726,cater,http://api.map.baidu.com/place/detail?uid=656c14f432333cab33169b69&output=html&source=placeapi_v2,,,,,,,,,,,,,,,,,,114.3082673365,30.34497441649,0
86a8be774d306834990050c2,R先生・韩式炸鸡(武工院店),美食,外国餐厅,湖北省,武汉市,江夏区,湖北省武汉市江夏区武汉工程科技学院学院大道沁湘苑美食城二楼,86a8be774d306834990050c2,1,0,114.345452,30.353974,17771774821,cater,http://api.map.baidu.com/place/detail?uid=86a8be774d306834990050c2&output=html&source=placeapi_v2,,11:00-24:00,,,,,,,,,,,,,,,,,,0
099c98c9f1907b89c156acaa,钓鱼岛美食,美食,中餐厅,湖北省,武汉市,江夏区,湖北省武汉市江夏区纸坊大街143号,099c98c9f1907b89c156acaa,1,0,114.347271,30.348036,(027)87023231,cater,http://api.map.baidu.com/place/detail?uid=099c98c9f1907b89c156acaa&output=html&source=placeapi_v2,180.0,"11:30-13:00,17:30-20:30",3.6,,,,,,,,2,,,,,,,,,0
7f4d225a8d1972898a36ee99,众源餐饮,美食,中餐厅,湖北省,武汉市,江夏区,湖北省武汉市江夏区熊廷弼路8号,7f4d225a8d1972898a36ee99,1,0,114.345889,30.35383,17730179696,cater,http://api.map.baidu.com/place/detail?uid=7f4d225a8d1972898a36ee99&output=html&source=placeapi_v2,,11:00-20:00,,,,,,,,,,,,,,,,,,0
2135b3b3748d6ffca11de9cb,南海鸽天下美食,美食,中餐厅,湖北省,武汉市,江夏区,湖北省武汉市江夏区纸坊大街147号,2135b3b3748d6ffca11de9cb,1,0,114.347138,30.348028,13545081241,cater,http://api.map.baidu.com/place/detail?uid=2135b3b3748d6ffca11de9cb&output=html&source=placeapi_v2,,11:30-21:00,5,,,,,,,,1,,,,,,,,,0
a62bdf0e95f483c33686f4eb,齐心花园农家菜,美食,中餐厅,湖北省,武汉市,江夏区,武汉市江夏区齐心花园7号,a62bdf0e95f483c33686f4eb,1,0,114.348272,30.361288,"13545399633,18971410237",cater,http://api.map.baidu.com/place/detail?uid=a62bdf0e95f483c33686f4eb&output=html&source=placeapi_v2,46.0,09:00-21:00,,,,,,,,,,,,,,,,114.34817070415,30.361306695578,0
551f42d55c90bec880a00c43,土灶乡,美食,中餐厅,湖北省,武汉市,江夏区,武汉市江夏区五里界路与庙山大道交叉路口往西南约270米,551f42d55c90bec880a00c43,1,0,114.378555,30.340666,(027)81782877,cater,http://api.map.baidu.com/place/detail?uid=551f42d55c90bec880a00c43&output=html&source=placeapi_v2,,09:00-21:00,4,,,,,,,,3,,,,,,,,,0
6cd7c146556231a0b04c491a,东站家常菜,美食,中餐厅,湖北省,武汉市,江夏区,湖北省武汉市江夏区沙羡街东72附5号,6cd7c146556231a0b04c491a,1,0,114.349076,30.360833,15926203866,cater,http://api.map.baidu.com/place/detail?uid=6cd7c146556231a0b04c491a&output=html&source=placeapi_v2,,,,,,,,,,,,,,,,,,,,0
c8f4b6bf9619ab6b4251c01a,大牛匠心特色牛肉粉面馆(市民之家店),美食,小吃快餐店,湖北省,武汉市,江夏区,湖北省武汉市江夏区纸坊街东华街21号,c8f4b6bf9619ab6b4251c01a,1,0,114.348285,30.362455,,cater,http://api.map.baidu.com/place/detail?uid=c8f4b6bf9619ab6b4251c01a&output=html&source=placeapi_v2,,,,,,,,,,,,,,,,,,,,0
f7e4c38ef999871d8836eec7,抓手双,美食,中餐厅,湖北省,武汉市,江夏区,武汉市江夏区纸坊大街纸坊苗苗幼儿园东侧约240米,,1,0,114.347097,30.348417,,cater,http://api.map.baidu.com/place/detail?uid=f7e4c38ef999871d8836eec7&output=html&source=placeapi_v2,,,,,,,,,,1,,,,,,,,,,0
88f4f685ac4d762e03ec0116,老陶土菜馆,美食,中餐厅,湖北省,武汉市,江夏区,江夏区幸福港路五里界派出所西北侧约130米,88f4f685ac4d762e03ec0116,1,0,114.393102,30.345083,,cater,http://api.map.baidu.com/place/detail?uid=88f4f685ac4d762e03ec0116&output=html&source=placeapi_v2,,,3.5,,,,,,,,4,,,,,,,114.39274289073,30.345153301576,0
b4728826c7745ff326d2bb63,小圆满餐厅(武汉绕城高速店),美食,中餐厅,湖北省,武汉市,江夏区,武汉市江夏区武汉绕城高速江夏服务区,b4728826c7745ff326d2bb63,1,0,114.401507,30.364307,,cater,http://api.map.baidu.com/place/detail?uid=b4728826c7745ff326d2bb63&output=html&source=placeapi_v2,,,,,,,,,,,,,,,,,,,,0
1762b29870932ffb0bccdd12,聚八方食尚经济主题餐厅,美食,中餐厅,湖北省,武汉市,江夏区,武汉市江夏区界兴路武汉农村商业银行(五里界支行)东侧约60米,,1,0,114.404653,30.341912,,cater,http://api.map.baidu.com/place/detail?uid=1762b29870932ffb0bccdd12&output=html&source=placeapi_v2,,,,,,,,,,,,,,,,,,114.40466747956,30.342030483871,0
ca4e5a6dfd5a6ebdafee7a63,品味私房菜(界兴路店),美食,中餐厅,湖北省,武汉市,江夏区,武汉市江夏区界兴路武汉农村商业银行(五里界支行)东侧约80米,ca4e5a6dfd5a6ebdafee7a63,1,0,114.404814,30.342181,15972132905,cater,http://api.map.baidu.com/place/detail?uid=ca4e5a6dfd5a6ebdafee7a63&output=html&source=placeapi_v2,,08:30-22:00,5,,,,,,,,1,,,,,,,114.40479688137,30.342081308972,0
52cf80bed14b21253517dc89,梁湖鱼庄,美食,中餐厅,湖北省,武汉市,江夏区,梁子湖大道西50米,,1,0,114.424222,30.351491,15392946339,cater,http://api.map.baidu.com/place/detail?uid=52cf80bed14b21253517dc89&output=html&source=placeapi_v2,,08:00-20:00,,,,,,,,,1,,,,,,,,,0
fdd906cfbf4736ee95f08c94,如意轩酒楼(界兴路店),美食,中餐厅,湖北省,武汉市,江夏区,湖北省武汉市江夏区界兴路155号,fdd906cfbf4736ee95f08c94,1,0,114.401421,30.342687,(027)87971885,cater,http://api.map.baidu.com/place/detail?uid=fdd906cfbf4736ee95f08c94&output=html&source=placeapi_v2,,09:00-21:00,3.6,,,,,,,,1,,,,,,,,,0
db0d0486d374e24743ab9add,界邦酒家,美食,中餐厅,湖北省,武汉市,江夏区,湖北省武汉市江夏区界兴路142号,db0d0486d374e24743ab9add,1,0,114.403524,30.342063,13125013787,cater,http://api.map.baidu.com/place/detail?uid=db0d0486d374e24743ab9add&output=html&source=placeapi_v2,,"08:00-14:00,16:00-21:00",3.5,,,,,,,,,,,,,,,,,0
5e711448b98fe16b0a5cb3c7,界上人家私房菜,美食,中餐厅,湖北省,武汉市,江夏区,湖北省武汉市江夏区界兴路98号,,1,0,114.400193,30.342389,13871579975,cater,http://api.map.baidu.com/place/detail?uid=5e711448b98fe16b0a5cb3c7&output=html&source=placeapi_v2,,07:30-21:00,3.4,,,,,,,,,,,,,,,,,0
d56317e04056f7ef0c0e6b44,重庆怪味黑鸭,美食,中餐厅,湖北省,武汉市,江夏区,武汉市江夏区界兴路江夏区五里界中学东南侧约180米,,1,0,114.403137,30.342447,18871196267,cater,http://api.map.baidu.com/place/detail?uid=d56317e04056f7ef0c0e6b44&output=html&source=placeapi_v2,,08:00-21:00,,,,,,,,,,,,,,,,114.40312018784,30.342358779237,0
effdeccc7382c56743afe602,军军农家菜,美食,中餐厅,湖北省,武汉市,江夏区,湖北省武汉市江夏区梁子湖大道,,1,0,114.424267,30.351702,,cater,http://api.map.baidu.com/place/detail?uid=effdeccc7382c56743afe602&output=html&source=placeapi_v2,,,0,,,,,,,,1,,,,,,,114.42415744379,30.351836386805,0
573f3081add005d84d776e70,瑶瑶牛骨头,美食,中餐厅,湖北省,武汉市,江夏区,武汉市江夏区五里界锦绣小区十字路口红绿灯,573f3081add005d84d776e70,1,0,114.396898,30.342735,15172417333,cater,http://api.map.baidu.com/place/detail?uid=573f3081add005d84d776e70&output=html&source=placeapi_v2,,10:30-01:30,,,,,,,,,,,,,,,,,,0
945a6a79e57107395cbe862f,骆厨泡菜鱼牛骨头,美食,中餐厅,湖北省,武汉市,江夏区,湖北省武汉市江夏区界兴路179号,,1,0,114.403008,30.342488,,cater,http://api.map.baidu.com/place/detail?uid=945a6a79e57107395cbe862f&output=html&source=placeapi_v2,,,,,,,,,,,,,,,,,,,,0
4b2d90144c6a64e7c0364483,香里来家常菜,美食,中餐厅,湖北省,武汉市,江夏区,湖北省武汉市江夏区界山路10号,4b2d90144c6a64e7c0364483,1,0,114.403305,30.341706,"(027)87971055,13707141632",cater,http://api.map.baidu.com/place/detail?uid=4b2d90144c6a64e7c0364483&output=html&source=placeapi_v2,,10:00-20:00,3.5,,,,,,,,,,,,,,,,,0
f18824f961712f13f4b9166a,沙县小吃,美食,小吃快餐店,湖北省,武汉市,江夏区,武汉市江夏区锦绣大道毛家畈小区东南侧,f18824f961712f13f4b9166a,1,0,114.395792,30.346701,,cater,http://api.map.baidu.com/place/detail?uid=f18824f961712f13f4b9166a&output=html&source=placeapi_v2,,,,,,,,,,,,,,,,,,114.39600913944,30.346643286985,0
9c8f95cadb1d721815948eb9,华莱士全鸡汉堡(江夏五里界店),美食,小吃快餐店,湖北省,武汉市,江夏区,湖北省武汉市江夏区界兴路163号,,1,0,114.402274,30.342635,13554277040,cater,http://api.map.baidu.com/place/detail?uid=9c8f95cadb1d721815948eb9&output=html&source=placeapi_v2,,08:00-24:00,3.1,,,,,,,,,,,,,,,114.40225331045,30.342526523523,0
8ca35c8d9baee17c9f09f7ff,君喜酒家,美食,中餐厅,湖北省,武汉市,江夏区,界兴路4号,,1,0,114.403255,30.341935,13659859791,cater,http://api.map.baidu.com/place/detail?uid=8ca35c8d9baee17c9f09f7ff&output=html&source=placeapi_v2,,09:00-23:00,,,,,,,,,,,,,,,,,,0
e929cef39a07a037621c67ab,川香阁美食(锦绣大道店),美食,中餐厅,湖北省,武汉市,江夏区,武汉市江夏区锦绣大道毛家畈小区东南侧,e929cef39a07a037621c67ab,1,0,114.395743,30.346598,,cater,http://api.map.baidu.com/place/detail?uid=e929cef39a07a037621c67ab&output=html&source=placeapi_v2,,08:30-22:30,,,,,,,,,,,,,,,,114.39597196397,30.346537834804,0
952a1ac5691ea1c9eb1e97dc,牛肉杂粉面馆,美食,小吃快餐店,湖北省,武汉市,江夏区,武汉市江夏区界兴路江夏区五里界中学东南侧约230米,,1,0,114.403638,30.342358,,cater,http://api.map.baidu.com/place/detail?uid=952a1ac5691ea1c9eb1e97dc&output=html&source=placeapi_v2,,,,,,,,,,,,,,,,,,,,0
2dc7796f8dc6b6e7fb221346,界兴特色牛肉粉(五里界小商品市场店),美食,小吃快餐店,湖北省,武汉市,江夏区,武汉市江夏区界兴路江夏区五里界中学东南侧约140米,2dc7796f8dc6b6e7fb221346,1,0,114.40241,30.342308,15926303934,cater,http://api.map.baidu.com/place/detail?uid=2dc7796f8dc6b6e7fb221346&output=html&source=placeapi_v2,,,3,,,,,,,,1,,,,,,,114.40243531703,30.342432234243,0
648ffdc90475f30c2fb17e93,老汉口热干面牛肉面(江夏五里界店),美食,小吃快餐店,湖北省,武汉市,江夏区,五里界街五里锦绣小区伊托邦路2附23号,,1,0,114.397209,30.340674,17786127354,cater,http://api.map.baidu.com/place/detail?uid=648ffdc90475f30c2fb17e93&output=html&source=placeapi_v2,,04:30-12:30,,,,,,,,,,,,,,,,114.39719586031,30.340535944286,0
35d830daaec6308d0869d96c,姐弟私房菜馆,美食,中餐厅,湖北省,武汉市,江夏区,武汉市江夏区伊托邦路2号附113号,,1,0,114.397013,30.340351,,cater,http://api.map.baidu.com/place/detail?uid=35d830daaec6308d0869d96c&output=html&source=placeapi_v2,,,,,,,,,,,,,,,,,,,,0
9d663c59df6e1bfe93114c86,牛骨牛杂馆,美食,小吃快餐店,湖北省,武汉市,江夏区,湖北省武汉市江夏区五里界新成电器商行(界兴路北),9d663c59df6e1bfe93114c86,1,0,114.402055,30.342659,18086028927,cater,http://api.map.baidu.com/place/detail?uid=9d663c59df6e1bfe93114c86&output=html&source=placeapi_v2,,,3.5,,,,,,,,,,,,,,,,,0
4ff6760c9ea4d8430e0a7047,轩缘土菜馆,美食,中餐厅,湖北省,武汉市,江夏区,武汉市江夏区锦绣大道五里锦绣西南侧,,1,0,114.396975,30.339635,18627715349,cater,http://api.map.baidu.com/place/detail?uid=4ff6760c9ea4d8430e0a7047&output=html&source=placeapi_v2,,09:00-22:00,,,,,,,,,,,,,,,,114.3968099842,30.339651627034,0
b929248696647b332ce67b6d,味食鲜农家菜,美食,中餐厅,湖北省,武汉市,江夏区,湖北省武汉市江夏区五里界五里锦绣三期102号,,1,0,114.397033,30.339692,13986144161,cater,http://api.map.baidu.com/place/detail?uid=b929248696647b332ce67b6d&output=html&source=placeapi_v2,,09:30-22:00,,,,,,,,,,,,,,,,114.3968183052,30.339713413961,0
f8177301f4c8448c3686f4db,兰州拉面,美食,小吃快餐店,湖北省,武汉市,江夏区,湖北省武汉市江夏区界兴路147号,,1,0,114.400948,30.342426,18793825462,cater,http://api.map.baidu.com/place/detail?uid=f8177301f4c8448c3686f4db&output=html&source=placeapi_v2,15.0,05:00-23:00,3.3,,,,,,,,,,,,,,,,,0
222813c5aeba3047246e98d8,相当到味(锦绣商业街店),美食,小吃快餐店,湖北省,武汉市,江夏区,武汉市江夏区五里界伊托邦路2附24号,222813c5aeba3047246e98d8,1,0,114.397359,30.340616,18040550342,cater,http://api.map.baidu.com/place/detail?uid=222813c5aeba3047246e98d8&output=html&source=placeapi_v2,,11:00-21:00,,,,,,,,,,,,,,,,,,0
e1ef4f69c61201c97ab55cd0,军龙私房菜馆(龙湖社区店),美食,中餐厅,湖北省,武汉市,蔡甸区,湖北省武汉市蔡甸区经济技术开发区军山街龙湖社区商铺B28号,e1ef4f69c61201c97ab55cd0,1,0,114.130822,30.378685,(027)69816717,cater,http://api.map.baidu.com/place/detail?uid=e1ef4f69c61201c97ab55cd0&output=html&source=placeapi_v2,47.0,"09:00-14:00,16:30-21:00",3.5,,,,,,,,0,,,,,,,,,0
a375c1d8dce96ccb03ec0135,美食美客,美食,小吃快餐店,湖北省,武汉市,蔡甸区,湖北省武汉市蔡甸区檀军路156附59号,a375c1d8dce96ccb03ec0135,1,0,114.130821,30.37878,18071743598,cater,http://api.map.baidu.com/place/detail?uid=a375c1d8dce96ccb03ec0135&output=html&source=placeapi_v2,,10:00-22:00,3.5,,,,,,,1,0,,,,,,,,,0
28e2ec2973ed5b942fb17ead,派乐汉堡(龙湖社区店),美食,小吃快餐店,湖北省,武汉市,蔡甸区,湖北省武汉市蔡甸区美的空调(龙湖社区专卖店),28e2ec2973ed5b942fb17ead,1,0,114.130581,30.378973,13720126364,cater,http://api.map.baidu.com/place/detail?uid=28e2ec2973ed5b942fb17ead&output=html&source=placeapi_v2,17.0,09:30-21:00,3.5,,,,,,,,0,,,,,,,,,0
74410a918b68f6dc9222e025,老亲娘厨坊(龙湖店),美食,中餐厅,湖北省,武汉市,蔡甸区,武汉市蔡甸区军山街龙湖社区一期檀军路156号附40号,,1,0,114.131846,30.379704,,cater,http://api.map.baidu.com/place/detail?uid=74410a918b68f6dc9222e025&output=html&source=placeapi_v2,,10:00-21:30,3.4,,,,,,,,,,,,,,,114.13215499222,30.380009593599,0
2ad05da1f783e73d7ec876af,汉味面馆,美食,小吃快餐店,湖北省,武汉市,蔡甸区,湖北省武汉市蔡甸区龙湖幼儿园东南(101省道南),,1,0,114.130569,30.37893,,cater,http://api.map.baidu.com/place/detail?uid=2ad05da1f783e73d7ec876af&output=html&source=placeapi_v2,,06:00-21:30,,,,,,,,,,,,,,,,,,0
29de71d7592834251ef74d2d,蜀香人家(黄陵矶大道店),美食,中餐厅,湖北省,武汉市,蔡甸区,武汉市蔡甸区军山街龙湖社区B6商铺,,1,0,114.131855,30.379667,13477024941,cater,http://api.map.baidu.com/place/detail?uid=29de71d7592834251ef74d2d&output=html&source=placeapi_v2,,09:00-21:30,,,,,,,,,,,,,,,,114.13226899078,30.379922963265,0
f461f96d2ff798621811d5fb,鱼面馆(龙湖店),美食,小吃快餐店,湖北省,武汉市,蔡甸区,武汉市蔡甸区军山街龙湖社区一期(老汉口热干面旁),,1,0,114.131159,30.379403,,cater,http://api.map.baidu.com/place/detail?uid=f461f96d2ff798621811d5fb&output=html&source=placeapi_v2,,,,,,,,,,,,,,,,,,114.13110589625,30.379319219046,0
2ba773ce171b6d9ceaf85358,老汉口热干面(龙湖店),美食,小吃快餐店,湖北省,武汉市,蔡甸区,军山街龙湖社区一期檀军路156附51号,,1,0,114.131142,30.379421,,cater,http://api.map.baidu.com/place/detail?uid=2ba773ce171b6d9ceaf85358&output=html&source=placeapi_v2,,,,,,,,,,,,,,,,,,114.13108393358,30.379441111873,0
2a58c4aeb7b0fd18abf72993,同兴家常菜(金龙大道店),美食,中餐厅,湖北省,武汉市,江夏区,武汉市江夏区金龙大街郑店同兴小区,2a58c4aeb7b0fd18abf72993,1,0,114.250196,30.385431,13871572858,cater,http://api.map.baidu.com/place/detail?uid=2a58c4aeb7b0fd18abf72993&output=html&source=placeapi_v2,,09:00-20:00,,,,,,,,,,,,,,,,114.25030075722,30.385417642534,0
5508a493c439e6952bd7ab7c,苗乡狗肉馆,美食,中餐厅,湖北省,武汉市,江夏区,武汉市江夏区金龙大街郑店同兴小区西南侧约120米,,1,0,114.248966,30.385406,13554633400,cater,http://api.map.baidu.com/place/detail?uid=5508a493c439e6952bd7ab7c&output=html&source=placeapi_v2,,,,,,,,,,,,,,,,,,,,0
39ac29b779acf75ab9df8f81,紫东来味坊,美食,中餐厅,湖北省,武汉市,江夏区,武汉市江夏区金龙大街郑店同兴小区,39ac29b779acf75ab9df8f81,1,0,114.250529,30.385549,15971477651,cater,http://api.map.baidu.com/place/detail?uid=39ac29b779acf75ab9df8f81&output=html&source=placeapi_v2,,,,,,,,,,,,,,,,,,114.25051586994,30.385437581929,0
a242c124b323af4593114cd4,重庆小面,美食,小吃快餐店,湖北省,武汉市,江夏区,武汉市江夏区金龙大街郑店同兴小区西南侧,,1,0,114.250196,30.385294,,cater,http://api.map.baidu.com/place/detail?uid=a242c124b323af4593114cd4&output=html&source=placeapi_v2,,05:00-20:00,,,,,,,,,,,,,,,,114.25018102926,30.385180207247,0
1319dff07b568422a11de9cf,香军府私房菜,美食,中餐厅,湖北省,武汉市,江夏区,湖北省武汉市江夏区郑店街同心小区3栋,1319dff07b568422a11de9cf,1,0,114.250761,30.385531,13667145112,cater,http://api.map.baidu.com/place/detail?uid=1319dff07b568422a11de9cf&output=html&source=placeapi_v2,,11:00-21:00,,,,,,,,,,,,,,,,114.25074838464,30.385418007836,0
430acb23f438c968c4f50d99,鑫云湘菜馆,美食,中餐厅,湖北省,武汉市,江夏区,武汉市江夏区黄金三路武汉东乐商务酒店东侧约80米,430acb23f438c968c4f50d99,1,0,114.256408,30.384043,"15616165500,18175796350",cater,http://api.map.baidu.com/place/detail?uid=430acb23f438c968c4f50d99&output=html&source=placeapi_v2,,,3.4,,,,,,,,,,,,,,,114.25642590005,30.384186929393,0
3a4cb91af46a590b110daa04,兰州拉面(金龙大街店),美食,小吃快餐店,湖北省,武汉市,江夏区,武汉市江夏区黄金三路武汉东乐商务酒店东侧约70米,3a4cb91af46a590b110daa04,1,0,114.25632,30.384062,17671452931,cater,http://api.map.baidu.com/place/detail?uid=3a4cb91af46a590b110daa04&output=html&source=placeapi_v2,,06:00-21:00,3.4,,,,,,,,,,,,,,,114.25633542721,30.384185894761,0
de6bedf5ec9214c5fd0eb091,团聚家常菜,美食,中餐厅,湖北省,武汉市,江夏区,武汉市江夏区金龙大街武汉东乐商务酒店东侧约110米,,1,0,114.256769,30.384061,13871294475,cater,http://api.map.baidu.com/place/detail?uid=de6bedf5ec9214c5fd0eb091&output=html&source=placeapi_v2,,,,,,,,,,,,,,,,,,114.25666182562,30.38416009881,0
98a2d27db0e88a621b11d5a0,三胖子快餐小炒,美食,小吃快餐店,湖北省,武汉市,江夏区,武汉市江夏区金龙大街郑店同兴小区西南侧约50米,,1,0,114.249696,30.38534,,cater,http://api.map.baidu.com/place/detail?uid=98a2d27db0e88a621b11d5a0&output=html&source=placeapi_v2,,,,,,,,,,,,,,,,,,,,0
62119b9f9f0024469ee321c7,千子烧烤私房菜,美食,中餐厅,湖北省,武汉市,江夏区,金龙大街同兴小区,,1,0,114.255549,30.384115,13476153434,cater,http://api.map.baidu.com/place/detail?uid=62119b9f9f0024469ee321c7&output=html&source=placeapi_v2,,16:00-02:00,,,,,,,,,,,,,,,,114.25556579857,30.384261218449,0
b6c9330103f1073e6fc02cc0,欣味缘,美食,中餐厅,湖北省,武汉市,江夏区,金龙大街246附2号,,1,0,114.254597,30.384284,13554229368,cater,http://api.map.baidu.com/place/detail?uid=b6c9330103f1073e6fc02cc0&output=html&source=placeapi_v2,,,,,,,,,,,,,,,,,,114.25460779078,30.384337017103,0
bc929b73fc76b5d959bbbc26,道道牛肉面,美食,小吃快餐店,湖北省,武汉市,江夏区,郑店街金龙大街同兴小区门面房,,1,0,114.250169,30.385374,18062702758,cater,http://api.map.baidu.com/place/detail?uid=bc929b73fc76b5d959bbbc26&output=html&source=placeapi_v2,,04:00-13:00,,,,,,,,,,,,,,,,,,0
0913e4a2de9ec1000aa8d4f3,遵义羊肉粉,美食,小吃快餐店,湖北省,武汉市,江夏区,武汉市江夏区金龙大街郑店同兴小区西南侧约100米,,1,0,114.24922,30.385408,15377674181,cater,http://api.map.baidu.com/place/detail?uid=0913e4a2de9ec1000aa8d4f3&output=html&source=placeapi_v2,,04:30-22:30,,,,,,,,,,,,,,,,114.24921893328,30.385275116383,0
509a524217dcbb404354d7dc,赵记特色牛肉牛杂粉面馆,美食,小吃快餐店,湖北省,武汉市,江夏区,湖北省武汉市江夏区金龙大街246号,509a524217dcbb404354d7dc,1,0,114.255663,30.384129,18802712475,cater,http://api.map.baidu.com/place/detail?uid=509a524217dcbb404354d7dc&output=html&source=placeapi_v2,,05:00-21:00,,,,,,,,,,,,,,,,114.25567205105,30.384251930597,0
56a46f9ece36e66f45e2746d,沙县小吃,美食,小吃快餐店,湖北省,武汉市,江夏区,武汉市江夏区金龙大街郑店同兴小区东南侧约240米,,1,0,114.255046,30.384236,,cater,http://api.map.baidu.com/place/detail?uid=56a46f9ece36e66f45e2746d&output=html&source=placeapi_v2,,,3.4,,,,,,,,,,,,,,,,,0
03f664bd6f1188bd770269ee,沙县小吃,美食,小吃快餐店,湖北省,武汉市,江夏区,武汉市江夏区黄金南路与黄金四路交叉路口往东约110米,,1,0,114.25332,30.381318,,cater,http://api.map.baidu.com/place/detail?uid=03f664bd6f1188bd770269ee&output=html&source=placeapi_v2,,,,,,,,,,,,,,,,,,,,0
11bb28478f648106abf0cd58,孙记农家菜馆,美食,中餐厅,湖北省,武汉市,江夏区,武汉市江夏区黄金北路与黄金二路交叉路口西北侧,,1,0,114.260158,30.387218,15926460968,cater,http://api.map.baidu.com/place/detail?uid=11bb28478f648106abf0cd58&output=html&source=placeapi_v2,,,,,,,,,,,,,,,,,,,,0
0418df5d47535933eb56fa5f,汉味热干面馆,美食,小吃快餐店,湖北省,武汉市,江夏区,武汉市江夏区黄金南路与黄金四路交叉路口往东约50米,,1,0,114.252765,30.381292,15972749313,cater,http://api.map.baidu.com/place/detail?uid=0418df5d47535933eb56fa5f&output=html&source=placeapi_v2,,,,,,,,,,,,,,,,,,,,0
f422cf2af76d824809a8d4ed,中国兰州拉面,美食,小吃快餐店,湖北省,武汉市,江夏区,武汉市江夏区郑店街道黄金工业园黄金二路兰州拉面,,1,0,114.260535,30.386745,17671624662,cater,http://api.map.baidu.com/place/detail?uid=f422cf2af76d824809a8d4ed&output=html&source=placeapi_v2,,06:00-21:00,,,,,,,,,,,,,,,,114.26035895825,30.386740289774,0
b6af58f849f06c0e6240a9c7,绿茵阁西餐厅(中百广场江夏店),美食,外国餐厅,湖北省,武汉市,江夏区,武汉市江夏区纸坊街文化路37号中百广场F5,b6af58f849f06c0e6240a9c7,1,0,114.327661,30.370227,(027)87911699,cater,http://api.map.baidu.com/place/detail?uid=b6af58f849f06c0e6240a9c7&output=html&source=placeapi_v2,80.0,11:00-21:00,4.1,,,,,,,,4,,,,,,,114.32867204074,30.37117394398,0
d4cf6cdfc01073dd16c905f2,旧时光西餐厅(沃尔玛店),美食,小吃快餐店,湖北省,武汉市,江夏区,湖北省武汉市江夏区谭鑫培路19号万豪世纪天街负1楼,d4cf6cdfc01073dd16c905f2,1,0,114.332625,30.372768,17771307302,cater,http://api.map.baidu.com/place/detail?uid=d4cf6cdfc01073dd16c905f2&output=html&source=placeapi_v2,,11:00-20:30,3.7,,,,,,,,,,,,,,,,,0
48a6d426a840ecf6ce04ef6d,食家庄(世纪花园西),美食,中餐厅,湖北省,武汉市,江夏区,武汉市江夏区武昌大道飞行幼儿园北侧,48a6d426a840ecf6ce04ef6d,1,0,114.319893,30.372396,,cater,http://api.map.baidu.com/place/detail?uid=48a6d426a840ecf6ce04ef6d&output=html&source=placeapi_v2,50.0,10:00-22:00,,,,,,,,,,,,,,,,114.32002017202,30.372401102051,0
7eec64e546abef8b715e80b2,河南牛肉烩面面,美食,小吃快餐店,湖北省,武汉市,江夏区,武汉市江夏区毅恒街毅恒工业园东南侧约50米,,1,0,114.361224,30.38781,,cater,http://api.map.baidu.com/place/detail?uid=7eec64e546abef8b715e80b2&output=html&source=placeapi_v2,,,,,,,,,,,,,,,,,,,,0
84100fa3a6752cf6932ca3ba,好街坊家常菜,美食,中餐厅,湖北省,武汉市,江夏区,武汉市江夏区毅恒街毅恒工业园东南侧,,1,0,114.36093,30.387959,13545868950,cater,http://api.map.baidu.com/place/detail?uid=84100fa3a6752cf6932ca3ba&output=html&source=placeapi_v2,,,3.4,,,,,,,,,,,,,,,,,0
70e376d5ab267d91b817e791,湘巴佬火锅(毅恒街店),美食,中餐厅,湖北省,武汉市,江夏区,湖北省武汉市江夏区毅恒街2一17号,70e376d5ab267d91b817e791,1,0,114.361325,30.387632,13237166681,cater,http://api.map.baidu.com/place/detail?uid=70e376d5ab267d91b817e791&output=html&source=placeapi_v2,,10:00-22:00,,,,,,,,,,,,,,,,,,0
6390258744b77d443362122c,中国兰州牛肉拉面,美食,小吃快餐店,湖北省,武汉市,江夏区,武汉市江夏区毅恒街毅恒工业园东南侧,6390258744b77d443362122c,1,0,114.361098,30.387804,,cater,http://api.map.baidu.com/place/detail?uid=6390258744b77d443362122c&output=html&source=placeapi_v2,,,,,,,,,,,,,,,,,,,,0
fb92219702703056b21e3657,怡景园农庄(金龙大街店),美食,中餐厅,湖北省,武汉市,江夏区,武汉市江夏区毅恒街百步亭江南郡北侧约240米,fb92219702703056b21e3657,1,0,114.367843,30.379957,13520101937,life,http://api.map.baidu.com/place/detail?uid=fb92219702703056b21e3657&output=html&source=placeapi_v2,,"10:00-14:00,16:00-22:00",3.6,,,,,,,1,0,,,,,,,114.36782174624,30.379935495144,0
fd2fcd8436e544658733047b,虾皇(毅恒街店),美食,中餐厅,湖北省,武汉市,江夏区,武汉市江夏区毅恒街毅恒工业园东南侧约70米,fd2fcd8436e544658733047b,1,0,114.361395,30.387671,,cater,http://api.map.baidu.com/place/detail?uid=fd2fcd8436e544658733047b&output=html&source=placeapi_v2,,,,,,,,,,,,,,,,,,,,0
13301e2b6bef7ec78bdb7321,巢音乐餐厅,美食,中餐厅,湖北省,武汉市,江夏区,湖北省武汉市江夏区阳光大道普安就业基地5号楼一楼,,1,0,114.350889,30.377564,18062693183,cater,http://api.map.baidu.com/place/detail?uid=13301e2b6bef7ec78bdb7321&output=html&source=placeapi_v2,,14:00-03:00,,,,,,,,,2,,,,,,,,,0
42410f196ac16a068c55ec4a,聚宝盆餐厅,美食,中餐厅,湖北省,武汉市,江夏区,湖北省武汉市江夏区庙山大道8号,,1,0,114.377198,30.374781,,cater,http://api.map.baidu.com/place/detail?uid=42410f196ac16a068c55ec4a&output=html&source=placeapi_v2,,,,,,,,,,,,,,,,,,,,0
8b170e0c5771fddfc91b9557,梁子湖餐厅,美食,中餐厅,湖北省,武汉市,江夏区,湖北省武汉市江夏区江夏大道17号,8b170e0c5771fddfc91b9557,1,0,114.377595,30.401747,15342606758,cater,http://api.map.baidu.com/place/detail?uid=8b170e0c5771fddfc91b9557&output=html&source=placeapi_v2,,11:00-22:00,3.5,,,,,,,,,,,,,,,114.37759694869,30.401794436674,0
6a3fb9fd9594202f047ce8e8,聚饱盆餐厅,美食,中餐厅,湖北省,武汉市,江夏区,湖北省武汉市江夏区庙山大道8号,6a3fb9fd9594202f047ce8e8,1,0,114.377336,30.375723,13971083248,cater,http://api.map.baidu.com/place/detail?uid=6a3fb9fd9594202f047ce8e8&output=html&source=placeapi_v2,,09:00-20:00,,,,,,,,,,,,,,,,114.37736478433,30.375834508864,0
ca3f7fdd58a3baa514b54b33,德克士(罗马春天店),美食,小吃快餐店,湖北省,武汉市,江夏区,武汉市江夏区江夏大道56号罗马春天奥特莱斯F1,ca3f7fdd58a3baa514b54b33,1,0,114.37516,30.392097,(027)81296783,cater,http://api.map.baidu.com/place/detail?uid=ca3f7fdd58a3baa514b54b33&output=html&source=placeapi_v2,28.0,10:00-20:00,4.2,,,,,,,,8,,,,,,,114.37760242836,30.394384855596,0
2947e951221d3c2bcd04ef80,渔家老灶,美食,中餐厅,湖北省,武汉市,江夏区,湖北省武汉市江夏区江夏大道34附12号,2947e951221d3c2bcd04ef80,1,0,114.378334,30.399279,13597669302,cater,http://api.map.baidu.com/place/detail?uid=2947e951221d3c2bcd04ef80&output=html&source=placeapi_v2,72.0,11:00-21:00,3.6,,,,,,,,1,,,,,,,114.37834760691,30.39937029484,0
6cd1bb169fc069591f3894d8,李记家常菜(新华联青年城二期北),美食,中餐厅,湖北省,武汉市,江夏区,武汉市江夏区江夏大道向阳新村还建楼,6cd1bb169fc069591f3894d8,1,0,114.359825,30.376947,15827285657,cater,http://api.map.baidu.com/place/detail?uid=6cd1bb169fc069591f3894d8&output=html&source=placeapi_v2,,,,,,,,,,,,,,,,,,114.35985840174,30.376735614494,0
df2d18c79bb7d12643e1926b,渝都川菜馆(庙山店),美食,中餐厅,湖北省,武汉市,江夏区,湖北省武汉市江夏区邬树街5号,df2d18c79bb7d12643e1926b,1,0,114.377271,30.394639,13554303310,cater,http://api.map.baidu.com/place/detail?uid=df2d18c79bb7d12643e1926b&output=html&source=placeapi_v2,,,3.5,,,,,,,,,,,,,,,114.37730531022,30.394525699959,0
1864356db981765c1e1d11b1,碗儿香小碗蒸菜馆,美食,中餐厅,湖北省,武汉市,江夏区,湖北省武汉市江夏区庙山大道幸福社区,,1,0,114.376391,30.375684,,cater,http://api.map.baidu.com/place/detail?uid=1864356db981765c1e1d11b1&output=html&source=placeapi_v2,,,,,,,,,,,,,,,,,,,,0
0fbae53f607521c3ae31e515,恩施风味酒楼,美食,中餐厅,湖北省,武汉市,江夏区,湖北省武汉市江夏区景湖二路,,1,0,114.348653,30.385861,15072364005,cater,http://api.map.baidu.com/place/detail?uid=0fbae53f607521c3ae31e515&output=html&source=placeapi_v2,,"09:00-14:00,16:00-21:00",3.6,,,,,,,,,,,,,,,114.34867087617,30.385658873091,0
4b69c484c7bf1ea3f503b8d2,阳新菜馆,美食,中餐厅,湖北省,武汉市,江夏区,武汉市江夏区江夏大道向阳新村还建楼,4b69c484c7bf1ea3f503b8d2,1,0,114.359753,30.376931,13277968570,cater,http://api.map.baidu.com/place/detail?uid=4b69c484c7bf1ea3f503b8d2&output=html&source=placeapi_v2,,,,,,,,,,,,,,,,,,114.35969732658,30.376716414367,0
17f2d0e652bf277d3ee2318b,尹厨私房菜,美食,中餐厅,湖北省,武汉市,江夏区,湖北省武汉市江夏区江花大道A345-1号,,1,0,114.359404,30.372733,,cater,http://api.map.baidu.com/place/detail?uid=17f2d0e652bf277d3ee2318b&output=html&source=placeapi_v2,,,3.6,,,,,,,,,,,,,,,,,0
ad08a37971ce93925a3ac8c2,聪聪小碗菜,美食,小吃快餐店,湖北省,武汉市,江夏区,湖北省武汉市江夏区江花大道a345-22号,ad08a37971ce93925a3ac8c2,1,0,114.359681,30.37239,13871576063,cater,http://api.map.baidu.com/place/detail?uid=ad08a37971ce93925a3ac8c2&output=html&source=placeapi_v2,,10:00-21:00,,,,,,,,,,,,,,,,114.35963614838,30.372229524709,0
bd75f83f0b0a857c7bf79600,沙县小吃(邬树街店),美食,小吃快餐店,湖北省,武汉市,江夏区,湖北省武汉市江夏区邬树街9号,bd75f83f0b0a857c7bf79600,1,0,114.376807,30.394616,,cater,http://api.map.baidu.com/place/detail?uid=bd75f83f0b0a857c7bf79600&output=html&source=placeapi_v2,13.0,,,,,,,,,,,,,,,,,,,0
8b962ceea6631398b6147fc9,意哥招牌水煮鱼,美食,中餐厅,湖北省,武汉市,江夏区,湖北省武汉市江夏区阳光二路41号,8b962ceea6631398b6147fc9,1,0,114.376522,30.401779,18271870693,cater,http://api.map.baidu.com/place/detail?uid=8b962ceea6631398b6147fc9&output=html&source=placeapi_v2,,10:00-22:00,3.5,,,,,,,,0,,,,,,,114.37652445366,30.401828637099,0
22366b06f6de79f6b1077da1,程杨香肉馆,美食,中餐厅,湖北省,武汉市,江夏区,武汉市江夏区阳光大道,,1,0,114.354034,30.378897,13006129650,cater,http://api.map.baidu.com/place/detail?uid=22366b06f6de79f6b1077da1&output=html&source=placeapi_v2,,09:00-21:00,,,,,,,,,,,,,,,,114.35402308011,30.379048506995,0
c2769095b5ed7497f03cba14,兰州牛肉拉面,美食,小吃快餐店,湖北省,武汉市,江夏区,武汉市江夏区邬树街庙山开发区邬树村委会,c2769095b5ed7497f03cba14,1,0,114.377601,30.394658,,cater,http://api.map.baidu.com/place/detail?uid=c2769095b5ed7497f03cba14&output=html&source=placeapi_v2,,,,,,,,,,,,,,,,,,,,0
1b87d371b30367f0130daaa0,大牛匠心特色牛肉粉面馆(青年城店),美食,小吃快餐店,湖北省,武汉市,江夏区,江夏区江花大道江南花山郡,1b87d371b30367f0130daaa0,1,0,114.358569,30.372988,18717187488,cater,http://api.map.baidu.com/place/detail?uid=1b87d371b30367f0130daaa0&output=html&source=placeapi_v2,,04:30-12:00,3.6,,,,,,,,,,,,,,,114.35866430758,30.372902115229,0
f4c3228180ca83a08d1a8921,小四川农家菜,美食,中餐厅,湖北省,武汉市,江夏区,湖北省武汉市江夏区邬树街13号,f4c3228180ca83a08d1a8921,1,0,114.376515,30.394616,18593119668,cater,http://api.map.baidu.com/place/detail?uid=f4c3228180ca83a08d1a8921&output=html&source=placeapi_v2,,11:00-22:00,3.6,,,,,,,,,,,,,,,114.37651227084,30.394541154394,0
996ee4c96e3e40cfc4f50d09,川滋味(邬树街店),美食,中餐厅,湖北省,武汉市,江夏区,湖北省武汉市江夏区邬树街6号,996ee4c96e3e40cfc4f50d09,1,0,114.377207,30.394634,18580003949,cater,http://api.map.baidu.com/place/detail?uid=996ee4c96e3e40cfc4f50d09&output=html&source=placeapi_v2,,"10:00-14:00,17:00-22:00",3.5,,,,,,,,,,,,,,,114.3772029483,30.394520721576,0
5f070cf19d7d0cdffbdc851c,尊宝比萨(美加分校店),美食,小吃快餐店,湖北省,武汉市,江夏区,湖北省武汉市江夏区江夏大道庙山办事处美加湖滨新城二期二组团1幢1层1号S21-5号,5f070cf19d7d0cdffbdc851c,1,0,114.379209,30.398876,(027)87018897,cater,http://api.map.baidu.com/place/detail?uid=5f070cf19d7d0cdffbdc851c&output=html&source=placeapi_v2,30.0,09:00-22:00,4.0,,,,,,,,0,,,,,,,114.37903547627,30.398889311267,0
fdf16f168073be672d47331e,楚王面(江花大道店),美食,小吃快餐店,湖北省,武汉市,江夏区,庙山街道江夏区经济开发区庙山办事处庙山开发区新华联青年城小区A345-23号门面,fdf16f168073be672d47331e,1,0,114.359654,30.372464,,cater,http://api.map.baidu.com/place/detail?uid=fdf16f168073be672d47331e&output=html&source=placeapi_v2,,,3.5,,,,,,,,1,,,,,,,114.35966049425,30.372230665407,0
737ce98166283c81ca291587,泰丰年牛肉面,美食,小吃快餐店,湖北省,武汉市,江夏区,湖北省武汉市江夏区X010辅路庙山乌树村3栋,,1,0,114.377904,30.395906,15387106919,cater,http://api.map.baidu.com/place/detail?uid=737ce98166283c81ca291587&output=html&source=placeapi_v2,,04:00-14:00,3.7,,,,,,,,2,,,,,,,,,0
1b90c430083fa915c9c3dbd9,土家风味菜馆,美食,中餐厅,湖北省,武汉市,江夏区,湖北省武汉市江夏区阳光二路19号,1b90c430083fa915c9c3dbd9,1,0,114.377547,30.401748,18907260096,cater,http://api.map.baidu.com/place/detail?uid=1b90c430083fa915c9c3dbd9&output=html&source=placeapi_v2,,10:00-21:00,,,,,,,,,,,,,,,,114.37751575984,30.40179694133,0
36db1e5fce3426e14c6d4644,东北饺子馆(天玺湾店),美食,小吃快餐店,湖北省,武汉市,江夏区,湖北省武汉市江夏区庙山开发区碧桂园天玺湾十幢五号商铺,,1,0,114.384771,30.388988,15140805998,cater,http://api.map.baidu.com/place/detail?uid=36db1e5fce3426e14c6d4644&output=html&source=placeapi_v2,,11:10-22:00,3.6,,,,,,,,2,,,,,,,,,0
51fd9d8eb56b1876c26c14ad,懂食汇,美食,中餐厅,湖北省,武汉市,江夏区,湖北省武汉市江夏区庙山大道8号,,1,0,114.377745,30.374389,18086028988,cater,http://api.map.baidu.com/place/detail?uid=51fd9d8eb56b1876c26c14ad&output=html&source=placeapi_v2,,09:30-21:00,,,,,,,,,1,,,,,,,,,0
86cca14f7156b52f2cb96d48,常青麦香园(创谷大道店),美食,小吃快餐店,湖北省,武汉市,江夏区,庙山产业园阳光大道富丽金澜湾13栋1层25号门面,86cca14f7156b52f2cb96d48,1,0,114.34914,30.389683,15071200652,cater,http://api.map.baidu.com/place/detail?uid=86cca14f7156b52f2cb96d48&output=html&source=placeapi_v2,,,3.5,,,,,,,,,,,,,,,114.34901939715,30.38948906551,0
406ef13deb1a5959a1a93411,天养坊养生食材,美食,中餐厅,湖北省,武汉市,江夏区,湖北省武汉市江夏区庙山开发区幸福社区天养坊养生食材,,1,0,114.377189,30.374781,18086100008,cater,http://api.map.baidu.com/place/detail?uid=406ef13deb1a5959a1a93411&output=html&source=placeapi_v2,,,,,,,,,,,,,,,,,,,,0
590daa8afeeef3203a13fd8c,特色鱼庄(金澜湾店),美食,中餐厅,湖北省,武汉市,江夏区,武汉市江夏区创谷大道富丽金澜湾,,1,0,114.348591,30.389961,13723703891,cater,http://api.map.baidu.com/place/detail?uid=590daa8afeeef3203a13fd8c&output=html&source=placeapi_v2,,,,,,,,,,,,,,,,,,114.34845971239,30.389748962434,0
dd732c2c9ef86dd9fadc8518,起义热干面(花山郡店),美食,小吃快餐店,湖北省,武汉市,江夏区,湖北省武汉市江夏区X003(江夏大道),,1,0,114.35736,30.374226,,cater,http://api.map.baidu.com/place/detail?uid=dd732c2c9ef86dd9fadc8518&output=html&source=placeapi_v2,,,,,,,,,,,,,,,,,,114.35725645444,30.374289624423,0
631440a86025d8f50782c239,常青麦香园(新华联青年城店),美食,小吃快餐店,湖北省,武汉市,江夏区,武汉市江夏区江花大道新华联青年城底商,,1,0,114.359892,30.372066,17702766675,cater,http://api.map.baidu.com/place/detail?uid=631440a86025d8f50782c239&output=html&source=placeapi_v2,,05:30-14:00,3.7,,,,,,,,0,,,,,,,114.35986318881,30.372152987004,0
46744f9441782b3988fc0646,家常菜馆,美食,中餐厅,湖北省,武汉市,江夏区,湖北省武汉市江夏区兴新街新兴街学府路53号,,1,0,114.359437,30.3718,,cater,http://api.map.baidu.com/place/detail?uid=46744f9441782b3988fc0646&output=html&source=placeapi_v2,,,,,,,,,,,,,,,,,,,,0
d54ebed5d4057836a3acc47d,常青麦香园(天玺湾店),美食,小吃快餐店,湖北省,武汉市,江夏区,湖北省武汉市江夏区碧桂园天玺湾11栋1层1号商铺,,1,0,114.385487,30.388921,,cater,http://api.map.baidu.com/place/detail?uid=d54ebed5d4057836a3acc47d&output=html&source=placeapi_v2,,06:30-14:00,,,,,,,,,1,,,,,,,114.38521932427,30.388952350921,0
59e5e869318d9aedb21e3671,铁板烤鸭,美食,中餐厅,湖北省,武汉市,江夏区,湖北武汉市江夏区阳光二路9号,,1,0,114.377945,30.401733,18672304918,cater,http://api.map.baidu.com/place/detail?uid=59e5e869318d9aedb21e3671&output=html&source=placeapi_v2,,,,,,,,,,,,,,,,,,,,0
d1b28ab7491ae0170aa8d43b,东北饺子馆,美食,小吃快餐店,湖北省,武汉市,江夏区,湖北省武汉市江夏区阳光四路富丽金澜湾13-2号,,1,0,114.348419,30.390054,13050618185,cater,http://api.map.baidu.com/place/detail?uid=d1b28ab7491ae0170aa8d43b&output=html&source=placeapi_v2,,09:00-22:00,3.5,,,,,,,,,,,,,,,114.34828151194,30.389831647549,0
aff0941bdfb0042a465726ee,王文黄焖鸡米饭,美食,小吃快餐店,湖北省,武汉市,江夏区,湖北省武汉市江夏区阳光二路49号,aff0941bdfb0042a465726ee,1,0,114.376191,30.401752,13237157153,cater,http://api.map.baidu.com/place/detail?uid=aff0941bdfb0042a465726ee&output=html&source=placeapi_v2,,09:30-24:00,,,,,,,,,,,,,,,,114.37619438567,30.401838551062,0
ef2afe2ec3c69c8fbadf8fcd,湘味牛肉米粉馆,美食,小吃快餐店,湖北省,武汉市,江夏区,武汉市江夏区庙山大道幸福社区,,1,0,114.377763,30.374954,,cater,http://api.map.baidu.com/place/detail?uid=ef2afe2ec3c69c8fbadf8fcd&output=html&source=placeapi_v2,,,,,,,,,,,,,,,,,,,,0
808912d472781c50100daa53,沙县小吃(武汉第013店),美食,小吃快餐店,湖北省,武汉市,江夏区,武汉市江夏区金龙大街中锐滨湖尚城南侧,,1,0,114.347939,30.386234,,cater,http://api.map.baidu.com/place/detail?uid=808912d472781c50100daa53&output=html&source=placeapi_v2,,,,,,,,,,,,,,,,,,114.3477652315,30.386088988319,0
3b663adcd0f02bae43ab9afd,刘记肥肠粉面馆,美食,小吃快餐店,湖北省,武汉市,江夏区,庙山大道幸福社区旁,3b663adcd0f02bae43ab9afd,1,0,114.377765,30.375002,15926273748,cater,http://api.map.baidu.com/place/detail?uid=3b663adcd0f02bae43ab9afd&output=html&source=placeapi_v2,,"04:00-14:00,17:00-22:00",,,,,,,,,,,,,,,,114.37786699999,30.375043982591,0
ff03a10685e3eb679c09f798,牛肉粉面家常小炒,美食,小吃快餐店,湖北省,武汉市,江夏区,武汉市江夏区庙山大道幸福社区,ff03a10685e3eb679c09f798,1,0,114.377772,30.375252,15927090378,cater,http://api.map.baidu.com/place/detail?uid=ff03a10685e3eb679c09f798&output=html&source=placeapi_v2,,04:30-23:55,,,,,,,,,,,,,,,,114.37786706108,30.375260560631,0
76e61f8ef275dcca85420ee7,千百回炸酱面馆,美食,小吃快餐店,湖北省,武汉市,江夏区,武汉市江夏区庙山大道幸福社区,76e61f8ef275dcca85420ee7,1,0,114.377786,30.374762,,cater,http://api.map.baidu.com/place/detail?uid=76e61f8ef275dcca85420ee7&output=html&source=placeapi_v2,,,,,,,,,,,,,,,,,,114.37785746538,30.374760866553,0
606ff9146367e8008bdb73c5,沙县小吃,美食,小吃快餐店,湖北省,武汉市,江夏区,武汉市江夏区明泽街碧桂园天玺湾,,1,0,114.385303,30.388883,,cater,http://api.map.baidu.com/place/detail?uid=606ff9146367e8008bdb73c5&output=html&source=placeapi_v2,,,,,,,,,,,,,,,,,,114.38518693227,30.388915090639,0
8584f3f5f48ba6d72a02e103,韩记牛肉粉面,美食,小吃快餐店,湖北省,武汉市,江夏区,武汉市江夏区江夏大道34号,8584f3f5f48ba6d72a02e103,1,0,114.378392,30.40108,,cater,http://api.map.baidu.com/place/detail?uid=8584f3f5f48ba6d72a02e103&output=html&source=placeapi_v2,,,,,,,,,,,,,,,,,,,,0
0b9292603691c452fb2213c0,友洲又味私房菜,美食,中餐厅,湖北省,武汉市,江夏区,湖北省武汉市江夏区中州大道43号,,1,0,114.408706,30.387286,,cater,http://api.map.baidu.com/place/detail?uid=0b9292603691c452fb2213c0&output=html&source=placeapi_v2,,"09:00-14:00,16:30-21:00",,,,,,,,,,,,,,,,,,0
ac3c622e21b21733c7f02523,中州府生态园餐厅,美食,中餐厅,湖北省,武汉市,江夏区,湖北省武汉市江夏区明泽街2号,ac3c622e21b21733c7f02523,1,0,114.394605,30.382367,"(027)81800398,13407176726",cater,http://api.map.baidu.com/place/detail?uid=ac3c622e21b21733c7f02523&output=html&source=placeapi_v2,128.0,"10:00-14:00,16:00-21:00",4.0,,,,,,,,115,,,,,,,114.39471482314,30.382301590177,0
5443ba298a2ae822bda240c2,忘不了餐厅,美食,中餐厅,湖北省,武汉市,江夏区,湖北省武汉市江夏区中洲大道175号,5443ba298a2ae822bda240c2,1,0,114.410013,30.378041,13628680413,cater,http://api.map.baidu.com/place/detail?uid=5443ba298a2ae822bda240c2&output=html&source=placeapi_v2,48.0,09:00-22:30,,,,,,,,,,,,,,,,,,0
00686dc344fe8ea1fe0eb060,中餐厅,美食,中餐厅,湖北省,武汉市,江夏区,武汉市江夏区中洲路,,1,0,114.409688,30.375638,15392823527,cater,http://api.map.baidu.com/place/detail?uid=00686dc344fe8ea1fe0eb060&output=html&source=placeapi_v2,,,,,,,,,,,,,,,,,,,,0
2c616b97992316d0c9e33c8b,川湘阁(中州店),美食,中餐厅,湖北省,武汉市,江夏区,湖北省武汉市江夏区藏龙岛中洲路湖北水利水电职业技术学院(脊骨路)18附90号,2c616b97992316d0c9e33c8b,1,0,114.409705,30.375921,13329731977,cater,http://api.map.baidu.com/place/detail?uid=2c616b97992316d0c9e33c8b&output=html&source=placeapi_v2,47.0,11:00-22:30,4.4,,,,,,,,11,,,,,,,114.40958944996,30.375901759211,0
6dffe0eb80a1e9d3ca09f071,川味家常小炒,美食,中餐厅,湖北省,武汉市,江夏区,江夏区经济开发区藏龙岛街道江夏区经济开发区藏龙岛街道中洲大道188号附70号,6dffe0eb80a1e9d3ca09f071,1,0,114.409807,30.376612,18271833565,cater,http://api.map.baidu.com/place/detail?uid=6dffe0eb80a1e9d3ca09f071&output=html&source=placeapi_v2,,,,,,,,,,,,,,,,,,,,0
df9d7bd3258649db3f9a5ece,公安牛肉鱼杂(中州水利水电学院店),美食,中餐厅,湖北省,武汉市,江夏区,湖北省武汉市江夏区中洲大道1号,df9d7bd3258649db3f9a5ece,1,0,114.409653,30.375292,15207112368,cater,http://api.map.baidu.com/place/detail?uid=df9d7bd3258649db3f9a5ece&output=html&source=placeapi_v2,60.0,,,,,,,,,,,,,,,,,,,0
3152d2e25acef4eff13cba8b,渝和麻麻鱼府(武昌职业学院店),美食,中餐厅,湖北省,武汉市,江夏区,湖北省武汉市江夏区中洲大道武昌职业学院东门南行30米,,1,0,114.409711,30.375009,(027)81717876,cater,http://api.map.baidu.com/place/detail?uid=3152d2e25acef4eff13cba8b&output=html&source=placeapi_v2,,09:30-22:00,3.6,,,,,,,,0,,,,,,,,,0
24aa3166e31c12d7c7effb11,正宗兰州牛肉拉面,美食,小吃快餐店,湖北省,武汉市,江夏区,爱情公寓(美院店)西南100米,24aa3166e31c12d7c7effb11,1,0,114.426424,30.394707,13207117691,cater,http://api.map.baidu.com/place/detail?uid=24aa3166e31c12d7c7effb11&output=html&source=placeapi_v2,12.0,,3.5,,,,,,,,0,,,,,,,114.42631347223,30.394613785903,0
7e4640b71e8854daed74f8b0,哈尔滨饺子馆(瑞和华府北区西南),美食,小吃快餐店,湖北省,武汉市,江夏区,湖北省武汉市江夏区藏龙岛栗庙新村住楼5栋9号,7e4640b71e8854daed74f8b0,1,0,114.426042,30.395401,13720139955,cater,http://api.map.baidu.com/place/detail?uid=7e4640b71e8854daed74f8b0&output=html&source=placeapi_v2,21.0,10:00-21:00,3.6,,,,,,,,,,,,,,,,,0
afdbbc80ecc7fc57e215f91b,好滋味自助快餐(美院店),美食,小吃快餐店,湖北省,武汉市,江夏区,湖北省武汉市江夏区经济开发区藏龙岛街道栗庙一路栗庙新村小吃街(湖北美术学院对面门面16~17号),afdbbc80ecc7fc57e215f91b,1,0,114.425888,30.39521,18571769601,cater,http://api.map.baidu.com/place/detail?uid=afdbbc80ecc7fc57e215f91b&output=html&source=placeapi_v2,19.0,10:00-21:30,,,,,,,,,,,,,,,,114.42577645711,30.395301738995,0
837eae6a1c2bd5d403ff2d2c,祥客基鲍汁肥牛鸡湖北美术学院店,美食,中餐厅,湖北省,武汉市,江夏区,湖北省武汉市江夏区栗庙新村566号,837eae6a1c2bd5d403ff2d2c,1,0,114.426364,30.394723,18164036178,cater,http://api.map.baidu.com/place/detail?uid=837eae6a1c2bd5d403ff2d2c&output=html&source=placeapi_v2,,10:00-22:00,3.5,,,,,,,,,,,,,,,,,0
4cf00f89ee93fc2c6240a9f2,文记热干面,美食,小吃快餐店,湖北省,武汉市,江夏区,湖北省武汉市江夏区栗庙路6号,4cf00f89ee93fc2c6240a9f2,1,0,114.426039,30.395348,15907192306,cater,http://api.map.baidu.com/place/detail?uid=4cf00f89ee93fc2c6240a9f2&output=html&source=placeapi_v2,,06:00-18:30,3.5,,,,,,,,,,,,,,,,,0
b1c734a4f0c6016663180964,忆家小碗菜,美食,中餐厅,湖北省,武汉市,江夏区,藏龙岛栗庙路6号,,1,0,114.42627,30.394486,,cater,http://api.map.baidu.com/place/detail?uid=b1c734a4f0c6016663180964&output=html&source=placeapi_v2,,,,,,,,,,,,,,,,,,,,0
9091b5f46f0bd042be48423d,千浇百味,美食,中餐厅,湖北省,武汉市,江夏区,湖北省武汉市江夏区藏龙岛栗庙新村3号,9091b5f46f0bd042be48423d,1,0,114.425885,30.395237,15717106933,cater,http://api.map.baidu.com/place/detail?uid=9091b5f46f0bd042be48423d&output=html&source=placeapi_v2,13.0,09:00-21:00,3.6,,,,,,,,0,,,,,,,,,0
fd28f9a8676b05bace04efd1,喵二丫炸鸡汉堡,美食,小吃快餐店,湖北省,武汉市,江夏区,湖北省武汉市江夏区粟庙路6号湖北美术学院2楼,,1,0,114.426615,30.394811,,cater,http://api.map.baidu.com/place/detail?uid=fd28f9a8676b05bace04efd1&output=html&source=placeapi_v2,,,,,,,,,,,,,,,,,,,,0
634856eb03ff9f2f4afc8dcb,全家福特色腰花面馆,美食,小吃快餐店,湖北省,武汉市,江夏区,江夏区栗庙南路栗庙新村,,1,0,114.426098,30.395378,13163363935,cater,http://api.map.baidu.com/place/detail?uid=634856eb03ff9f2f4afc8dcb&output=html&source=placeapi_v2,,,3.7,,,,,,,,,,,,,,,,,0
c272740ece32025ec6effbda,派乐汉堡(中洲路店),美食,小吃快餐店,湖北省,武汉市,江夏区,湖北省武汉市江夏区中州大道98号湖北水利水电职业技术学院西区,c272740ece32025ec6effbda,1,0,114.409425,30.374555,18625553879,cater,http://api.map.baidu.com/place/detail?uid=c272740ece32025ec6effbda&output=html&source=placeapi_v2,,10:00-22:00,3.5,,,,,,,,,,,,,,,114.4093741926,30.374559947545,0
642b2ed39396040233169b55,黄鲜生花甲粉,美食,小吃快餐店,湖北省,武汉市,江夏区,江夏区栗庙新村D009号,,1,0,114.426003,30.395032,15271818349,cater,http://api.map.baidu.com/place/detail?uid=642b2ed39396040233169b55&output=html&source=placeapi_v2,,11:00-23:00,3.5,,,,,,,,0,,,,,,,,,0
d9c67cce6f1abfc2ab059d7d,武汉热干面(湖美食堂店),美食,小吃快餐店,湖北省,武汉市,江夏区,湖北省武汉市江夏区环岛路718号,,1,0,114.425272,30.395585,15926229653,cater,http://api.map.baidu.com/place/detail?uid=d9c67cce6f1abfc2ab059d7d&output=html&source=placeapi_v2,,08:00-20:00,,,,,,,,,,,,,,,,,,0
1d2932d30a5d444b1c389477,秋小香螺蛳粉,美食,小吃快餐店,湖北省,武汉市,江夏区,栗庙南路紫微星网咖旁,1d2932d30a5d444b1c389477,1,0,114.42621,30.394546,,cater,http://api.map.baidu.com/place/detail?uid=1d2932d30a5d444b1c389477&output=html&source=placeapi_v2,,07:00-23:00,,,,,,,,,,,,,,,,,,0
94db34f1e90eb278e812e40c,印象重庆小面(武汉美院店),美食,小吃快餐店,湖北省,武汉市,江夏区,湖北省武汉市江夏区159~160号凤凰花园一期F085,94db34f1e90eb278e812e40c,1,0,114.426004,30.395261,13308666877,cater,http://api.map.baidu.com/place/detail?uid=94db34f1e90eb278e812e40c&output=html&source=placeapi_v2,14.0,06:00-23:00,3.6,,,,,,,,,,,,,,,114.42613046404,30.395214953753,0
2cf4bfb47ff6ab5fcafa5fba,老爹韩国炸鸡,美食,外国餐厅,湖北省,武汉市,江夏区,环岛路藏龙岛栗庙社区C182号,,1,0,114.430975,30.393443,,cater,http://api.map.baidu.com/place/detail?uid=2cf4bfb47ff6ab5fcafa5fba&output=html&source=placeapi_v2,,10:00-24:00,4.5,,,,,,,,2,,,,,,,,,0
23dbe5be214f9ae50bf5ebfe,常相聚餐厅(环岛路店),美食,中餐厅,湖北省,武汉市,江夏区,武汉市江夏区城市建设职业技术学院斜对面,23dbe5be214f9ae50bf5ebfe,1,0,114.446593,30.404351,15377517810,cater,http://api.map.baidu.com/place/detail?uid=23dbe5be214f9ae50bf5ebfe&output=html&source=placeapi_v2,,,0,,,,,,,,2,,,,,,,114.44655232861,30.404398521731,0
f19c6dd799671652581093c9,东哥早餐店,美食,小吃快餐店,湖北省,武汉市,江夏区,武汉市江夏区鸿发大道滨湖街小太阳幼儿园东北侧,,1,0,114.457329,30.392774,13026130908,cater,http://api.map.baidu.com/place/detail?uid=f19c6dd799671652581093c9&output=html&source=placeapi_v2,,,,,,,,,,,,,,,,,,,,0
3f78f6cc6e5441475a3ac882,热干面馆(环岛南路店),美食,小吃快餐店,湖北省,武汉市,江夏区,环岛路,3f78f6cc6e5441475a3ac882,1,0,114.4384,30.397579,,cater,http://api.map.baidu.com/place/detail?uid=3f78f6cc6e5441475a3ac882&output=html&source=placeapi_v2,,,,,,,,,,,,,,,,,,114.43823897464,30.397680643001,0
56a3b67bb43862034c3a59c3,醉文记鲜鱼庄,美食,中餐厅,湖北省,武汉市,江夏区,江夏区环岛路捷通汽车维修服务中心北30米,56a3b67bb43862034c3a59c3,1,0,114.440516,30.399193,13476025624,cater,http://api.map.baidu.com/place/detail?uid=56a3b67bb43862034c3a59c3&output=html&source=placeapi_v2,,,3.6,,,,,,,,,,,,,,,114.44046268501,30.39923890164,0
f1bd0dbc1b607e81f32d8338,福新餐馆,美食,中餐厅,湖北省,武汉市,江夏区,武汉市江夏区鸿发大道滨湖街小太阳幼儿园北侧约30米,,1,0,114.457221,30.392865,15927694796,cater,http://api.map.baidu.com/place/detail?uid=f1bd0dbc1b607e81f32d8338&output=html&source=placeapi_v2,,,,,,,,,,,,,,,,,,,,0
74280c2b2823f5bf48cc4ad1,火山烤鱼,美食,中餐厅,湖北省,武汉市,江夏区,武汉市江夏区江夏经济开发区藏龙岛街道栗庙新村D023号,74280c2b2823f5bf48cc4ad1,1,0,114.432395,30.392197,13720254707,cater,http://api.map.baidu.com/place/detail?uid=74280c2b2823f5bf48cc4ad1&output=html&source=placeapi_v2,,,4,,,,,,,,1,,,,,,,,,0
ce58b4894454086a1776433e,后街捞饭,美食,中餐厅,湖北省,武汉市,江夏区,武汉市江夏区藏龙大道与环岛路交叉路口往西南约220米,,1,0,114.44696,30.404624,,cater,http://api.map.baidu.com/place/detail?uid=ce58b4894454086a1776433e&output=html&source=placeapi_v2,,,,,,,,,,,,,,,,,,,,0
8069c11a5c4ea3cc9f09f77a,兰州拉面,美食,小吃快餐店,湖北省,武汉市,江夏区,武汉市江夏区环岛路智慧心幼儿园西南侧约130米,8069c11a5c4ea3cc9f09f77a,1,0,114.440323,30.399032,,cater,http://api.map.baidu.com/place/detail?uid=8069c11a5c4ea3cc9f09f77a&output=html&source=placeapi_v2,,,,,,,,,,,,,,,,,,,,0
404b2d40531ed6fa3617dc06,家味饭香,美食,中餐厅,湖北省,武汉市,江夏区,栗庙路5号靠近藏龙博物馆,404b2d40531ed6fa3617dc06,1,0,114.432711,30.397257,15629054621,cater,http://api.map.baidu.com/place/detail?uid=404b2d40531ed6fa3617dc06&output=html&source=placeapi_v2,,10:00-23:00,,,,,,,,,,,,,,,,114.43273980163,30.397232151192,0
d5347bc538c382728605bf92,大文府开心菜馆,美食,中餐厅,湖北省,武汉市,江夏区,武汉市江夏区藏龙岛栗庙新村F079-F080号,d5347bc538c382728605bf92,1,0,114.430434,30.391824,13098807908,cater,http://api.map.baidu.com/place/detail?uid=d5347bc538c382728605bf92&output=html&source=placeapi_v2,77.0,10:00-21:00,5,,,,,,,,1,,,,,,,114.43041826578,30.39170853299,0
d5517ba461c49caaf8221369,胜记菜馆,美食,中餐厅,湖北省,武汉市,江夏区,武汉市江夏区藏龙岛栗庙路瑞和华府14栋1单元1层3号,d5517ba461c49caaf8221369,1,0,114.432867,30.397158,13807254966,cater,http://api.map.baidu.com/place/detail?uid=d5517ba461c49caaf8221369&output=html&source=placeapi_v2,54.0,10:00-22:00,,,,,,,,,,,,,,,,,,0
d370d480d69f4b5f03ec0130,徐记爱情麻辣烫(环岛路店),美食,小吃快餐店,湖北省,武汉市,江夏区,江夏区藏龙岛湖北城市建设职业技术学院南门,d370d480d69f4b5f03ec0130,1,0,114.44668,30.404442,15002778989,cater,http://api.map.baidu.com/place/detail?uid=d370d480d69f4b5f03ec0130&output=html&source=placeapi_v2,,,3.5,,,,,,,,,,,,,,,,,0
cd877a6c9a60d4fcda2f2806,蜀味串串香火锅,美食,中餐厅,湖北省,武汉市,江夏区,武汉市江夏区环岛路,,1,0,114.446137,30.403968,15888294848,cater,http://api.map.baidu.com/place/detail?uid=cd877a6c9a60d4fcda2f2806&output=html&source=placeapi_v2,,,,,,,,,,,,,,,,,,,,0
5f828a89ff93f0cd471a323c,火龙锅,美食,中餐厅,湖北省,武汉市,江夏区,武汉市江夏区藏龙岛环岛路湖北城市职业建设学院南门,5f828a89ff93f0cd471a323c,1,0,114.446197,30.404214,,cater,http://api.map.baidu.com/place/detail?uid=5f828a89ff93f0cd471a323c&output=html&source=placeapi_v2,20.0,,0,,,,,,,,0,,,,,,,,,0
8b61127ba15f719e430245d5,程厨私房菜,美食,中餐厅,湖北省,武汉市,江夏区,武汉市江夏区环岛路栗庙新村,,1,0,114.434666,30.39461,,cater,http://api.map.baidu.com/place/detail?uid=8b61127ba15f719e430245d5&output=html&source=placeapi_v2,,,,,,,,,,,,,,,,,,,,0
2d466ce84a8d9535b6147f1a,常青麦香园(栗庙路店),美食,小吃快餐店,湖北省,武汉市,江夏区,武汉市江夏区栗庙路瑞和华府南区底商,2d466ce84a8d9535b6147f1a,1,0,114.432765,30.397066,13997896337,cater,http://api.map.baidu.com/place/detail?uid=2d466ce84a8d9535b6147f1a&output=html&source=placeapi_v2,,00:00-24:00,3.8,,,,,,,,0,,,,,,,114.43269131199,30.397104306663,0
b2857063c0838174715e8004,戴锦记鲍汁肥牛鸡(栗庙店),美食,小吃快餐店,湖北省,武汉市,江夏区,湖北武汉市江夏区藏龙岛瑞和华府A地块14幢1层8号,b2857063c0838174715e8004,1,0,114.432737,30.397044,18062758586,cater,http://api.map.baidu.com/place/detail?uid=b2857063c0838174715e8004&output=html&source=placeapi_v2,22.0,10:00-21:00,3.7,,,,,,,1,0,,,,,,,,,0
eeab53be836608a007fef5f4,一品大虾(环岛路店),美食,中餐厅,湖北省,武汉市,江夏区,武汉市江夏区环岛路栗庙新村,,1,0,114.432485,30.395132,15871163637,cater,http://api.map.baidu.com/place/detail?uid=eeab53be836608a007fef5f4&output=html&source=placeapi_v2,,09:00-21:30,,,,,,,,,,,,,,,,,,0
3b231d448f9c469228b97c9a,聚福轩美食城,美食,中餐厅,湖北省,武汉市,江夏区,武汉市江夏区环岛路,3b231d448f9c469228b97c9a,1,0,114.443752,30.401872,,cater,http://api.map.baidu.com/place/detail?uid=3b231d448f9c469228b97c9a&output=html&source=placeapi_v2,,,,,,,,,,,,,,,,,,,,0
84f36e3dfe69d873c909f0f7,五谷渔粉(藏龙岛栗庙新村店),美食,小吃快餐店,湖北省,武汉市,江夏区,藏龙岛栗庙新村,84f36e3dfe69d873c909f0f7,1,0,114.432618,30.396929,4008581968,cater,http://api.map.baidu.com/place/detail?uid=84f36e3dfe69d873c909f0f7&output=html&source=placeapi_v2,13.0,"10:00-14:30,16:00-20:00",0,,,,,,,,0,,,,,,,114.43255289659,30.3969861773,0
046a56bfaa0fab4540024565,嘿哟哟农家菜,美食,中餐厅,湖北省,武汉市,江夏区,武汉市江夏区环岛路智慧心幼儿园西南侧,,1,0,114.441045,30.399625,,cater,http://api.map.baidu.com/place/detail?uid=046a56bfaa0fab4540024565&output=html&source=placeapi_v2,,,,,,,,,,,,,,,,,,,,0
5954236300343a2fbd4842e2,派乐汉堡(城建店),美食,小吃快餐店,湖北省,武汉市,江夏区,湖北省武汉市江夏区商业街43号,5954236300343a2fbd4842e2,1,0,114.44663,30.404385,18571551063,cater,http://api.map.baidu.com/place/detail?uid=5954236300343a2fbd4842e2&output=html&source=placeapi_v2,16.0,00:00-10:00,3.5,,,,,,,,,,,,,,,,,0
1b3f21d35aa3037e17c8f6ee,东北饺子馆(瑞和华府店),美食,小吃快餐店,湖北省,武汉市,江夏区,武汉市江夏区藏龙岛瑞和华府14幢1层10号,1b3f21d35aa3037e17c8f6ee,1,0,114.432691,30.396999,13377881836,cater,http://api.map.baidu.com/place/detail?uid=1b3f21d35aa3037e17c8f6ee&output=html&source=placeapi_v2,,10:00-23:00,3.5,,,,,,,,0,,,,,,,,,0
16f5a2deec89f8d84f6d469c,美食美客,美食,小吃快餐店,湖北省,武汉市,江夏区,武汉市江夏区藏龙岛栗庙新村F193号,16f5a2deec89f8d84f6d469c,1,0,114.430722,30.393419,13971193513,cater,http://api.map.baidu.com/place/detail?uid=16f5a2deec89f8d84f6d469c&output=html&source=placeapi_v2,,10:00-21:00,,,,,,,,,,,,,,,,,,0
d590bba0d322541ccb213d4d,百姓晓吃(栗庙店),美食,小吃快餐店,湖北省,武汉市,江夏区,湖北省武汉市江夏区环岛路8附65号,d590bba0d322541ccb213d4d,1,0,114.445705,30.403601,(027)87999969,cater,http://api.map.baidu.com/place/detail?uid=d590bba0d322541ccb213d4d&output=html&source=placeapi_v2,,"09:00-14:00,16:30-21:30",3.6,,,,,,,,0,,,,,,,,,0
862871289c95d0dda6da39e8,大海卤菜馆,美食,中餐厅,湖北省,武汉市,江夏区,湖北省武汉市江夏区藏龙岛栗庙新村F228号,,1,0,114.431954,30.393782,15931698725,cater,http://api.map.baidu.com/place/detail?uid=862871289c95d0dda6da39e8&output=html&source=placeapi_v2,,,,,,,,,,,,,,,,,,,,0
b99898844a1b2651f33cbad8,牛杂萝卜面(栗庙店),美食,小吃快餐店,湖北省,武汉市,江夏区,武汉市江夏区藏龙岛栗庙村瑞和华府A地块14幢1层15号,b99898844a1b2651f33cbad8,1,0,114.432548,30.396886,18755820229,cater,http://api.map.baidu.com/place/detail?uid=b99898844a1b2651f33cbad8&output=html&source=placeapi_v2,,10:00-20:00,3.6,,,,,,,,,,,,,,,,,0
83d6cc803869aa5cd92f28a5,渔巴客烤鱼饭,美食,中餐厅,湖北省,武汉市,江夏区,湖北省武汉市江夏区环岛路栗庙新村c区114号,,1,0,114.431884,30.394169,15557857087,cater,http://api.map.baidu.com/place/detail?uid=83d6cc803869aa5cd92f28a5&output=html&source=placeapi_v2,,09:30-22:00,,,,,,,,,,,,,,,,,,0
573ded2b7307e7248bf15d24,鸡爷黄焖鸡米饭馆,美食,小吃快餐店,湖北省,武汉市,江夏区,湖北省武汉市江夏区藏龙岛栗庙新村d006号鸡爷黄焖鸡米饭馆,573ded2b7307e7248bf15d24,1,0,114.441292,30.399836,,cater,http://api.map.baidu.com/place/detail?uid=573ded2b7307e7248bf15d24&output=html&source=placeapi_v2,,,,,,,,,,,,,,,,,,,,0
0f71fc73c7c3bfee31621282,如意馄饨(栗庙店),美食,小吃快餐店,湖北省,武汉市,江夏区,湖北省武汉市江夏区栗庙路11-410号瑞和华府a地块14栋111号,0f71fc73c7c3bfee31621282,1,0,114.432661,30.39697,18694076817,cater,http://api.map.baidu.com/place/detail?uid=0f71fc73c7c3bfee31621282&output=html&source=placeapi_v2,14.0,"08:30-14:00,16:00-22:00",3.6,,,,,,,,,,,,,,,114.43259883773,30.397025363443,0
994ea9a742629983932ca3e6,明星食尚麻辣烫,美食,小吃快餐店,湖北省,武汉市,江夏区,湖北省武汉市江夏区藏龙岛栗庙新村瑞和华府14栋1单元1层17号,,1,0,114.43249,30.396816,"15070433040,15070472874",cater,http://api.map.baidu.com/place/detail?uid=994ea9a742629983932ca3e6&output=html&source=placeapi_v2,,10:30-00:00,3.4,,,,,,,,,,,,,,,114.43242712933,30.396888865441,0
a70fae3c9504264c09ccdd13,蔡甸特色牛肉面馆,美食,小吃快餐店,湖北省,武汉市,江夏区,湖北省武汉市江夏区腾龙大道栗庙新村938号,a70fae3c9504264c09ccdd13,1,0,114.432825,30.396163,13986011340,cater,http://api.map.baidu.com/place/detail?uid=a70fae3c9504264c09ccdd13&output=html&source=placeapi_v2,,,,,,,,,,,,,,,,,,114.43275698621,30.396143118496,0
6fde23ef0fafdc106b49f369,胖公子台味卤肉饭,美食,小吃快餐店,湖北省,武汉市,江夏区,藏龙岛栗庙社区404号(爱家超市旁),,1,0,114.432425,30.394594,,cater,http://api.map.baidu.com/place/detail?uid=6fde23ef0fafdc106b49f369&output=html&source=placeapi_v2,,,,,,,,,,,,,,,,,,,,0
4d01389e6cbcd0b04002458d,梅干菜扣肉饼(城建店),美食,小吃快餐店,湖北省,武汉市,江夏区,湖北省武汉市江夏区环岛路38号,4d01389e6cbcd0b04002458d,1,0,114.446773,30.404474,13554231005,cater,http://api.map.baidu.com/place/detail?uid=4d01389e6cbcd0b04002458d&output=html&source=placeapi_v2,19.0,10:00-23:00,3.7,,,,,,,,,,,,,,,,,0
2c7007d3fff6b465d5b74eb6,味鼎鸡瓦香鸡米饭(湖美分店),美食,小吃快餐店,湖北省,武汉市,江夏区,江夏区藏龙岛瑞和华府A地块第13幢1层7号,,1,0,114.432481,30.397066,13006140076,cater,http://api.map.baidu.com/place/detail?uid=2c7007d3fff6b465d5b74eb6&output=html&source=placeapi_v2,,10:00-22:00,,,,,,,,,,,,,,,,,,0
ed6b6f56411a170e42d63ef6,黄蜀郎鸡公煲(瑞和华府店),美食,小吃快餐店,湖北省,武汉市,江夏区,湖北省武汉市江夏区栗庙路9号,ed6b6f56411a170e42d63ef6,1,0,114.432787,30.397095,15207180298,cater,http://api.map.baidu.com/place/detail?uid=ed6b6f56411a170e42d63ef6&output=html&source=placeapi_v2,27.0,08:00-23:00,3.7,,,,,,,,0,,,,,,,114.43272379562,30.397132265728,0
b534be1ccb3cc7cc4e776e25,秋香驿站,美食,,湖北省,武汉市,江夏区,湖北省武汉市江夏区环岛路56~57号,b534be1ccb3cc7cc4e776e25,1,0,114.446066,30.403911,18086069688,cater,http://api.map.baidu.com/place/detail?uid=b534be1ccb3cc7cc4e776e25&output=html&source=placeapi_v2,,,,,,,,,,,,,,,,,,,,0
00217488b7ea428a5e17c3ae,天海石磨肠粉,美食,小吃快餐店,湖北省,武汉市,江夏区,武汉市江夏区藏龙岛栗庙新村C009号,00217488b7ea428a5e17c3ae,1,0,114.431904,30.39439,17507116186,cater,http://api.map.baidu.com/place/detail?uid=00217488b7ea428a5e17c3ae&output=html&source=placeapi_v2,,,,,,,,,,,,,,,,,,,,0
6ad5cf0989ebf07b75e5b63f,小田园鱼丸店(凤莲线店),美食,中餐厅,湖北省,武汉市,江夏区,武汉市江夏区凤莲线葫拉儿童运动中心龙泉山户外基地,,1,0,114.498698,30.402955,18802736697,cater,http://api.map.baidu.com/place/detail?uid=6ad5cf0989ebf07b75e5b63f&output=html&source=placeapi_v2,,,,,,,,,,,,,,,,,,,,0
964108954295c64f9d95debf,水煮才鱼餐厅,美食,中餐厅,湖北省,武汉市,蔡甸区,湖北省武汉市蔡甸区经济技术开发区军山街黄陵幸福小区前排门面,964108954295c64f9d95debf,1,0,114.088091,30.417444,15927297621,cater,http://api.map.baidu.com/place/detail?uid=964108954295c64f9d95debf&output=html&source=placeapi_v2,,,,,,,,,,,,,,,,,,,,0
8e187ee3e19c151626d2bb47,禄福缘餐厅,美食,中餐厅,湖北省,武汉市,蔡甸区,常欢大道与056县道交叉口北200米,8e187ee3e19c151626d2bb47,1,0,114.066759,30.430099,18120409087,cater,http://api.map.baidu.com/place/detail?uid=8e187ee3e19c151626d2bb47&output=html&source=placeapi_v2,,,,,,,,,,,,,,,,,,114.06648313274,30.430244974329,0
864eb2cb16eaf9e70b69d932,古镇坊私房菜馆,美食,中餐厅,湖北省,武汉市,蔡甸区,湖北省武汉市蔡甸区黄陵大道111号,864eb2cb16eaf9e70b69d932,1,0,114.086887,30.416634,"(027)84973198,13590344377",cater,http://api.map.baidu.com/place/detail?uid=864eb2cb16eaf9e70b69d932&output=html&source=placeapi_v2,,10:00-22:00,0,,,,,,,,2,,,,,,,,,0
1a35670bc3d55588841541ea,顺心苑餐厅,美食,中餐厅,湖北省,武汉市,蔡甸区,武汉市蔡甸区灵凤路黄陵社区-二期,,1,0,114.079036,30.409496,,cater,http://api.map.baidu.com/place/detail?uid=1a35670bc3d55588841541ea&output=html&source=placeapi_v2,,09:00-21:00,,,,,,,,,,,,,,,,114.07912962054,30.40934339927,0
8c0546e8b1954cd85a109349,欢欢食府,美食,中餐厅,湖北省,武汉市,蔡甸区,武汉市蔡甸区黄陵大道军山科技产业园F栋商铺F108-109号,8c0546e8b1954cd85a109349,1,0,114.079438,30.409777,13627205246,cater,http://api.map.baidu.com/place/detail?uid=8c0546e8b1954cd85a109349&output=html&source=placeapi_v2,,"09:00-14:00,16:30-21:00",,,,,,,,,,,,,,,,114.07956139019,30.409643184835,0
74cdf2a5f84b2b211894c6b1,滋味轩(黄陵大道店),美食,中餐厅,湖北省,武汉市,蔡甸区,湖北省武汉市蔡甸区棋盘岭商业街13栋幸福小区旁,74cdf2a5f84b2b211894c6b1,1,0,114.085869,30.41596,13308622261,cater,http://api.map.baidu.com/place/detail?uid=74cdf2a5f84b2b211894c6b1&output=html&source=placeapi_v2,,10:00-21:00,3.5,,,,,,,,0,,,,,,,114.08581355881,30.416016988243,0
056bd5e43fd7fe24a3acc48b,醉食寨(黄陵大道店),美食,中餐厅,湖北省,武汉市,蔡甸区,湖北省武汉市蔡甸区军山街幸福小区15号,056bd5e43fd7fe24a3acc48b,1,0,114.085753,30.415889,18871854850,cater,http://api.map.baidu.com/place/detail?uid=056bd5e43fd7fe24a3acc48b&output=html&source=placeapi_v2,,10:00-21:00,3.4,,,,,,,,,,,,,,,114.08570544145,30.41593880115,0
f98a7eaad4ec1deebb17e7f5,嘉宾食府,美食,中餐厅,湖北省,武汉市,蔡甸区,湖北省武汉市蔡甸区军山街无浪湖路35号,f98a7eaad4ec1deebb17e7f5,1,0,114.079633,30.405756,"13995519652,15827371396",cater,http://api.map.baidu.com/place/detail?uid=f98a7eaad4ec1deebb17e7f5&output=html&source=placeapi_v2,,10:00-20:00,3.4,,,,,,,,,,,,,,,114.07967674519,30.405721138006,0
6fd0a332c9516eee8c1a891b,沙县小吃,美食,小吃快餐店,湖北省,武汉市,蔡甸区,经济开发区军山科技产业园二区D栋商铺,6fd0a332c9516eee8c1a891b,1,0,114.080292,30.4109,,cater,http://api.map.baidu.com/place/detail?uid=6fd0a332c9516eee8c1a891b&output=html&source=placeapi_v2,,06:00-21:30,,,,,,,,,,,,,,,,,,0
9db64fa3de246d74a6da39fb,沙县小吃,美食,小吃快餐店,湖北省,武汉市,蔡甸区,武汉市蔡甸区黄陵大道幸福小区,9db64fa3de246d74a6da39fb,1,0,114.086108,30.416131,,cater,http://api.map.baidu.com/place/detail?uid=9db64fa3de246d74a6da39fb&output=html&source=placeapi_v2,,,,,,,,,,,,,,,,,,,,0
0db3ea57b0cac6509df779d2,缘味鲜,美食,中餐厅,湖北省,武汉市,蔡甸区,武汉市蔡甸区黄陵大道幸福小区东北侧约200米,,1,0,114.089118,30.418079,18071403136,cater,http://api.map.baidu.com/place/detail?uid=0db3ea57b0cac6509df779d2&output=html&source=placeapi_v2,,,,,,,,,,,,,,,,,,,,0
09761beb91af67885a3ac8b6,四季火锅美食,美食,中餐厅,湖北省,武汉市,蔡甸区,武汉市蔡甸区黄陵大道幸福小区,09761beb91af67885a3ac8b6,1,0,114.086189,30.416153,,cater,http://api.map.baidu.com/place/detail?uid=09761beb91af67885a3ac8b6&output=html&source=placeapi_v2,,,,,,,,,,,,,,,,,,,,0
8518d0f9d0f1346cd4851f5f,川湘农家菜(云峰大道店),美食,中餐厅,湖北省,武汉市,蔡甸区,湖北省武汉市蔡甸区幸福小区(凤凰大道南),8518d0f9d0f1346cd4851f5f,1,0,114.085639,30.41581,,cater,http://api.map.baidu.com/place/detail?uid=8518d0f9d0f1346cd4851f5f&output=html&source=placeapi_v2,,09:30-22:00,0,,,,,,,,1,,,,,,,114.0855934012,30.415857777083,0
ce8de327e52f7c29bca82281,兰州拉面,美食,小吃快餐店,湖北省,武汉市,蔡甸区,湖北省武汉市蔡甸区军山街北区c1717c,,1,0,114.082119,30.408225,,cater,http://api.map.baidu.com/place/detail?uid=ce8de327e52f7c29bca82281&output=html&source=placeapi_v2,,,,,,,,,,,,,,,,,,114.08236342516,30.408030516259,0
34041957e8bb1fbf09a8d4e9,食全酒美(幸福小区店),美食,中餐厅,湖北省,武汉市,蔡甸区,武汉市蔡甸区经济技术开发区军山街幸福小区,34041957e8bb1fbf09a8d4e9,1,0,114.085931,30.416022,,cater,http://api.map.baidu.com/place/detail?uid=34041957e8bb1fbf09a8d4e9&output=html&source=placeapi_v2,,09:30-22:00,,,,,,,,,,,,,,,,114.08588546996,30.416068992461,0
4d6441885600ee74eedfca23,豪哥食代,美食,中餐厅,湖北省,武汉市,蔡甸区,蔡甸区灵凤路武汉黑鸭西北10米,4d6441885600ee74eedfca23,1,0,114.079102,30.409526,18086634544,cater,http://api.map.baidu.com/place/detail?uid=4d6441885600ee74eedfca23&output=html&source=placeapi_v2,,08:00-23:30,3.5,,,,,,,1,,,,,,,,,,0
537f9e6ff95a28db8505bfdd,蜀湘一绝,美食,中餐厅,湖北省,武汉市,蔡甸区,湖北省武汉市蔡甸区第一大道115号,537f9e6ff95a28db8505bfdd,1,0,114.086289,30.416255,,cater,http://api.map.baidu.com/place/detail?uid=537f9e6ff95a28db8505bfdd&output=html&source=placeapi_v2,,,,,,,,,,,,,,,,,,,,0
53b5e18f63c2e18a471a3219,兰州拉面,美食,小吃快餐店,湖北省,武汉市,蔡甸区,湖北省武汉市蔡甸区奥莱西街15号,53b5e18f63c2e18a471a3219,1,0,114.059619,30.421297,13183388319,cater,http://api.map.baidu.com/place/detail?uid=53b5e18f63c2e18a471a3219&output=html&source=placeapi_v2,,06:00-22:00,,,,,,,,,,,,,,,,114.05987482911,30.421505980704,0
498f83d6204d80c20bccdd6d,艳玲快餐店,美食,小吃快餐店,湖北省,武汉市,蔡甸区,武汉市蔡甸区黄陵正街军山街卫生院西北侧约290米,498f83d6204d80c20bccdd6d,1,0,114.092138,30.415674,15072337918,cater,http://api.map.baidu.com/place/detail?uid=498f83d6204d80c20bccdd6d&output=html&source=placeapi_v2,,,,,,,,,,,,,,,,,,114.09222476703,30.415731819759,0
2b644668e407670f09a8d4d0,李氏生烫,美食,中餐厅,湖北省,武汉市,蔡甸区,湖北省武汉市蔡甸区灵凤路军山街蒲潭北区12f号12f,2b644668e407670f09a8d4d0,1,0,114.080394,30.406522,,cater,http://api.map.baidu.com/place/detail?uid=2b644668e407670f09a8d4d0&output=html&source=placeapi_v2,,,,,,,,,,,,,,,,,,114.08064316112,30.406381649273,0
da32c03f8a365f2beb1e9794,中山湖酒楼,美食,中餐厅,湖北省,武汉市,蔡甸区,湖北省武汉市蔡甸区中山湖路104号,da32c03f8a365f2beb1e9794,1,0,114.092358,30.411057,,cater,http://api.map.baidu.com/place/detail?uid=da32c03f8a365f2beb1e9794&output=html&source=placeapi_v2,,,0.0,,,,,,,,1,,,,,,,114.09233162227,30.411136272625,0
842688841eb0e3e9f842b2af,点点时尚音乐烤吧,美食,中餐厅,湖北省,武汉市,蔡甸区,武汉市蔡甸区灵凤路黄陵社区-二期,,1,0,114.078288,30.408966,,cater,http://api.map.baidu.com/place/detail?uid=842688841eb0e3e9f842b2af&output=html&source=placeapi_v2,,,,,,,,,,,,,,,,,,114.07838567716,30.408823664969,0
18dd66a3508751c12202208d,曾记卤坊,美食,小吃快餐店,湖北省,武汉市,蔡甸区,武汉市蔡甸区黄陵小街幸福小区北侧,,1,0,114.087698,30.416967,,cater,http://api.map.baidu.com/place/detail?uid=18dd66a3508751c12202208d&output=html&source=placeapi_v2,,,,,,,,,,,,,,,,,,,,0
606cdea606a8b6b13913fdd7,厨艺坊私房菜,美食,中餐厅,湖北省,武汉市,蔡甸区,湖北省武汉市蔡甸区凤凰商业街f106-f107,606cdea606a8b6b13913fdd7,1,0,114.07952,30.409832,18062609571,cater,http://api.map.baidu.com/place/detail?uid=606cdea606a8b6b13913fdd7&output=html&source=placeapi_v2,,"09:00-14:00,16:30-21:00",,,,,,,,,,,,,,,,114.0795887939,30.409662200661,0
1e78f2dba1de419d00ff2df0,杨记牛肉面,美食,小吃快餐店,湖北省,武汉市,蔡甸区,湖北省武汉市蔡甸区S101(黄陵新街),1e78f2dba1de419d00ff2df0,1,0,114.081991,30.40809,18008641216,cater,http://api.map.baidu.com/place/detail?uid=1e78f2dba1de419d00ff2df0&output=html&source=placeapi_v2,,05:30-20:30,,,,,,,,,,,,,,,,114.08223503754,30.407909411885,0
959725f99c269c4d14948e4a,派乐汉堡(黄陵二路店),美食,小吃快餐店,湖北省,武汉市,蔡甸区,武汉市蔡甸区黄陵二路蒲潭社区,959725f99c269c4d14948e4a,1,0,114.083656,30.407288,18171257460,cater,http://api.map.baidu.com/place/detail?uid=959725f99c269c4d14948e4a&output=html&source=placeapi_v2,17.0,10:00-21:00,3.4,,,,,,,,0,,,,,,,114.08381677568,30.407400253934,0
1b9a35d125c63cb1a2a934dd,东山刘主题餐厅,美食,中餐厅,湖北省,武汉市,蔡甸区,蔡甸区经济技术开发区军山街海伦小镇F0203-2-11号,,1,0,114.170482,30.418139,"(027)84984228,15926300887",cater,http://api.map.baidu.com/place/detail?uid=1b9a35d125c63cb1a2a934dd&output=html&source=placeapi_v2,,09:00-21:00,3.5,,,,,,,,0,,,,,,,,,0
6baa25fd82d95b23744ff126,食韵川江餐厅,美食,中餐厅,湖北省,武汉市,蔡甸区,湖北省武汉市蔡甸区武汉开发区川江池路,,1,0,114.14751,30.415612,,cater,http://api.map.baidu.com/place/detail?uid=6baa25fd82d95b23744ff126&output=html&source=placeapi_v2,,,,,,,,,,,1,,,,,,,,,0
420251075721dc67c909f077,七星缘酒家,美食,中餐厅,湖北省,武汉市,蔡甸区,武汉市蔡甸区经济技术开发区军山街小军山社区1栋,420251075721dc67c909f077,1,0,114.165512,30.416423,13517238175,cater,http://api.map.baidu.com/place/detail?uid=420251075721dc67c909f077&output=html&source=placeapi_v2,,,,,,,,,,,,,,,,,,,,0
10fa5b255650a8f4704b8714,沙县小吃,美食,小吃快餐店,湖北省,武汉市,蔡甸区,武汉市蔡甸区经开大道海伦小镇,10fa5b255650a8f4704b8714,1,0,114.170305,30.418653,18950827732,cater,http://api.map.baidu.com/place/detail?uid=10fa5b255650a8f4704b8714&output=html&source=placeapi_v2,,08:00-22:00,,,,,,,,,,,,,,,,,,0
f834107f30200843d2f49e6b,八方饭堂(NO.001店),美食,中餐厅,湖北省,武汉市,蔡甸区,湖北省武汉市蔡甸区军山街道海伦小镇三期二单元5-7号铺,f834107f30200843d2f49e6b,1,0,114.167931,30.413949,"(027)84989901,13429852876",cater,http://api.map.baidu.com/place/detail?uid=f834107f30200843d2f49e6b&output=html&source=placeapi_v2,,06:00-02:30,,,,,,,,,2,,,,,,,114.16775661194,30.41404472622,0
a65726ab1ccf27e601897244,东北炒菜饺子馆,美食,小吃快餐店,湖北省,武汉市,蔡甸区,蔡甸区经济开发区小军山海伦小镇,,1,0,114.170393,30.4184,15064529433,cater,http://api.map.baidu.com/place/detail?uid=a65726ab1ccf27e601897244&output=html&source=placeapi_v2,,07:30-21:30,3.6,,,,,,,,1,,,,,,,114.1702375476,30.418376519102,0
fea21da3acfbdbc0f7e73b3d,金松私房菜,美食,中餐厅,湖北省,武汉市,蔡甸区,湖北省武汉市蔡甸区海伦小镇124号,,1,0,114.170338,30.417597,15807150956,cater,http://api.map.baidu.com/place/detail?uid=fea21da3acfbdbc0f7e73b3d&output=html&source=placeapi_v2,,,,,,,,,,,,,,,,,,114.17017685449,30.417604453439,0
38f5b3c94c1cfcf0c51e5148,川喜湘味菜馆,美食,中餐厅,湖北省,武汉市,蔡甸区,湖北省武汉市蔡甸区经开大道9附11号,,1,0,114.170224,30.418906,"13875503761,18171390361",cater,http://api.map.baidu.com/place/detail?uid=38f5b3c94c1cfcf0c51e5148&output=html&source=placeapi_v2,,,,,,,,,,,,,,,,,,114.17024545539,30.418357761379,0
aebc9bc1aa6fab35283a9f62,兰州拉面,美食,小吃快餐店,湖北省,武汉市,蔡甸区,武汉市蔡甸区军山街海伦小镇,,1,0,114.170459,30.41835,,cater,http://api.map.baidu.com/place/detail?uid=aebc9bc1aa6fab35283a9f62&output=html&source=placeapi_v2,,07:00-20:00,,,,,,,,,,,,,,,,114.17026866401,30.418295950448,0
32b177e3b6a49bfc6018097a,派乐汉堡(经开大道店),美食,小吃快餐店,湖北省,武汉市,蔡甸区,湖北省武汉市蔡甸区经开大道经济技术开发区军山街海伦堡君临长江滨江苑三期商品房配套商业1座1层商29号,32b177e3b6a49bfc6018097a,1,0,114.168248,30.414444,13265761595,cater,http://api.map.baidu.com/place/detail?uid=32b177e3b6a49bfc6018097a&output=html&source=placeapi_v2,,10:30-21:30,,,,,,,,,,,,,,,,,,0
d44564de0add54243fe2314b,叫了个炸鸡(经开大道店),美食,小吃快餐店,湖北省,武汉市,蔡甸区,湖北省武汉市蔡甸区经开大道海伦堡2楼,,1,0,114.170477,30.418043,18502746228,cater,http://api.map.baidu.com/place/detail?uid=d44564de0add54243fe2314b&output=html&source=placeapi_v2,16.0,10:00-22:00,3.6,,,,,,,,0,,,,,,,,,0
e3c85f4ced3d0ce20c0a70c6,沙县小吃,美食,小吃快餐店,湖北省,武汉市,江夏区,湖北省武汉市江夏区杨桥湖大道8号,,1,0,114.285934,30.416558,15759081829,cater,http://api.map.baidu.com/place/detail?uid=e3c85f4ced3d0ce20c0a70c6&output=html&source=placeapi_v2,,,,,,,,,,,,,,,,,,,,0
e01e088e4536a4389ff779b8,华中美食城,美食,中餐厅,湖北省,武汉市,洪山区,湖北省武汉市洪山区白沙洲大道2号2楼,e01e088e4536a4389ff779b8,1,0,114.269265,30.423252,15717122665,cater,http://api.map.baidu.com/place/detail?uid=e01e088e4536a4389ff779b8&output=html&source=placeapi_v2,,,3.4,,,,,,,,4,,,,,,,114.26928709454,30.423483968782,0
bb96eacc52cfc2f66b49f310,武汉交通职业学院-南苑轩,美食,中餐厅,湖北省,武汉市,洪山区,交通职业学院内,bb96eacc52cfc2f66b49f310,1,0,114.271721,30.430945,,education,http://api.map.baidu.com/place/detail?uid=bb96eacc52cfc2f66b49f310&output=html&source=placeapi_v2,,09:30-21:00,5,,,,,,,,2,,,,,,,114.27187436547,30.430942408369,0
e9f0a24447223df004026fe0,中国兰州拉面,美食,小吃快餐店,湖北省,武汉市,洪山区,湖北省武汉市洪山区白沙洲大道2号华中城华中城15栋,e9f0a24447223df004026fe0,1,0,114.270617,30.422911,,cater,http://api.map.baidu.com/place/detail?uid=e9f0a24447223df004026fe0&output=html&source=placeapi_v2,,,5,,,,,,,,1,,,,,,,114.27059000135,30.422908475546,0
21ce414c791ffa4c2bb97c07,众家餐馆,美食,中餐厅,湖北省,武汉市,江夏区,湖北省武汉市江夏区龚家铺路辅路G1072栋1楼,,1,0,114.265034,30.410872,13986266298,cater,http://api.map.baidu.com/place/detail?uid=21ce414c791ffa4c2bb97c07&output=html&source=placeapi_v2,,,,,,,,,,,,,,,,,,,,0
fec760c0c5bf020fa9059daa,沙县小吃集团湖北运营中心,美食,小吃快餐店,湖北省,武汉市,洪山区,湖北省武汉市洪山区白沙洲大道2号华中城建材市场15栋25号,,1,0,114.269845,30.4195,13850811838,cater,http://api.map.baidu.com/place/detail?uid=fec760c0c5bf020fa9059daa&output=html&source=placeapi_v2,,,,,,,,,,,,,,,,,,,,0
bf50a0e2531df0cd9c09f7af,骏骏牛肉面馆,美食,小吃快餐店,湖北省,武汉市,江夏区,武汉市江夏区星光大道何家湖,bf50a0e2531df0cd9c09f7af,1,0,114.269505,30.412145,13871572166,cater,http://api.map.baidu.com/place/detail?uid=bf50a0e2531df0cd9c09f7af&output=html&source=placeapi_v2,,04:30-22:00,,,,,,,,,,,,,,,,114.26950109247,30.41205335432,0
6bfc477562de73d92cb96d93,爱家早餐店,美食,小吃快餐店,湖北省,武汉市,洪山区,武汉市洪山区黄家湖六街武汉爱家名校华城,,1,0,114.265534,30.429954,18162605492,cater,http://api.map.baidu.com/place/detail?uid=6bfc477562de73d92cb96d93&output=html&source=placeapi_v2,,05:00-14:00,,,,,,,,,,,,,,,,114.26554597099,30.430442428294,0
a17c928e57a39ca91d1d11c8,山水情私房菜,美食,中餐厅,湖北省,武汉市,洪山区,武汉市洪山区白沙洲大道中国石油加油站北侧约160米,a17c928e57a39ca91d1d11c8,1,0,114.26626,30.418988,15827346405,cater,http://api.map.baidu.com/place/detail?uid=a17c928e57a39ca91d1d11c8&output=html&source=placeapi_v2,,,,,,,,,,,,,,,,,,,,0
c81b2208fc0f8e7314948e00,沙县小吃星光大道店,美食,小吃快餐店,湖北省,武汉市,江夏区,湖北省武汉市江夏区星光大道1号2栋1楼,c81b2208fc0f8e7314948e00,1,0,114.264734,30.411051,15623062968,cater,http://api.map.baidu.com/place/detail?uid=c81b2208fc0f8e7314948e00&output=html&source=placeapi_v2,,06:00-23:00,5,,,,,,,,2,,,,,,,114.26464851528,30.411055314999,0
3bab2bd109fbb0f58f55ec1c,全家福超市(白沙洲大道店),美食,中餐厅,湖北省,武汉市,洪山区,湖北省武汉市洪山区白沙洲大道7号,3bab2bd109fbb0f58f55ec1c,1,0,114.265862,30.430562,15927259448,cater,http://api.map.baidu.com/place/detail?uid=3bab2bd109fbb0f58f55ec1c&output=html&source=placeapi_v2,,00:00-24:00,,,,,,,,,,,,,,,,114.26586865401,30.430499107945,0
d55969eed17ff602b05c6a5f,川菜王(白沙洲大道店),美食,中餐厅,湖北省,武汉市,洪山区,武汉市洪山区白沙洲大道中国石油加油站北侧约200米,d55969eed17ff602b05c6a5f,1,0,114.266414,30.419331,,cater,http://api.map.baidu.com/place/detail?uid=d55969eed17ff602b05c6a5f&output=html&source=placeapi_v2,,10:00-22:00,,,,,,,,,,,,,,,,,,0
50789705430187b45e0d02a7,聚通缘菜馆,美食,中餐厅,湖北省,武汉市,江夏区,武汉市江夏区白沙洲大道武汉精创机床设备有限公司,50789705430187b45e0d02a7,1,0,114.264835,30.410873,"18162336620,18771009669",cater,http://api.map.baidu.com/place/detail?uid=50789705430187b45e0d02a7&output=html&source=placeapi_v2,,,,,,,,,,,,,,,,,,,,0
965947bfcfb8799e2cb90876,至尊椒香牛排,美食,外国餐厅,湖北省,武汉市,江夏区,大桥新区大花岭小区美食城30号,,1,0,114.319141,30.419692,18672307112,cater,http://api.map.baidu.com/place/detail?uid=965947bfcfb8799e2cb90876&output=html&source=placeapi_v2,,09:00-21:00,,,,,,,,,,,,,,,,,,0
367e1f54947bf88fa0acc411,顶屋咖喱(江夏店),美食,外国餐厅,湖北省,武汉市,江夏区,江夏区金桂街大花岭小区F5栋一楼底商,367e1f54947bf88fa0acc411,1,0,114.319189,30.420822,17771497256,cater,http://api.map.baidu.com/place/detail?uid=367e1f54947bf88fa0acc411&output=html&source=placeapi_v2,29.0,10:00-21:00,4.4,,,,,,,,2,,,,,,,,,0
97db56fefca2e51acd06a495,π料理,美食,外国餐厅,湖北省,武汉市,江夏区,江夏区大桥新区大花岭小区16栋一层门面,,1,0,114.320859,30.419827,18627715792,cater,http://api.map.baidu.com/place/detail?uid=97db56fefca2e51acd06a495&output=html&source=placeapi_v2,,11:00-01:00,,,,,,,,,,,,,,,,114.32075990325,30.420033877487,0
f93a9d51636526bf05026fc5,8421餐厅,美食,小吃快餐店,湖北省,武汉市,江夏区,大花岭小区东17栋A4档,f93a9d51636526bf05026fc5,1,0,114.318967,30.420054,17771468421,cater,http://api.map.baidu.com/place/detail?uid=f93a9d51636526bf05026fc5&output=html&source=placeapi_v2,,"11:00-14:00,17:00-01:00",3.5,,,,,,,,0,,,,,,,114.31900963221,30.420144032013,0
c2a32ccb832323e74c3a59a9,瑞联美食广场,美食,中餐厅,湖北省,武汉市,江夏区,湖北省武汉市江夏区文化大道299号,c2a32ccb832323e74c3a59a9,1,0,114.320631,30.421705,15171119537,cater,http://api.map.baidu.com/place/detail?uid=c2a32ccb832323e74c3a59a9&output=html&source=placeapi_v2,,08:00-23:00,3.5,,,,,,,,,,,,,,,,,0
007534d406f4957a33169b5a,香域音乐餐厅,美食,中餐厅,湖北省,武汉市,江夏区,江夏区金樱街鸿发大厦A栋1号商铺,1a2b2b95c9b37c442db17e5b,1,0,114.318365,30.424653,15337280336,cater,http://api.map.baidu.com/place/detail?uid=007534d406f4957a33169b5a&output=html&source=placeapi_v2,43.0,10:30-21:30,3.5,,,,,,,,0,,,,,,,114.31856881214,30.42463673878,0
04eb43f755489ab0a4c756ee,米饭师湘味自选餐,美食,中餐厅,湖北省,武汉市,江夏区,江夏区大桥新区大花岭美食城41号,04eb43f755489ab0a4c756ee,1,0,114.320452,30.419851,13018067008,cater,http://api.map.baidu.com/place/detail?uid=04eb43f755489ab0a4c756ee&output=html&source=placeapi_v2,,10:00-22:00,,,,,,,,,,,,,,,,114.32046611243,30.420053419058,0
a192cae2d7f534b1cac3db74,kokoyumi炸鸡食堂(汉口学院店),美食,小吃快餐店,湖北省,武汉市,江夏区,湖北省武汉市江夏区金桂街汉口学院中央生活区二楼,,1,0,114.322363,30.419511,,cater,http://api.map.baidu.com/place/detail?uid=a192cae2d7f534b1cac3db74&output=html&source=placeapi_v2,,,3.8,,,,,,,,,,,,,,,,,0
493fba358a3f3671c51e511a,龙猫料理(东湖学院店),美食,外国餐厅,湖北省,武汉市,江夏区,武汉市江夏区东湖学院大桥新区海天大厦1栋1层5层,493fba358a3f3671c51e511a,1,0,114.319195,30.424384,15871778409,cater,http://api.map.baidu.com/place/detail?uid=493fba358a3f3671c51e511a&output=html&source=placeapi_v2,31.0,10:00-21:30,4.2,,,,,,,,0,,,,,,,,,0
504d61136fb1d8b3465726de,大花岭小区美食城,美食,小吃快餐店,湖北省,武汉市,江夏区,湖北省武汉市江夏区美食城1号,504d61136fb1d8b3465726de,1,0,114.319053,30.420029,13995623488,cater,http://api.map.baidu.com/place/detail?uid=504d61136fb1d8b3465726de&output=html&source=placeapi_v2,12.0,,3.5,,,,,,,,13,,,,,,,114.31912175152,30.420112636782,0
02d9144a3b2f08802cb9088d,元宝纸上烤鱼(大花岭店),美食,中餐厅,湖北省,武汉市,江夏区,湖北省武汉市江夏区武昌大道大花岭小区学府苑e2栋,02d9144a3b2f08802cb9088d,1,0,114.318727,30.420999,15727067935,cater,http://api.map.baidu.com/place/detail?uid=02d9144a3b2f08802cb9088d&output=html&source=placeapi_v2,53.0,09:00-22:00,3.7,,,,,,,,0,,,,,,,114.31874749792,30.421054081888,0
f039cc85bf05c2bf2bb97c20,小四川江湖菜馆,美食,中餐厅,湖北省,武汉市,江夏区,湖北省武汉市江夏区红花路大花岭小区e3栋,f039cc85bf05c2bf2bb97c20,1,0,114.318589,30.420699,18995645513,cater,http://api.map.baidu.com/place/detail?uid=f039cc85bf05c2bf2bb97c20&output=html&source=placeapi_v2,48.0,09:00-23:00,3.6,,,,,,,,0,,,,,,,114.31860039294,30.420808158448,0
793b0e67584a90f745e27441,古蜀冒菜,美食,中餐厅,湖北省,武汉市,江夏区,武汉市江夏区金桂街中央生活区1层31号,,1,0,114.322425,30.419705,13261565348,cater,http://api.map.baidu.com/place/detail?uid=793b0e67584a90f745e27441&output=html&source=placeapi_v2,,10:00-21:30,0,,,,,,,,0,,,,,,,,,0
f5bab81038e3fa7929fc489a,田野香食尚私房菜,美食,中餐厅,湖北省,武汉市,江夏区,江夏区大桥居委会还建综合楼A03-06号(中国银行旁),f5bab81038e3fa7929fc489a,1,0,114.318245,30.415723,(027)81940108,cater,http://api.map.baidu.com/place/detail?uid=f5bab81038e3fa7929fc489a&output=html&source=placeapi_v2,62.0,09:00-21:00,3.6,,,,,,,1,1,,,,,,,114.31816468426,30.415941283406,0
733dda7adfcd698f922ca399,安心酒家,美食,中餐厅,湖北省,武汉市,江夏区,湖北省武汉市江夏区大桥大花岭小区a14栋,733dda7adfcd698f922ca399,1,0,114.318492,30.420388,13871150690,cater,http://api.map.baidu.com/place/detail?uid=733dda7adfcd698f922ca399&output=html&source=placeapi_v2,,09:30-22:30,3.7,,,,,,,,1,,,,,,,114.31846318399,30.420200897789,0
3328030f9ca9d1f03686f434,小胡子美食(美食城店),美食,中餐厅,湖北省,武汉市,江夏区,江夏区金桂街大花岭小区美食城22号,3328030f9ca9d1f03686f434,1,0,114.318894,30.419915,15827069931,cater,http://api.map.baidu.com/place/detail?uid=3328030f9ca9d1f03686f434&output=html&source=placeapi_v2,48.0,17:00-02:00,3.8,,,,,,,,0,,,,,,,114.31881750533,30.419924096237,0
d5c97ccf5d7affb0afee7adb,兄弟餐厅(红花路店),美食,中餐厅,湖北省,武汉市,江夏区,湖北省武汉市江夏区红旗小区一期(红花路东),d5c97ccf5d7affb0afee7adb,1,0,114.317698,30.413269,18171331213,cater,http://api.map.baidu.com/place/detail?uid=d5c97ccf5d7affb0afee7adb&output=html&source=placeapi_v2,30.0,08:00-22:00,3.6,,,,,,,,2,,,,,,,,,0
4f52a9e41dcd4fd4e31103ed,彭厨(江夏店),美食,中餐厅,湖北省,武汉市,江夏区,湖北省武汉市江夏区新华街与红花路交叉口旁,4f52a9e41dcd4fd4e31103ed,1,0,114.318008,30.410328,(027)81770777,cater,http://api.map.baidu.com/place/detail?uid=4f52a9e41dcd4fd4e31103ed&output=html&source=placeapi_v2,58.0,10:30-21:00,3.7,,,,,,,,0,,,,,,,114.31787958365,30.410575648865,0
c8647c61cb0277ddfbdc8544,尚Q乡菜馆(大花岭分店),美食,中餐厅,湖北省,武汉市,江夏区,大桥新区大花岭小区美食城B排11至12号,c8647c61cb0277ddfbdc8544,1,0,114.319433,30.419974,13971658604,cater,http://api.map.baidu.com/place/detail?uid=c8647c61cb0277ddfbdc8544&output=html&source=placeapi_v2,39.0,10:00-22:00,0,,,,,,,,1,,,,,,,114.31937713978,30.420121700388,0
bf11295c8de2df2c3a04b1b6,洪湖小碗菜(文昌路店),美食,中餐厅,湖北省,武汉市,江夏区,武汉市江夏区汤逊湖经济发展园特1号(中央生活区食堂二楼),,1,0,114.322482,30.41917,17671422270,cater,http://api.map.baidu.com/place/detail?uid=bf11295c8de2df2c3a04b1b6&output=html&source=placeapi_v2,,,,,,,,,,,,,,,,,,,,0
1cbcde07f806a17e28b97ce8,川菜王美食(红花路店),美食,中餐厅,湖北省,武汉市,江夏区,湖北省武汉市江夏区大桥新区办事处金樱街名城8090东,1cbcde07f806a17e28b97ce8,1,0,114.318471,30.421036,13720395453,cater,http://api.map.baidu.com/place/detail?uid=1cbcde07f806a17e28b97ce8&output=html&source=placeapi_v2,70.0,10:00-22:00,3.7,,,,,,,,0,,,,,,,114.31847487774,30.421076842921,0
6080effb75cfdb6cf822138b,简朴寨(大花岭店),美食,中餐厅,湖北省,武汉市,江夏区,湖北省武汉市江夏区金樱街花乐亿家一楼,6080effb75cfdb6cf822138b,1,0,114.316591,30.424738,(027)87915577,cater,http://api.map.baidu.com/place/detail?uid=6080effb75cfdb6cf822138b&output=html&source=placeapi_v2,52.0,"11:00-14:30,17:00-21:00",3.8,,,,,,,14,3,,,,,,,114.31664647249,30.424771023476,0
b86bc291159dd79d354aaef6,钵家大院(大花岭店),美食,中餐厅,湖北省,武汉市,江夏区,武汉市江夏区金樱街鸿发大厦北侧约60米,b86bc291159dd79d354aaef6,1,0,114.317714,30.425435,13006396606,cater,http://api.map.baidu.com/place/detail?uid=b86bc291159dd79d354aaef6&output=html&source=placeapi_v2,75.0,"09:30-13:00,16:30-20:00",4.0,,,,,,,,2,,,,,,,114.31768095752,30.425323377205,0
9f1d31beaa6ffe1cb13c818b,小明同学煲仔饭,美食,中餐厅,湖北省,武汉市,江夏区,江夏区大桥新区金桂杰大花岭美食城5号门面,9f1d31beaa6ffe1cb13c818b,1,0,114.319699,30.419982,13125002852,cater,http://api.map.baidu.com/place/detail?uid=9f1d31beaa6ffe1cb13c818b&output=html&source=placeapi_v2,,08:30-21:00,3.4,,,,,,,8,,,,,,,,114.31970538959,30.420099978688,0
e23cb5bb9a334e378f1a89c9,烧烤部落(金桂街店),美食,中餐厅,湖北省,武汉市,江夏区,湖北省武汉市江夏区金桂街大桥现代产业园汉口学院中央生活区1栋1楼24号,,1,0,114.322375,30.419148,15171471614,cater,http://api.map.baidu.com/place/detail?uid=e23cb5bb9a334e378f1a89c9&output=html&source=placeapi_v2,,11:00-23:00,3.4,,,,,,,,,,,,,,,,,0
4d76a8bfcf813e281188243b,涂氏生煎包(大花岭店),美食,小吃快餐店,湖北省,武汉市,江夏区,江夏区红花路川菜王美食东100米,4d76a8bfcf813e281188243b,1,0,114.319758,30.421013,"13476799930,17302722622",cater,http://api.map.baidu.com/place/detail?uid=4d76a8bfcf813e281188243b&output=html&source=placeapi_v2,,08:30-21:30,3.7,,,,,,,,0,,,,,,,114.31959997165,30.421003448539,0
cafc073b4154df7853e5c5e3,菩提人家私房小馆(汉口学院店),美食,中餐厅,湖北省,武汉市,江夏区,湖北省武汉市江夏区金樱街229号,cafc073b4154df7853e5c5e3,1,0,114.329925,30.422635,13554163555,cater,http://api.map.baidu.com/place/detail?uid=cafc073b4154df7853e5c5e3&output=html&source=placeapi_v2,52.0,"10:30-14:00,16:30-21:00",3.7,,,,,,,,0,,,,,,,114.33002947469,30.422854629392,0
4de2dee616e09daaf7e73bec,冯记纸上烤鱼(大花岭店),美食,中餐厅,湖北省,武汉市,江夏区,武汉市江夏区金樱街大花岭海天大厦1楼(金鹰美食城后门),4de2dee616e09daaf7e73bec,1,0,114.318987,30.42436,"18062009161,18071064231",cater,http://api.map.baidu.com/place/detail?uid=4de2dee616e09daaf7e73bec&output=html&source=placeapi_v2,47.0,10:00-24:00,3.9,,,,,,,,1,,,,,,,,,0
44366f0fac6e260ff32d83a9,巴尔郎鸡公煲(大花岭店),美食,小吃快餐店,湖北省,武汉市,江夏区,湖北省武汉市江夏区大花岭小区东十六栋西区第五档,44366f0fac6e260ff32d83a9,1,0,114.321001,30.419806,13554100516,cater,http://api.map.baidu.com/place/detail?uid=44366f0fac6e260ff32d83a9&output=html&source=placeapi_v2,23.0,10:00-21:30,3.5,,,,,,,,0,,,,,,,114.3210519765,30.420008472442,0
77fad7b4e88719e697031952,蛮牛手抓牛骨头,美食,中餐厅,湖北省,武汉市,江夏区,武汉市江夏区红花路大花岭小区,77fad7b4e88719e697031952,1,0,114.318611,30.421747,13971180002,cater,http://api.map.baidu.com/place/detail?uid=77fad7b4e88719e697031952&output=html&source=placeapi_v2,49.0,09:30-21:30,0,,,,,,,,0,,,,,,,,,0
73ae42ed6fb4acbc085cb3eb,粗茶淡饭汉口公馆(江夏店),美食,中餐厅,湖北省,武汉市,江夏区,湖北省武汉市江夏区文化大道399号联投大厦一楼,73ae42ed6fb4acbc085cb3eb,1,0,114.327249,30.432535,(027)86635917,cater,http://api.map.baidu.com/place/detail?uid=73ae42ed6fb4acbc085cb3eb&output=html&source=placeapi_v2,155.0,"11:30-14:00,17:30-21:00",4.7,,,,,,,,4,,,,,,,114.32758124992,30.432507748173,0
85c797924b43992c4107c1a4,圣帮美食屋,美食,小吃快餐店,湖北省,武汉市,江夏区,武汉市江夏区红花路大花岭小区美食城内,85c797924b43992c4107c1a4,1,0,114.319815,30.419931,15972225684,cater,http://api.map.baidu.com/place/detail?uid=85c797924b43992c4107c1a4&output=html&source=placeapi_v2,8.0,08:00-20:00,0,,,,,,,,0,,,,,,,,,0
3f3c28c8285ce05846e274ee,正宗哈尔滨饺子馆(红花路店),美食,小吃快餐店,湖北省,武汉市,江夏区,湖北省武汉市江夏区大桥大花岭小区a14栋,3f3c28c8285ce05846e274ee,1,0,114.31853,30.420387,15802731178,cater,http://api.map.baidu.com/place/detail?uid=3f3c28c8285ce05846e274ee&output=html&source=placeapi_v2,20.0,07:00-21:00,3.4,,,,,,,,1,,,,,,,114.31850048433,30.420196530034,0
69990dc8b89df90002294ffe,食乐园(红花路店),美食,中餐厅,湖北省,武汉市,江夏区,湖北省武汉市江夏区红花路大花岭小区e1栋,69990dc8b89df90002294ffe,1,0,114.318518,30.421238,15827282029,cater,http://api.map.baidu.com/place/detail?uid=69990dc8b89df90002294ffe&output=html&source=placeapi_v2,47.0,"10:30-14:00,16:30-21:00",3.7,,,,,,,,1,,,,,,,114.31823489402,30.42125601658,0
37bf2afd6555832b2cb96d81,n多寿司(大花岭店),美食,外国餐厅,湖北省,武汉市,江夏区,江夏区红花路大桥现代产业园大花岭村名城8090花园7栋1层26室,37bf2afd6555832b2cb96d81,1,0,114.317157,30.420711,18272180269,cater,http://api.map.baidu.com/place/detail?uid=37bf2afd6555832b2cb96d81&output=html&source=placeapi_v2,16.0,09:00-22:00,3.6,,,,,,,,0,,,,,,,114.31727155891,30.420702947395,0
cc4bc459725ae5a1f12d8311,老汉口热干面(金桂街店),美食,小吃快餐店,湖北省,武汉市,江夏区,湖北省武汉市江夏区文化大道299号16栋,cc4bc459725ae5a1f12d8311,1,0,114.321111,30.419857,18075623713,cater,http://api.map.baidu.com/place/detail?uid=cc4bc459725ae5a1f12d8311&output=html&source=placeapi_v2,8.0,06:00-21:00,3.5,,,,,,,,,,,,,,,114.32112287796,30.420013511642,0
6057348c06d239c15cd4fefd,傣妹火锅(傣妹火锅江夏店),美食,中餐厅,湖北省,武汉市,江夏区,湖北省武汉市江夏区金桂街名城8090花园六栋,6057348c06d239c15cd4fefd,1,0,114.317816,30.420691,(027)87931398,cater,http://api.map.baidu.com/place/detail?uid=6057348c06d239c15cd4fefd&output=html&source=placeapi_v2,61.0,10:30-23:00,3.6,,,,,,,,3,,,,,,,114.31809774253,30.420625814586,0
ecd6834643d19a762b3a9f77,化隆十八子牛肉拉面(十八子分店),美食,小吃快餐店,湖北省,武汉市,江夏区,武汉市江夏区文化大道福志友缘,ecd6834643d19a762b3a9f77,1,0,114.328369,30.422457,15972986164,cater,http://api.map.baidu.com/place/detail?uid=ecd6834643d19a762b3a9f77&output=html&source=placeapi_v2,16.0,08:00-22:00,3.6,,,,,,,,2,,,,,,,114.32796760842,30.422534710556,0
8561836f46aa937d10293511,小火焱(大花岭店),美食,中餐厅,湖北省,武汉市,江夏区,江夏区学府苑(大福东北菜馆隔壁),8561836f46aa937d10293511,1,0,114.318732,30.421227,15827282029,cater,http://api.map.baidu.com/place/detail?uid=8561836f46aa937d10293511&output=html&source=placeapi_v2,84.0,10:00-23:00,3.5,,,,,,,,1,,,,,,,114.31865391103,30.421060405602,0
1889e6d89066161a3617dc55,航宇烧烤,美食,中餐厅,湖北省,武汉市,江夏区,江夏区文昌路大花岭小区16栋3档门面,,1,0,114.320776,30.419814,13871240373,cater,http://api.map.baidu.com/place/detail?uid=1889e6d89066161a3617dc55&output=html&source=placeapi_v2,,17:00-02:00,,,,,,,,,,,,,,,,114.32063859787,30.419846472019,0
a1d12ef63d23cbe9f2193735,火火串火锅串串香(名城8090店),美食,中餐厅,湖北省,武汉市,江夏区,湖北省武汉市江夏区步行街80902楼,,1,0,114.317257,30.420523,15207149491,cater,http://api.map.baidu.com/place/detail?uid=a1d12ef63d23cbe9f2193735&output=html&source=placeapi_v2,53.0,10:00-24:00,0,,,,,,,,0,,,,,,,,,0
e4ac36da5107b5b3343a712e,老乡鸡(菩提苑店),美食,小吃快餐店,湖北省,武汉市,江夏区,湖北省武汉市江夏区文化大道68号附8号,,1,0,114.328093,30.421414,"15623829877,17762582700",cater,http://api.map.baidu.com/place/detail?uid=e4ac36da5107b5b3343a712e&output=html&source=placeapi_v2,24.0,00:00-24:00,3.8,,,,,,,,,,,,,,,114.32767473298,30.421510296626,0
931671249f268ba85cbe86e5,蒋先生川菜馆(8090商业街店),美食,中餐厅,湖北省,武汉市,江夏区,湖北省武汉市江夏区商业街大花岭名城8090花,,1,0,114.317447,30.420416,(027)81817608,cater,http://api.map.baidu.com/place/detail?uid=931671249f268ba85cbe86e5&output=html&source=placeapi_v2,47.0,10:00-21:00,3.7,,,,,,,,0,,,,,,,114.31742235782,30.420282238827,0
7bcb50a1898788cbfbdc854e,福建沙县小吃(大花岭店),美食,小吃快餐店,湖北省,武汉市,江夏区,湖北省武汉市江夏区文化路9号大花岭小区a15栋,7bcb50a1898788cbfbdc854e,1,0,114.318495,30.421252,15072412099,cater,http://api.map.baidu.com/place/detail?uid=7bcb50a1898788cbfbdc854e&output=html&source=placeapi_v2,12.0,10:00-20:00,3.6,,,,,,,,0,,,,,,,114.31887438424,30.421233365303,0
a1f4e12ac2eb4fec0e0e6bea,锋哥挂壁羊汤羊肉馆,美食,中餐厅,湖北省,武汉市,江夏区,湖北省武汉市江夏区大花岭小区美食城东北门旁,,1,0,114.319321,30.420014,13016409151,cater,http://api.map.baidu.com/place/detail?uid=a1f4e12ac2eb4fec0e0e6bea&output=html&source=placeapi_v2,,10:00-22:00,3.5,,,,,,,,,,,,,,,,,0
b98dcd92bc874e1dd8eced26,简朴寨(红花路店),美食,中餐厅,湖北省,武汉市,江夏区,湖北省武汉市江夏区新华街117号二期3楼,b98dcd92bc874e1dd8eced26,1,0,114.318084,30.409831,(027)81811717,cater,http://api.map.baidu.com/place/detail?uid=b98dcd92bc874e1dd8eced26&output=html&source=placeapi_v2,72.0,"10:30-14:00,16:30-21:00",3.6,,,,,,,,1,,,,,,,114.31778425906,30.409855063034,0
1ff2feb9fa3f9f5115a19026,玲小姐麻辣烫麻辣香锅(汉口学院店),美食,小吃快餐店,湖北省,武汉市,江夏区,湖北省武汉市江夏区金桂街大花岭小区9栋102号,,1,0,114.320355,30.41991,13387511119,cater,http://api.map.baidu.com/place/detail?uid=1ff2feb9fa3f9f5115a19026&output=html&source=placeapi_v2,17.0,10:00-22:00,3.7,,,,,,,,0,,,,,,,114.32037345222,30.420058512133,0
bc8f496ea4c29b4c75e5b6df,降龙爪爪(汉口学院店),美食,小吃快餐店,湖北省,武汉市,江夏区,武汉市江夏区金桂街大花岭小区东9栋104号,bc8f496ea4c29b4c75e5b6df,1,0,114.320495,30.419847,"17507226919,17612766919",cater,http://api.map.baidu.com/place/detail?uid=bc8f496ea4c29b4c75e5b6df&output=html&source=placeapi_v2,18.0,10:30-23:00,3.7,,,,,,,,0,,,,,,,114.3205093883,30.420051097994,0
d7fdd85ded9465bad0ff23d6,成都冒菜,美食,小吃快餐店,湖北省,武汉市,江夏区,江夏区金桂街大桥现代产业园大花岭小区美食城9号,d7fdd85ded9465bad0ff23d6,1,0,114.319562,30.419963,"13720199001,15827424208",cater,http://api.map.baidu.com/place/detail?uid=d7fdd85ded9465bad0ff23d6&output=html&source=placeapi_v2,,10:00-21:00,3.5,,,,,,,,0,,,,,,,114.31957060424,30.420105817394,0
30af20760e853dbc29fc48a5,唐记馄饨,美食,小吃快餐店,湖北省,武汉市,江夏区,江夏区大桥现代产业园大花岭小区东16栋西北一档门面,,1,0,114.320771,30.419862,13277071706,cater,http://api.map.baidu.com/place/detail?uid=30af20760e853dbc29fc48a5&output=html&source=placeapi_v2,,05:30-23:00,3.5,,,,,,,,,,,,,,,,,0
b5d89ead8be61d545f17c3db,肉食者排骨(大花岭店),美食,中餐厅,湖北省,武汉市,江夏区,湖北省武汉市江夏区金桂街大花岭学府苑1栋116号,b5d89ead8be61d545f17c3db,1,0,114.319402,30.421119,13545275352,cater,http://api.map.baidu.com/place/detail?uid=b5d89ead8be61d545f17c3db&output=html&source=placeapi_v2,14.0,10:30-23:00,3.8,,,,,,,,0,,,,,,,114.31958941746,30.421129213772,0
ab1535f399fea4de990050e0,香他她煲仔饭(南车花园店),美食,小吃快餐店,湖北省,武汉市,江夏区,湖北省武汉市江夏区大花岭街南车花园5栋7号,ab1535f399fea4de990050e0,1,0,114.32249,30.415689,17320525770,cater,http://api.map.baidu.com/place/detail?uid=ab1535f399fea4de990050e0&output=html&source=placeapi_v2,25.0,10:00-21:00,3.7,,,,,,,,0,,,,,,,114.32242844285,30.415904998288,0
ad1f531d93c9084dad31e59c,东北饺子馆(汉口学院店),美食,小吃快餐店,湖北省,武汉市,江夏区,湖北省武汉市江夏区大桥新区文化大道268号唐宴酒店一楼临街南1~3号,ad1f531d93c9084dad31e59c,1,0,114.328331,30.42227,13624267958,cater,http://api.map.baidu.com/place/detail?uid=ad1f531d93c9084dad31e59c&output=html&source=placeapi_v2,,10:00-22:00,3.6,,,,,,,,0,,,,,,,,,0
17d19ab686f51dc4b64f540b,黄蜀郎鸡公煲(大花岭店),美食,小吃快餐店,湖北省,武汉市,江夏区,武汉市江夏区金桂街美食城16号(中国移动对面),17d19ab686f51dc4b64f540b,1,0,114.319256,30.42002,13871462547,cater,http://api.map.baidu.com/place/detail?uid=17d19ab686f51dc4b64f540b&output=html&source=placeapi_v2,,08:00-23:30,3.6,,,,,,,,0,,,,,,,,,0
5a5a96facee3ac82fbdc852c,中国兰州拉面,美食,小吃快餐店,湖北省,武汉市,江夏区,湖北省武汉市江夏区大桥新区大花岭南车花园4栋,5a5a96facee3ac82fbdc852c,1,0,114.321168,30.415547,17671623548,cater,http://api.map.baidu.com/place/detail?uid=5a5a96facee3ac82fbdc852c&output=html&source=placeapi_v2,,,3.5,,,,,,,,0,,,,,,,114.32127785902,30.415870134103,0
cb192a53eca026358b2fb5d8,天门专业炒饭,美食,小吃快餐店,湖北省,武汉市,江夏区,湖北省武汉市江夏区大桥新区文昌路大花岭小区美食城内,cb192a53eca026358b2fb5d8,1,0,114.319796,30.419896,15527289774,cater,http://api.map.baidu.com/place/detail?uid=cb192a53eca026358b2fb5d8&output=html&source=placeapi_v2,,10:00-24:00,3.6,,,,,,,1,14,,,,,,,,,0
4bbcf050fe183167b8bd63f3,黄小厨(菩提苑店),美食,中餐厅,湖北省,武汉市,江夏区,湖北省武汉市江夏区文化大道菩提苑小区301栋9号,4bbcf050fe183167b8bd63f3,1,0,114.334143,30.421116,18040569101,cater,http://api.map.baidu.com/place/detail?uid=4bbcf050fe183167b8bd63f3&output=html&source=placeapi_v2,30.0,11:00-21:00,3.6,,,,,,,,1,,,,,,,114.33407113443,30.421139817738,0
e8ed0240a3327a96970319d5,云南过桥米线(大花岭店),美食,小吃快餐店,湖北省,武汉市,江夏区,湖北省武汉市江夏区金樱街海天大厦一楼F9号,e8ed0240a3327a96970319d5,1,0,114.319178,30.424318,13986158969,cater,http://api.map.baidu.com/place/detail?uid=e8ed0240a3327a96970319d5&output=html&source=placeapi_v2,12.0,09:00-21:00,3.8,,,,,,,,5,,,,,,,,,0
1ceffcba09bb66c3e50738f1,味哆面馆(大花岭分店),美食,小吃快餐店,湖北省,武汉市,江夏区,湖北省武汉市江夏区大桥大花岭大学城e3栋,1ceffcba09bb66c3e50738f1,1,0,114.318324,30.420758,15271880928,cater,http://api.map.baidu.com/place/detail?uid=1ceffcba09bb66c3e50738f1&output=html&source=placeapi_v2,,10:30-20:00,3.4,,,,,,,,3,,,,,,,114.31817786689,30.420733933276,0
252e43ff692f038f79dbd2d3,如意馄饨(大花岭店),美食,小吃快餐店,湖北省,武汉市,江夏区,武汉市江夏区文化大道江南新天地一期14号商铺,,1,0,114.326156,30.414897,13296669766,cater,http://api.map.baidu.com/place/detail?uid=252e43ff692f038f79dbd2d3&output=html&source=placeapi_v2,15.0,09:00-21:30,3.8,,,,,,,,0,,,,,,,,,0
98b4d839a676b6459868b411,百岁螺螺蛳粉(大花岭店),美食,小吃快餐店,湖北省,武汉市,江夏区,江夏区金樱街海天大厦一楼金鹰美食城13号档口,98b4d839a676b6459868b411,1,0,114.318906,30.424547,13659800071,cater,http://api.map.baidu.com/place/detail?uid=98b4d839a676b6459868b411&output=html&source=placeapi_v2,,10:00-22:30,3.7,,,,,,,,10,,,,,,,,,0
