uid,name,cat_L1,cat_L2,province,city,area,address,street_id,detail,child_num,loc_lng,loc_lat,telephone,type,detail_url,price,shop_hours,overall_rating,taste_rating,service_rating,environment_rating,facility_rating,hygiene_rating,technology_rating,image_num,comment_num,groupon_num,discount_num,favorite_num,checkin_num,brand,content_tag,naviloc_lng,naviloc_lat,child_num
3d7e354018da461717a1907b,汉南供电公司生产调度综合楼,房地产,写字楼,湖北省,武汉市,汉南区,武汉市汉南区兴城大道(清华园旁边),3d7e354018da461717a1907b,1,0,114.081801,30.321417,,house,http://api.map.baidu.com/place/detail?uid=3d7e354018da461717a1907b&output=html&source=placeapi_v2,,,,,,,,,,,,,,,,,,,,0
ffd6d4036d4b578f17b54be8,农科大厦,房地产,写字楼,湖北省,武汉市,汉南区,武汉市汉南区薇湖路197号,ffd6d4036d4b578f17b54be8,1,0,114.088887,30.311988,,house,http://api.map.baidu.com/place/detail?uid=ffd6d4036d4b578f17b54be8&output=html&source=placeapi_v2,,,4,,,,,,,,,,,,,,,114.08865211888,30.312233135157,0
161a0ed28eabf1535cd4fe20,汉武大厦,房地产,写字楼,湖北省,武汉市,汉南区,武汉市汉南区滨江路315号,161a0ed28eabf1535cd4fe20,1,0,114.090611,30.310894,,house,http://api.map.baidu.com/place/detail?uid=161a0ed28eabf1535cd4fe20&output=html&source=placeapi_v2,,,0,,,,,,,,,,,,,,,114.09077813853,30.310684358845,0
041fc1ffefe0ee4acd04ef2b,纱帽水厂综合楼,房地产,写字楼,湖北省,武汉市,汉南区,湖北省武汉市汉南区纱帽滨江路汉武大厦(纱帽江滩公园附近),041fc1ffefe0ee4acd04ef2b,1,0,114.089084,30.309519,,house,http://api.map.baidu.com/place/detail?uid=041fc1ffefe0ee4acd04ef2b&output=html&source=placeapi_v2,,,,,,,,,,,,,,,,,,114.0894794879,30.309488993468,0
214ba6482bf84e9995f08cbf,圣特立商务中心,房地产,写字楼,湖北省,武汉市,汉南区,武汉市汉南区月亮湾路圣特立・国际花园-A区,214ba6482bf84e9995f08cbf,1,0,114.084739,30.323408,,house,http://api.map.baidu.com/place/detail?uid=214ba6482bf84e9995f08cbf&output=html&source=placeapi_v2,,,,,,,,,,,,,,,,,,114.08462194667,30.323224432728,0
d4034eb397cb08f6c03644e8,汉莎大厦,房地产,写字楼,湖北省,武汉市,汉南区,湖北省武汉市汉南区纱帽正街112号,d4034eb397cb08f6c03644e8,1,0,114.091988,30.314767,,house,http://api.map.baidu.com/place/detail?uid=d4034eb397cb08f6c03644e8&output=html&source=placeapi_v2,,,,,,,,,,,,,,,,,,114.09226466617,30.314605536983,0
b62a8d1fd34ffcced6b74e11,南泰大厦,房地产,写字楼,湖北省,武汉市,汉南区,武汉市汉南区纱河南路南色鑫空,b62a8d1fd34ffcced6b74e11,1,0,114.092732,30.321819,,house,http://api.map.baidu.com/place/detail?uid=b62a8d1fd34ffcced6b74e11&output=html&source=placeapi_v2,,,,,,,,,,,,,,,,,,,,0
0a727db52af03431ebe58224,营销中心,房地产,写字楼,湖北省,武汉市,汉南区,武汉市汉南区纱帽正街大学城・金街,,1,0,114.057482,30.328992,,house,http://api.map.baidu.com/place/detail?uid=0a727db52af03431ebe58224&output=html&source=placeapi_v2,,,,,,,,,,,,,,,,,,,,0
4e22495f11f2f57f018972db,绿地国际创客中心,房地产,写字楼,湖北省,武汉市,汉南区,武汉市汉南区绿地城东100米欧镇奥特莱斯F1,,1,0,114.070818,30.340944,,house,http://api.map.baidu.com/place/detail?uid=4e22495f11f2f57f018972db&output=html&source=placeapi_v2,,,,,,,,,,,,,,,,,,,,0
10ec47baea05f91f9b68b433,城粮综合商住楼,房地产,写字楼,湖北省,武汉市,江夏区,武汉市江夏区中兴街纸坊第二小学,10ec47baea05f91f9b68b433,1,0,114.322561,30.351093,,house,http://api.map.baidu.com/place/detail?uid=10ec47baea05f91f9b68b433&output=html&source=placeapi_v2,,,,,,,,,,,,,,,,,,,,0
186e3cdd8678bfce43e192ef,楚天大厦,房地产,写字楼,湖北省,武汉市,江夏区,湖北省武汉市江夏区文化大道37号,186e3cdd8678bfce43e192ef,1,0,114.328377,30.370293,18107267375,house,http://api.map.baidu.com/place/detail?uid=186e3cdd8678bfce43e192ef&output=html&source=placeapi_v2,,,,,,,,,,,,,,,,,,114.32889881257,30.371199799478,0
15e1e85eb29888a158109323,凡华大楼,房地产,写字楼,湖北省,武汉市,江夏区,武汉市江夏区西交路60号,15e1e85eb29888a158109323,1,0,114.315652,30.351393,,house,http://api.map.baidu.com/place/detail?uid=15e1e85eb29888a158109323&output=html&source=placeapi_v2,,,3,,,,,,,,,,,,,,,114.31555683958,30.351277407975,0
48eb005832cdb0ad2fe67bdf,物资大厦,房地产,写字楼,湖北省,武汉市,江夏区,武汉市江夏区尚城新界2栋1702号,48eb005832cdb0ad2fe67bdf,1,0,114.314466,30.356625,,house,http://api.map.baidu.com/place/detail?uid=48eb005832cdb0ad2fe67bdf&output=html&source=placeapi_v2,,,,,,,,,,,,,,,,,,114.31455699051,30.356810821537,0
d219bb1d7721628bf50e77df,宝恒大厦,房地产,写字楼,湖北省,武汉市,江夏区,武汉市江夏区复江道170号,d219bb1d7721628bf50e77df,1,0,114.320729,30.356453,,house,http://api.map.baidu.com/place/detail?uid=d219bb1d7721628bf50e77df&output=html&source=placeapi_v2,,,0,,,,,,,,,,,,,,,114.32079007643,30.356670595321,0
6108521183dc59a1c51b75df,江夏建管大楼,房地产,写字楼,湖北省,武汉市,江夏区,文化路7号,6108521183dc59a1c51b75df,1,0,114.330487,30.358554,,house,http://api.map.baidu.com/place/detail?uid=6108521183dc59a1c51b75df&output=html&source=placeapi_v2,,,0,,,,,,,,,,,,,,,114.33049348002,30.358427900281,0
e207921cf108967c091cc7df,民主党派办公楼,房地产,写字楼,湖北省,武汉市,江夏区,湖北省武汉市江夏区沙羡街34号,e207921cf108967c091cc7df,1,0,114.322669,30.359931,,house,http://api.map.baidu.com/place/detail?uid=e207921cf108967c091cc7df&output=html&source=placeapi_v2,,,,,,,,,,,,,,,,,,114.32268248185,30.359747635329,0
cf66a05aaba0c8d05fbe86f9,江夏社保大楼,房地产,写字楼,湖北省,武汉市,江夏区,湖北省武汉市江夏区北华街42号,cf66a05aaba0c8d05fbe86f9,1,0,114.321512,30.363256,,house,http://api.map.baidu.com/place/detail?uid=cf66a05aaba0c8d05fbe86f9&output=html&source=placeapi_v2,,,0,,,,,,,,,,,,,,,114.32126183954,30.363211018393,0
89c2cc15adbe4c0d9f09f765,江电大厦,房地产,写字楼,湖北省,武汉市,江夏区,武汉市江夏区西交路199号,89c2cc15adbe4c0d9f09f765,1,0,114.315066,30.353434,,house,http://api.map.baidu.com/place/detail?uid=89c2cc15adbe4c0d9f09f765&output=html&source=placeapi_v2,,,3,,,,,,,,,,,,,,,114.31532290735,30.353155566493,0
2604ab8d775fcd9646e274e2,亲水大厦,房地产,写字楼,湖北省,武汉市,江夏区,文化路36号,2604ab8d775fcd9646e274e2,1,0,114.329656,30.36977,,house,http://api.map.baidu.com/place/detail?uid=2604ab8d775fcd9646e274e2&output=html&source=placeapi_v2,,,,,,,,,,,,,,,,,,114.32966675778,30.369721245139,0
7daa4f28c028266c7702692c,江夏烟草大楼,房地产,写字楼,湖北省,武汉市,江夏区,武汉市江夏区北华街55号,7daa4f28c028266c7702692c,1,0,114.320792,30.362365,,house,http://api.map.baidu.com/place/detail?uid=7daa4f28c028266c7702692c&output=html&source=placeapi_v2,,,,,,,,,,,,,,,,,,114.32094326896,30.362588903624,0
395a266b42d5afaaf50e77d4,江夏城关村综合大楼,房地产,写字楼,湖北省,武汉市,江夏区,湖北省武汉市江夏区湖北江夏区城关村综合大楼,395a266b42d5afaaf50e77d4,1,0,114.339895,30.358326,,house,http://api.map.baidu.com/place/detail?uid=395a266b42d5afaaf50e77d4&output=html&source=placeapi_v2,,,3,,,,,,,,,,,,,,,114.33954104424,30.358539427424,0
2c7e4b28262f33ec77026966,九鼎商务楼,房地产,写字楼,湖北省,武汉市,江夏区,武汉市江夏区熊廷弼街物资大厦,2c7e4b28262f33ec77026966,1,0,114.314604,30.356735,,house,http://api.map.baidu.com/place/detail?uid=2c7e4b28262f33ec77026966&output=html&source=placeapi_v2,,,,,,,,,,,,,,,,,,114.31477382529,30.356764818156,0
1c4024583de2f15396f08c0b,中国人寿保险大楼,房地产,写字楼,湖北省,武汉市,江夏区,湖北省武汉市江夏区纸坊街道复江道301号,,1,0,114.320498,30.359009,,house,http://api.map.baidu.com/place/detail?uid=1c4024583de2f15396f08c0b&output=html&source=placeapi_v2,,,,,,,,,,,,,,,,,,114.32064915206,30.358995623604,0
85dafd80aa3876ff593ac895,城峰乐居大厦,房地产,写字楼,湖北省,武汉市,江夏区,武汉市江夏区纸坊大街929号,85dafd80aa3876ff593ac895,1,0,114.317711,30.348591,,house,http://api.map.baidu.com/place/detail?uid=85dafd80aa3876ff593ac895&output=html&source=placeapi_v2,,,,,,,,,,,,,,,,,,114.31766155771,30.348859323348,0
0058610800d430a546e274df,农资大厦,房地产,写字楼,湖北省,武汉市,江夏区,武汉市江夏区武昌大道778号,0058610800d430a546e274df,1,0,114.315448,30.358398,13554050253,house,http://api.map.baidu.com/place/detail?uid=0058610800d430a546e274df&output=html&source=placeapi_v2,,,0,,,,,,,,,,,,,,,114.31545916143,30.358429866948,0
cb640c793ad78412c26c14b7,规化局大楼,房地产,写字楼,湖北省,武汉市,江夏区,湖北省武汉市江夏区北华街42号,cb640c793ad78412c26c14b7,1,0,114.321081,30.363262,,house,http://api.map.baidu.com/place/detail?uid=cb640c793ad78412c26c14b7&output=html&source=placeapi_v2,,,,,,,,,,,,,,,,,,,,0
5f5876f5e0eaf79fe011037b,江夏信合大楼,房地产,写字楼,湖北省,武汉市,江夏区,武汉市江夏区纸坊大街682号,5f5876f5e0eaf79fe011037b,1,0,114.311777,30.347945,,house,http://api.map.baidu.com/place/detail?uid=5f5876f5e0eaf79fe011037b&output=html&source=placeapi_v2,,,,,,,,,,,,,,,,,,114.31182697988,30.347693834891,0
0f8becb08c3b07c20d3dda3d,物展木材有限公司综合楼,房地产,写字楼,湖北省,武汉市,江夏区,湖北省武汉市江夏区沙羡街82号,0f8becb08c3b07c20d3dda3d,1,0,114.317073,30.360868,,house,http://api.map.baidu.com/place/detail?uid=0f8becb08c3b07c20d3dda3d&output=html&source=placeapi_v2,,,,,,,,,,,,,,,,,,,,0
7524cb4f69a2c23504026fff,秀山大厦,房地产,写字楼,湖北省,武汉市,江夏区,武汉市江夏区武昌大道480号,7524cb4f69a2c23504026fff,1,0,114.308682,30.345038,,house,http://api.map.baidu.com/place/detail?uid=7524cb4f69a2c23504026fff&output=html&source=placeapi_v2,,,0,,,,,,,,,,,,,,,114.3088752423,30.344890038404,0
23116913a178bc80734b8741,公路大厦,房地产,写字楼,湖北省,武汉市,江夏区,武汉市江夏区武昌大道538号,23116913a178bc80734b8741,1,0,114.309984,30.347238,,house,http://api.map.baidu.com/place/detail?uid=23116913a178bc80734b8741&output=html&source=placeapi_v2,,,,,,,,,,,,,,,,,,114.31002839529,30.347132765374,0
07f513255f5a8867d42ce2c9,富丽畅馨园写字楼,房地产,写字楼,湖北省,武汉市,江夏区,武汉市江夏区武昌大道富丽畅馨园,07f513255f5a8867d42ce2c9,1,0,114.320306,30.368942,,house,http://api.map.baidu.com/place/detail?uid=07f513255f5a8867d42ce2c9&output=html&source=placeapi_v2,,,,,,,,,,,,,,,,,,,,0
0ad9833903e7069e41d63eec,营销中心,房地产,写字楼,湖北省,武汉市,江夏区,武汉市江夏区幸福巷龙山观邸,0ad9833903e7069e41d63eec,1,0,114.324649,30.343495,,house,http://api.map.baidu.com/place/detail?uid=0ad9833903e7069e41d63eec&output=html&source=placeapi_v2,,,,,,,,,,,,,,,,,,114.32463696917,30.343677402919,0
f7377f7b2536cb58dc1e524e,轻工供销公司综合楼,房地产,写字楼,湖北省,武汉市,江夏区,湖北省武汉市江夏区武昌大道496号,,1,0,114.308727,30.345712,,house,http://api.map.baidu.com/place/detail?uid=f7377f7b2536cb58dc1e524e&output=html&source=placeapi_v2,,,,,,,,,,,,,,,,,,,,0
5899a9451ef5f1832cb17e1a,江夏民政大楼,房地产,写字楼,湖北省,武汉市,江夏区,武汉市江夏区文化大道江夏区民政局,5899a9451ef5f1832cb17e1a,1,0,114.328876,30.369522,,house,http://api.map.baidu.com/place/detail?uid=5899a9451ef5f1832cb17e1a&output=html&source=placeapi_v2,,,,,,,,,,,,,,,,,,114.32918205639,30.369684148123,0
31d39ee8e44eb601f7b916b6,江夏运营中心,房地产,写字楼,湖北省,武汉市,江夏区,武汉市江夏区武昌大道建颐花园西南侧约50米,31d39ee8e44eb601f7b916b6,1,0,114.311531,30.351452,,house,http://api.map.baidu.com/place/detail?uid=31d39ee8e44eb601f7b916b6&output=html&source=placeapi_v2,,,,,,,,,,,,,,,,,,,,0
64575012921d6ad6db131852,江夏区路桥勘测设计养护中心综合大楼,房地产,写字楼,湖北省,武汉市,江夏区,武汉市江夏区江夏大道公路新区,64575012921d6ad6db131852,1,0,114.338077,30.365215,,house,http://api.map.baidu.com/place/detail?uid=64575012921d6ad6db131852&output=html&source=placeapi_v2,,,,,,,,,,,,,,,,,,,,0
083a55fa1c8d7e04246e981a,富丽杰座,房地产,住宅区,湖北省,武汉市,江夏区,武汉市江夏区文化路30号,083a55fa1c8d7e04246e981a,1,0,114.330869,30.368904,,house,http://api.map.baidu.com/place/detail?uid=083a55fa1c8d7e04246e981a&output=html&source=placeapi_v2,,,5,,,,,,,,,,,,,,,114.32999249594,30.367886806293,0
692a7930db80a4e6d0ff23e3,嘉和盛世名门,购物,家居建材,湖北省,武汉市,江夏区,湖北省武汉市江夏区三潭路4-2-301号2栋,692a7930db80a4e6d0ff23e3,1,0,114.318583,30.348593,,shopping,http://api.map.baidu.com/place/detail?uid=692a7930db80a4e6d0ff23e3&output=html&source=placeapi_v2,,,,,,,,,,,0,,,,,,,114.31861076121,30.34883920828,0
fbc0c437760b968ec42ba1fa,玟莎国际运营中心,房地产,写字楼,湖北省,武汉市,江夏区,武汉市江夏区纸坊街立交桥潞以南(新电信大楼西边)花山美庐2栋1层2室,,1,0,114.336057,30.366179,18569490085,house,http://api.map.baidu.com/place/detail?uid=fbc0c437760b968ec42ba1fa&output=html&source=placeapi_v2,,,,,,,,,,,,,,,,,,,,0
ddb6d290f7ec1f3a6f3e1b1d,江之南广场,房地产,写字楼,湖北省,武汉市,江夏区,武汉市江夏区纸坊大街91号,ddb6d290f7ec1f3a6f3e1b1d,1,0,114.337858,30.34895,,house,http://api.map.baidu.com/place/detail?uid=ddb6d290f7ec1f3a6f3e1b1d&output=html&source=placeapi_v2,,,,,,,,,,,,,,,,,,114.33726132452,30.349110031687,0
8596b636bbab773eda2f2857,郭岭新里-275号,房地产,写字楼,湖北省,武汉市,江夏区,武汉市江夏区城关路金华幼儿园西南侧约70米,8596b636bbab773eda2f2857,1,0,114.333636,30.355934,,house,http://api.map.baidu.com/place/detail?uid=8596b636bbab773eda2f2857&output=html&source=placeapi_v2,,,,,,,,,,,,,,,,,,,,0
e9302946761197a12bb97c7d,郭岭新里-287号,房地产,写字楼,湖北省,武汉市,江夏区,武汉市江夏区城关路金华幼儿园西南侧约50米,e9302946761197a12bb97c7d,1,0,114.333724,30.3561,,house,http://api.map.baidu.com/place/detail?uid=e9302946761197a12bb97c7d&output=html&source=placeapi_v2,,,,,,,,,,,,,,,,,,,,0
9115af0a73a5849a1894c6ec,界兴路118,房地产,写字楼,湖北省,武汉市,江夏区,武汉市江夏区界兴路江夏区五里界中学南侧约110米,9115af0a73a5849a1894c6ec,1,0,114.401273,30.342357,,house,http://api.map.baidu.com/place/detail?uid=9115af0a73a5849a1894c6ec&output=html&source=placeapi_v2,,,,,,,,,,,,,,,,,,,,0
9a8ec7a29df4a35e43afe61b,安吉汽车物流(湖北)有限公司办公楼,房地产,写字楼,湖北省,武汉市,江夏区,武汉市江夏区金龙大街与疏港大道交叉路口往东约150米,9a8ec7a29df4a35e43afe61b,1,0,114.179397,30.384629,,house,http://api.map.baidu.com/place/detail?uid=9a8ec7a29df4a35e43afe61b&output=html&source=placeapi_v2,,,,,,,,,,,,,,,,,,114.17896200121,30.384414760418,0
3b52d5cc6ff2664e90114c65,科创广场,房地产,写字楼,湖北省,武汉市,江夏区,湖北省武汉市江夏区金龙大街与文化大道交叉路口东北约60米,3b52d5cc6ff2664e90114c65,1,0,114.32935,30.382951,,house,http://api.map.baidu.com/place/detail?uid=3b52d5cc6ff2664e90114c65&output=html&source=placeapi_v2,,,,,,,,,,,,,,,,,,114.32934863906,30.383146137708,0
186e3cdd8678bfce43e192ef,楚天大厦,房地产,写字楼,湖北省,武汉市,江夏区,湖北省武汉市江夏区文化大道37号,186e3cdd8678bfce43e192ef,1,0,114.328377,30.370293,18107267375,house,http://api.map.baidu.com/place/detail?uid=186e3cdd8678bfce43e192ef&output=html&source=placeapi_v2,,,,,,,,,,,,,,,,,,114.32889881257,30.371199799478,0
5b7635b832641bbbc72ba14a,江夏区联投广场写字楼-23栋,房地产,写字楼,湖北省,武汉市,江夏区,武汉市江夏区古驿北路联投广场,5b7635b832641bbbc72ba14a,1,0,114.324584,30.379011,,house,http://api.map.baidu.com/place/detail?uid=5b7635b832641bbbc72ba14a&output=html&source=placeapi_v2,,,,,,,,,,,,,,,,,,114.32471414798,30.378933124875,0
9862780f74be65df82288a37,武汉市江夏区通达广场,房地产,写字楼,湖北省,武汉市,江夏区,湖北省武汉市江夏区经济开发区大桥新区办事处文化大道西50米,9862780f74be65df82288a37,1,0,114.328026,30.395334,18627011277,house,http://api.map.baidu.com/place/detail?uid=9862780f74be65df82288a37&output=html&source=placeapi_v2,,,,,,,,,,,,,,,,,,114.32815531744,30.395171978094,0
07d83c8f2be580726e20b91f,侨亚国际文化大厦,房地产,写字楼,湖北省,武汉市,江夏区,湖北省武汉市江夏区文化大道,07d83c8f2be580726e20b91f,1,0,114.327104,30.394207,,house,http://api.map.baidu.com/place/detail?uid=07d83c8f2be580726e20b91f&output=html&source=placeapi_v2,,,3,,,,,,,,,,,,,,,114.32682319954,30.393922504248,0
de4d036b1199e4ca0bccddb9,聚诚怡江大厦,房地产,写字楼,湖北省,武汉市,江夏区,武汉市江夏区红旗街海伦广场西北侧,de4d036b1199e4ca0bccddb9,1,0,114.326201,30.396045,,house,http://api.map.baidu.com/place/detail?uid=de4d036b1199e4ca0bccddb9&output=html&source=placeapi_v2,,,,,,,,,,,,,,,,,,,,0
2604ab8d775fcd9646e274e2,亲水大厦,房地产,写字楼,湖北省,武汉市,江夏区,文化路36号,2604ab8d775fcd9646e274e2,1,0,114.329656,30.36977,,house,http://api.map.baidu.com/place/detail?uid=2604ab8d775fcd9646e274e2&output=html&source=placeapi_v2,,,,,,,,,,,,,,,,,,114.32966675778,30.369721245139,0
d5fe5015da768cb50869d967,科创广场-A栋,房地产,写字楼,湖北省,武汉市,江夏区,武汉市江夏区文化大道水墨江郡-北区西侧约70米,d5fe5015da768cb50869d967,1,0,114.329399,30.382944,,house,http://api.map.baidu.com/place/detail?uid=d5fe5015da768cb50869d967&output=html&source=placeapi_v2,,,,,,,,,,,,,,,,,,,,0
fc767524ce98f4844e776ec4,江夏区机关行政办公楼,房地产,写字楼,湖北省,武汉市,江夏区,文化路99号,fc767524ce98f4844e776ec4,1,0,114.328233,30.381448,,house,http://api.map.baidu.com/place/detail?uid=fc767524ce98f4844e776ec4&output=html&source=placeapi_v2,,,,,,,,,,,,,,,,,,114.32832513042,30.381444509278,0
a7290d4e55be8e4f276e985a,江夏区公安分局办公大楼,房地产,写字楼,湖北省,武汉市,江夏区,武汉市江夏区纸坊镇谭鑫培路7号,a7290d4e55be8e4f276e985a,1,0,114.336807,30.373129,,house,http://api.map.baidu.com/place/detail?uid=a7290d4e55be8e4f276e985a&output=html&source=placeapi_v2,,,,,,,,,,,,,,,,,,114.33680565994,30.37353999307,0
7caccc2ed799368229fc48d2,畅安大厦,房地产,写字楼,湖北省,武汉市,江夏区,武汉市江夏区文化路40号,7caccc2ed799368229fc48d2,1,0,114.329684,30.371835,,house,http://api.map.baidu.com/place/detail?uid=7caccc2ed799368229fc48d2&output=html&source=placeapi_v2,,,0,,,,,,,,,,,,,,,114.3293792587,30.371800964752,0
8f1abe3ad43face4e856fa33,营销中心,房地产,写字楼,湖北省,武汉市,江夏区,武汉市江夏区红旗街枫泽・星都汇,8f1abe3ad43face4e856fa33,1,0,114.321766,30.39597,,house,http://api.map.baidu.com/place/detail?uid=8f1abe3ad43face4e856fa33&output=html&source=placeapi_v2,,,,,,,,,,,,,,,,,,,,0
5899a9451ef5f1832cb17e1a,江夏民政大楼,房地产,写字楼,湖北省,武汉市,江夏区,武汉市江夏区文化大道江夏区民政局,5899a9451ef5f1832cb17e1a,1,0,114.328876,30.369522,,house,http://api.map.baidu.com/place/detail?uid=5899a9451ef5f1832cb17e1a&output=html&source=placeapi_v2,,,,,,,,,,,,,,,,,,114.32918205639,30.369684148123,0
fed837462769ac99f7eafce0,营销中心,房地产,写字楼,湖北省,武汉市,江夏区,武汉市江夏区谭鑫培路流金港都东北侧约290米,,1,0,114.334906,30.373449,,house,http://api.map.baidu.com/place/detail?uid=fed837462769ac99f7eafce0&output=html&source=placeapi_v2,,,,,,,,,,,,,,,,,,,,0
8e38b59971b1b267fbf0cb76,联投广场商业区-2期,房地产,写字楼,湖北省,武汉市,江夏区,武汉市江夏区古驿北路联投广场,8e38b59971b1b267fbf0cb76,1,0,114.326008,30.379329,,house,http://api.map.baidu.com/place/detail?uid=8e38b59971b1b267fbf0cb76&output=html&source=placeapi_v2,,,,,,,,,,,,,,,,,,114.32525179731,30.379337787128,0
3a597754e6722b379b68b4a0,丰泽苑D1-23,房地产,写字楼,湖北省,武汉市,江夏区,武汉市江夏区邬树街丰泽苑,,1,0,114.384383,30.394062,,house,http://api.map.baidu.com/place/detail?uid=3a597754e6722b379b68b4a0&output=html&source=placeapi_v2,,,,,,,,,,,,,,,,,,,,0
0db93992208188cb7702691c,湖北美术学院藏龙岛校区办公楼1,教育培训,高等院校,湖北省,武汉市,江夏区,武汉市江夏区栗庙南路,0db93992208188cb7702691c,1,0,114.421442,30.392343,,education,http://api.map.baidu.com/place/detail?uid=0db93992208188cb7702691c&output=html&source=placeapi_v2,,,,,,,,,,,,,,,,,,114.42170024584,30.392414537372,0
61bcbbda4ef8b94efea77827,湖北美术学院藏龙岛校区办公楼1-东门,出入口,门,湖北省,武汉市,江夏区,湖北省武汉市江夏区栗庙南路,61bcbbda4ef8b94efea77827,1,0,114.421586,30.392374,,life,http://api.map.baidu.com/place/detail?uid=61bcbbda4ef8b94efea77827&output=html&source=placeapi_v2,,,,,,,,,,,,,,,,,,,,0
fc936670a0e862a335b06c1c,藏龙soho,房地产,写字楼,湖北省,武汉市,江夏区,武汉市江夏区环岛路与栗庙路交叉路口往西北约280米,fc936670a0e862a335b06c1c,1,0,114.434335,30.397598,,house,http://api.map.baidu.com/place/detail?uid=fc936670a0e862a335b06c1c&output=html&source=placeapi_v2,,,,,,,,,,,,,,,,,,114.43403357895,30.397757443042,0
e8a5afbb6404b6f21f389410,研发楼,房地产,写字楼,湖北省,武汉市,蔡甸区,武汉市蔡甸区西牛二街宏联铝合金电缆,e8a5afbb6404b6f21f389410,1,0,114.066499,30.433112,,house,http://api.map.baidu.com/place/detail?uid=e8a5afbb6404b6f21f389410&output=html&source=placeapi_v2,,,,,,,,,,,,,,,,,,,,0
6e95017810ea4b0eb5147f50,办公楼,房地产,其他,湖北省,武汉市,蔡甸区,武汉市蔡甸区西牛二街宏联铝合金电缆,6e95017810ea4b0eb5147f50,1,0,114.066351,30.433121,,house,http://api.map.baidu.com/place/detail?uid=6e95017810ea4b0eb5147f50&output=html&source=placeapi_v2,,,,,,,,,,,,,,,,,,114.06629653313,30.432946839348,0
d8b37c5f0b867c4485420e85,南苑二舍727,房地产,写字楼,湖北省,武汉市,洪山区,武汉市洪山区交院大道武汉交通职业学院,d8b37c5f0b867c4485420e85,1,0,114.271049,30.43133,,house,http://api.map.baidu.com/place/detail?uid=d8b37c5f0b867c4485420e85&output=html&source=placeapi_v2,,,,,,,,,,,,,,,,,,,,0
a4b13ef461579a8481288a7c,华中城-1栋,房地产,写字楼,湖北省,武汉市,洪山区,武汉市洪山区红霞大道华中城江南建材物流市场,a4b13ef461579a8481288a7c,1,0,114.270269,30.419563,,house,http://api.map.baidu.com/place/detail?uid=a4b13ef461579a8481288a7c&output=html&source=placeapi_v2,,,,,,,,,,,,,,,,,,,,0
dffd631c3b92ccbc38221cdf,海天大厦,房地产,写字楼,湖北省,武汉市,江夏区,武汉市江夏区金樱街,dffd631c3b92ccbc38221cdf,1,0,114.318979,30.42455,,house,http://api.map.baidu.com/place/detail?uid=dffd631c3b92ccbc38221cdf&output=html&source=placeapi_v2,,,0,,,,,,,,,,,,,,,114.31872484316,30.424893779237,0
22e11407b681cccad5b74e6f,鸿发大厦,房地产,写字楼,湖北省,武汉市,江夏区,武汉市江夏区经济开发区大桥新区办事处文化大道9号大花岭大学城,22e11407b681cccad5b74e6f,1,0,114.317923,30.424541,,house,http://api.map.baidu.com/place/detail?uid=22e11407b681cccad5b74e6f&output=html&source=placeapi_v2,,,,,,,,,,,,,,,,,,114.31788307805,30.424923546483,0
7388dffd18d9a3ebd3ff23df,鸿发大厦-B座,房地产,写字楼,湖北省,武汉市,江夏区,湖北省武汉市江夏区明星小区二路鸿发大厦,7388dffd18d9a3ebd3ff23df,1,0,114.31824,30.424559,,house,http://api.map.baidu.com/place/detail?uid=7388dffd18d9a3ebd3ff23df&output=html&source=placeapi_v2,,,,,,,,,,,,,,,,,,114.31786564733,30.42459323738,0
beabdbf4d36a0fe57069d318,鸿发大厦-A座,房地产,写字楼,湖北省,武汉市,江夏区,武汉市江夏区金樱街鸿发大厦,beabdbf4d36a0fe57069d318,1,0,114.317523,30.424621,,house,http://api.map.baidu.com/place/detail?uid=beabdbf4d36a0fe57069d318&output=html&source=placeapi_v2,,,,,,,,,,,,,,,,,,114.31752386005,30.424809782776,0
071742637ca42e6f2b201af1,联投大厦,房地产,写字楼,湖北省,武汉市,江夏区,武汉市江夏区文化大道399号,071742637ca42e6f2b201af1,1,0,114.327007,30.432166,,house,http://api.map.baidu.com/place/detail?uid=071742637ca42e6f2b201af1&output=html&source=placeapi_v2,,,4,,,,,,,,,,,,,,,114.32772850644,30.431836004346,0
b28948c874bf14199c95deb5,营销中心,房地产,写字楼,湖北省,武汉市,江夏区,武汉市江夏区新华街欧亚达云庭,b28948c874bf14199c95deb5,1,0,114.324392,30.410972,,house,http://api.map.baidu.com/place/detail?uid=b28948c874bf14199c95deb5&output=html&source=placeapi_v2,,,,,,,,,,,,,,,,,,,,0
57afa368f855a69d8e772736,营销中心,房地产,写字楼,湖北省,武汉市,江夏区,武汉市江夏区湖景南路新长江香榭湾,57afa368f855a69d8e772736,1,0,114.328615,30.406456,,house,http://api.map.baidu.com/place/detail?uid=57afa368f855a69d8e772736&output=html&source=placeapi_v2,,,,,,,,,,,,,,,,,,,,0
c396d254848d2257d13ce3a1,招商中心,房地产,写字楼,湖北省,武汉市,江夏区,武汉市江夏区阳光大道东方雨林,c396d254848d2257d13ce3a1,1,0,114.374281,30.412852,,house,http://api.map.baidu.com/place/detail?uid=c396d254848d2257d13ce3a1&output=html&source=placeapi_v2,,,,,,,,,,,,,,,,,,,,0
9efd765c46299d4883a00c77,广信万汇城-写字楼,房地产,写字楼,湖北省,武汉市,江夏区,湖北省武汉市江夏区庙山办事处江夏大道14号,9efd765c46299d4883a00c77,1,0,114.380203,30.426446,,house,http://api.map.baidu.com/place/detail?uid=9efd765c46299d4883a00c77&output=html&source=placeapi_v2,,,,,,,,,,,,,,,,,,,,0
20ae61b752989a6eb04c493f,普生制药研发科技大楼,房地产,写字楼,湖北省,武汉市,江夏区,湖北省武汉市江夏区江夏大道88号新时代广场(庙山商业大楼)正西方向110米,20ae61b752989a6eb04c493f,1,0,114.377974,30.41372,,house,http://api.map.baidu.com/place/detail?uid=20ae61b752989a6eb04c493f&output=html&source=placeapi_v2,,,,,,,,,,,,,,,,,,114.37742276726,30.414296055614,0
c0ded9507e74f19eb2077dbf,高铁凯瑞商务中心,房地产,写字楼,湖北省,武汉市,江夏区,湖北省武汉市江夏区九凤街武汉高铁凯瑞国际酒店,c0ded9507e74f19eb2077dbf,1,0,114.4167,30.43408,(027)81319621,house,http://api.map.baidu.com/place/detail?uid=c0ded9507e74f19eb2077dbf&output=html&source=placeapi_v2,,,0,,,,,,,,,,,,,,,114.4167003672,30.434080157963,0
b4877727aa2116c7e856fab6,景网技术有限公司总部大楼,房地产,写字楼,湖北省,武汉市,江夏区,武汉市江夏区流芳路中冶南方都市环保产业园生产大楼北侧约110米,b4877727aa2116c7e856fab6,1,0,114.453079,30.425182,,house,http://api.map.baidu.com/place/detail?uid=b4877727aa2116c7e856fab6&output=html&source=placeapi_v2,,,,,,,,,,,,,,,,,,,,0
5a57619e53310b0047e27482,创意SOHO,房地产,写字楼,湖北省,武汉市,江夏区,武汉市江夏区流芳路中冶南方都市环保产业园生产大楼西侧约220米,5a57619e53310b0047e27482,1,0,114.450889,30.424442,,house,http://api.map.baidu.com/place/detail?uid=5a57619e53310b0047e27482&output=html&source=placeapi_v2,,,,,,,,,,,,,,,,,,114.45092795229,30.424341141448,0
0fc5aeb38dea1fdda11de99c,拓创大厦,房地产,写字楼,湖北省,武汉市,江夏区,武汉市江夏区经济开发区藏龙岛办事处杨桥湖大道15号,0fc5aeb38dea1fdda11de99c,1,0,114.43593,30.424861,(027)87936018,house,http://api.map.baidu.com/place/detail?uid=0fc5aeb38dea1fdda11de99c&output=html&source=placeapi_v2,,,4,,,,,,,,,,,,,,,114.43638754093,30.425024755062,0
2327b5079c13922bb5f42f3c,魔方大厦,房地产,写字楼,湖北省,武汉市,江夏区,武汉市江夏区佛祖岭街道光谷大道303号光谷芯中心一期魔方大厦,2327b5079c13922bb5f42f3c,1,0,114.459973,30.423862,,house,http://api.map.baidu.com/place/detail?uid=2327b5079c13922bb5f42f3c&output=html&source=placeapi_v2,,,,,,,,,,,,,,,,,,114.4598961557,30.423721565366,0
5ad0c49990a388d9077ce8cf,光谷middot芯中心文渊楼,房地产,写字楼,湖北省,武汉市,江夏区,湖北省武汉市江夏区光谷大道303号光谷middot芯中心2-03栋,5ad0c49990a388d9077ce8cf,1,0,114.459786,30.422632,,house,http://api.map.baidu.com/place/detail?uid=5ad0c49990a388d9077ce8cf&output=html&source=placeapi_v2,,,,,,,,,,,,,,,,,,,,0
d5891392d33fb0df631c67aa,七一九所藏龙岛新区科研综合大楼,房地产,写字楼,湖北省,武汉市,江夏区,湖北省武汉市江夏区光谷CBC对面七一九所内,d5891392d33fb0df631c67aa,1,0,114.43887,30.43325,,house,http://api.map.baidu.com/place/detail?uid=d5891392d33fb0df631c67aa&output=html&source=placeapi_v2,,,,,,,,,,,,,,,,,,114.43922813746,30.432904928745,0
6e6b6bf719faa6a888db73e6,恒际大厦,房地产,写字楼,湖北省,武汉市,江夏区,武汉市江夏区杨桥湖大道13号514-515号,6e6b6bf719faa6a888db73e6,1,0,114.433303,30.423721,,house,http://api.map.baidu.com/place/detail?uid=6e6b6bf719faa6a888db73e6&output=html&source=placeapi_v2,,,,,,,,,,,,,,,,,,,,0
7ace089b5609325162685886,武汉呵尔医疗科技发展有限公司办公大楼,房地产,写字楼,湖北省,武汉市,江夏区,武汉市江夏区光谷大道303号光谷芯中心C3-16栋,7ace089b5609325162685886,1,0,114.459351,30.424101,(027)58906588,house,http://api.map.baidu.com/place/detail?uid=7ace089b5609325162685886&output=html&source=placeapi_v2,,,,,,,,,,,,,,,,,,,,0
d9293a27ef29d18caeb22a7f,楚天综合楼,房地产,写字楼,湖北省,武汉市,江夏区,武汉市江夏区杨桥湖大道8号,d9293a27ef29d18caeb22a7f,1,0,114.436864,30.426951,,house,http://api.map.baidu.com/place/detail?uid=d9293a27ef29d18caeb22a7f&output=html&source=placeapi_v2,,,,,,,,,,,,,,,,,,114.43670194786,30.427103400102,0
3dacd83257b18d52f32d833b,拓创大厦万家如意混沌公司-g栋,房地产,写字楼,湖北省,武汉市,江夏区,湖北省武汉市江夏区藏龙岛办事处杨桥湖大道15号拓创大厦万家如意混沌公司g栋,3dacd83257b18d52f32d833b,1,0,114.435876,30.424799,,house,http://api.map.baidu.com/place/detail?uid=3dacd83257b18d52f32d833b&output=html&source=placeapi_v2,,,,,,,,,,,,,,,,,,,,0
3f52cec3ba7abbc676e5b6de,武汉研创中心,公司企业,园区,湖北省,武汉市,江夏区,湖北省武汉市江夏区杨桥湖大道27号西区21栋,3f52cec3ba7abbc676e5b6de,1,0,114.431348,30.42893,(027)81787777,house,http://api.map.baidu.com/place/detail?uid=3f52cec3ba7abbc676e5b6de&output=html&source=placeapi_v2,,,0,,,,,,,,,,,,,,,114.43292906472,30.429384408532,0
733330f0365c863b28201ac8,杨桥湖大道19,房地产,写字楼,湖北省,武汉市,江夏区,杨桥湖大道辅路,733330f0365c863b28201ac8,1,0,114.438567,30.427199,,house,http://api.map.baidu.com/place/detail?uid=733330f0365c863b28201ac8&output=html&source=placeapi_v2,,,,,,,,,,,,,,,,,,,,0
fb03f356226458fd60180919,中国石油综合楼,房地产,写字楼,湖北省,武汉市,江夏区,凤凰山街(东湖中石油昆仑燃气东湖天然气门站),fb03f356226458fd60180919,1,0,114.487762,30.433292,,house,http://api.map.baidu.com/place/detail?uid=fb03f356226458fd60180919&output=html&source=placeapi_v2,,,,,,,,,,,,,,,,,,114.48779493233,30.433227230352,0
6f6b69a17b0e658d283a9f90,武汉东湖综合保税区创星汇自贸金融大厦,房地产,写字楼,湖北省,武汉市,江夏区,湖北省武汉市江夏区光谷三路777号,,1,0,114.487898,30.434636,(027)87990999,house,http://api.map.baidu.com/place/detail?uid=6f6b69a17b0e658d283a9f90&output=html&source=placeapi_v2,,,0,,,,,,,,,,,,,,,114.48795214298,30.434460544928,0
2197f59056a1507e077ce8f3,自贸科技金融中心,房地产,写字楼,湖北省,武汉市,江夏区,武汉市江夏区光谷三路国际青年公寓东北侧约60米,,1,0,114.487645,30.435485,,house,http://api.map.baidu.com/place/detail?uid=2197f59056a1507e077ce8f3&output=html&source=placeapi_v2,,,,,,,,,,,,,,,,,,,,0
fb7b20eb4c6af19b9e9d6876,武汉东湖综合保税区a塔楼,房地产,写字楼,湖北省,武汉市,江夏区,武汉市江夏区光谷三路777号湖北城区武汉东湖综合保税区a塔楼,fb7b20eb4c6af19b9e9d6876,1,0,114.489246,30.436186,,house,http://api.map.baidu.com/place/detail?uid=fb7b20eb4c6af19b9e9d6876&output=html&source=placeapi_v2,,,,,,,,,,,,,,,,,,114.48948558193,30.436457330245,0
275ee50fd43bd717276e9801,L山政府职工楼,房地产,写字楼,湖北省,武汉市,蔡甸区,武汉市蔡甸区L山路园丁园东侧约230米,275ee50fd43bd717276e9801,1,0,114.021821,30.458667,,house,http://api.map.baidu.com/place/detail?uid=275ee50fd43bd717276e9801&output=html&source=placeapi_v2,,,,,,,,,,,,,,,,,,,,0
58bc5b7d52aa1cb5774ff1fa,常福国际商务广场,房地产,其他,湖北省,武汉市,蔡甸区,武汉市蔡甸区白鹤泉东街189号,58bc5b7d52aa1cb5774ff1fa,1,0,114.052002,30.455576,,house,http://api.map.baidu.com/place/detail?uid=58bc5b7d52aa1cb5774ff1fa&output=html&source=placeapi_v2,,,0,,,,,,,,,,,,,,,114.05317923443,30.455709942909,0
f3ffcdf19d5dbc755cd4feb6,常福国际商务广场-1A栋,房地产,写字楼,湖北省,武汉市,蔡甸区,武汉市蔡甸区玛瑙三路常福商务广场,f3ffcdf19d5dbc755cd4feb6,1,0,114.050368,30.45531,,house,http://api.map.baidu.com/place/detail?uid=f3ffcdf19d5dbc755cd4feb6&output=html&source=placeapi_v2,,,,,,,,,,,,,,,,,,,,0
e1d0cdb8c958e9abb11e369f,常福国际商务广场-1B栋,房地产,写字楼,湖北省,武汉市,蔡甸区,武汉市蔡甸区白鹤泉东街常福商务广场,e1d0cdb8c958e9abb11e369f,1,0,114.051327,30.455273,,house,http://api.map.baidu.com/place/detail?uid=e1d0cdb8c958e9abb11e369f&output=html&source=placeapi_v2,,,,,,,,,,,,,,,,,,,,0
a0a904c88b27e911dc1e52d2,常福国际商务广场-2栋,房地产,写字楼,湖北省,武汉市,蔡甸区,湖北省武汉市蔡甸区福康路常福工业园常福国际商务广场,a0a904c88b27e911dc1e52d2,1,0,114.052512,30.455304,,house,http://api.map.baidu.com/place/detail?uid=a0a904c88b27e911dc1e52d2&output=html&source=placeapi_v2,,,,,,,,,,,,,,,,,,114.05224642231,30.455167824528,0
43766a73d3bb092cc3364478,营销中心,房地产,写字楼,湖北省,武汉市,蔡甸区,武汉市蔡甸区康湾二街与玛瑙一路交叉路口往东北约120米,,1,0,114.061485,30.453381,,house,http://api.map.baidu.com/place/detail?uid=43766a73d3bb092cc3364478&output=html&source=placeapi_v2,,,,,,,,,,,,,,,,,,,,0
567f8fef1f16b646b1077ddf,东风延锋技术中心大楼,房地产,写字楼,湖北省,武汉市,蔡甸区,全力三路与朱山湖大道交叉口东150米,567f8fef1f16b646b1077ddf,1,0,114.095315,30.453286,,house,http://api.map.baidu.com/place/detail?uid=567f8fef1f16b646b1077ddf&output=html&source=placeapi_v2,,,,,,,,,,,,,,,,,,,,0
c0dcaf243f6ff86fb817e7dd,小熊U租智慧办公产业园,房地产,写字楼,湖北省,武汉市,洪山区,武汉市洪山区建群一路武汉市亚中青菱工业园东侧约90米,,1,0,114.253896,30.462168,,house,http://api.map.baidu.com/place/detail?uid=c0dcaf243f6ff86fb817e7dd&output=html&source=placeapi_v2,,,,,,,,,,,,,,,,,,114.25394398253,30.462234315214,0
3ad3c86f5ba0a4f652e5c585,科技产业大楼,房地产,写字楼,湖北省,武汉市,洪山区,武汉市洪山区黄家湖西路武汉工商学院弘德楼北侧约100米,,1,0,114.27736,30.463069,,house,http://api.map.baidu.com/place/detail?uid=3ad3c86f5ba0a4f652e5c585&output=html&source=placeapi_v2,,,,,,,,,,,,,,,,,,,,0
2a24ca3353554385f4eafc41,武汉科技大楼交通楼,房地产,写字楼,湖北省,武汉市,洪山区,武汉市洪山区黄家湖四街武汉科技大学(黄家湖校区),2a24ca3353554385f4eafc41,1,0,114.272762,30.442397,,house,http://api.map.baidu.com/place/detail?uid=2a24ca3353554385f4eafc41&output=html&source=placeapi_v2,,,,,,,,,,,,,,,,,,,,0
4efe2c5ceb7dd9a23ce2314c,李桥创意大厦,房地产,写字楼,湖北省,武汉市,洪山区,文化大道与文化大道立交桥交叉口西1000米,4efe2c5ceb7dd9a23ce2314c,1,0,114.325817,30.458595,,house,http://api.map.baidu.com/place/detail?uid=4efe2c5ceb7dd9a23ce2314c&output=html&source=placeapi_v2,,,,,,,,,,,,,,,,,,114.32630033273,30.457981491953,0
d101fd0f54219478c82915c7,山王大厦,房地产,写字楼,湖北省,武汉市,洪山区,武汉市洪山区S113,d101fd0f54219478c82915c7,1,0,114.318951,30.457754,,house,http://api.map.baidu.com/place/detail?uid=d101fd0f54219478c82915c7&output=html&source=placeapi_v2,,,3,,,,,,,,,,,,,,,114.31905613737,30.45793071283,0
f94b3669728278cac056acab,软通大楼,房地产,写字楼,湖北省,武汉市,洪山区,武汉市洪山区文化大道553号,f94b3669728278cac056acab,1,0,114.325833,30.458612,,house,http://api.map.baidu.com/place/detail?uid=f94b3669728278cac056acab&output=html&source=placeapi_v2,,,,,,,,,,,,,,,,,,114.32595887603,30.458444575257,0
fe6cf8397fb254d57ab55cfa,巨成大厦,房地产,写字楼,湖北省,武汉市,江夏区,湖北省武汉市江夏区武大园路4号,fe6cf8397fb254d57ab55cfa,1,0,114.411001,30.460572,,house,http://api.map.baidu.com/place/detail?uid=fe6cf8397fb254d57ab55cfa&output=html&source=placeapi_v2,,,0,,,,,,,,,,,,,,,114.4114415026,30.46055851605,0
a5d870c93284329d9cf77980,徽商大厦,房地产,写字楼,湖北省,武汉市,江夏区,武汉市江夏区武大园路2号,a5d870c93284329d9cf77980,1,0,114.409574,30.460897,(027)87970533,house,http://api.map.baidu.com/place/detail?uid=a5d870c93284329d9cf77980&output=html&source=placeapi_v2,,,0,,,,,,,,,,,,,,,114.40977965088,30.461554630337,0
6c898925090a657d744ff17f,天喻信息楼,房地产,写字楼,湖北省,武汉市,江夏区,湖北省武汉市江夏区大学园路1号,6c898925090a657d744ff17f,1,0,114.406884,30.456694,,house,http://api.map.baidu.com/place/detail?uid=6c898925090a657d744ff17f&output=html&source=placeapi_v2,,,5,,,,,,,,,,,,,,,114.40686680813,30.457330963744,0
3147023f69bbc5bc764ff1ba,腾睿大厦,房地产,写字楼,湖北省,武汉市,江夏区,华师园北路6号,3147023f69bbc5bc764ff1ba,1,0,114.398974,30.464394,,house,http://api.map.baidu.com/place/detail?uid=3147023f69bbc5bc764ff1ba&output=html&source=placeapi_v2,,,,,,,,,,,,,,,,,,114.39921570294,30.463810827576,0
07880a015fdc1bd70b69d904,豪迈大厦,房地产,写字楼,湖北省,武汉市,江夏区,武汉市江夏区武大园一路11号武汉大学科技园兴业楼旁,07880a015fdc1bd70b69d904,1,0,114.413899,30.461436,(027)87196125,house,http://api.map.baidu.com/place/detail?uid=07880a015fdc1bd70b69d904&output=html&source=placeapi_v2,,,0,,,,,,,,,,,,,,,114.41428024233,30.461670855714,0
3aec957df82fc15226e0a05b,a写字楼,房地产,写字楼,湖北省,武汉市,江夏区,武汉市江夏区武大园路2号,3aec957df82fc15226e0a05b,1,0,114.409861,30.461204,(027)87970533,house,http://api.map.baidu.com/place/detail?uid=3aec957df82fc15226e0a05b&output=html&source=placeapi_v2,,,,,,,,,,,,,,,,,,,,0
48e97e5fb3399fb0095cb3d1,徽商大厦-A座,房地产,写字楼,湖北省,武汉市,江夏区,东湖开发区武汉大学科技园武大园路8号宏业楼101室附近,48e97e5fb3399fb0095cb3d1,1,0,114.409799,30.461222,,house,http://api.map.baidu.com/place/detail?uid=48e97e5fb3399fb0095cb3d1&output=html&source=placeapi_v2,,,,,,,,,,,,,,,,,,114.40959239011,30.461293952753,0
5516dfb4234bc2e97f29bd32,武大科技园兴业楼南楼,房地产,写字楼,湖北省,武汉市,江夏区,湖北省武汉市东湖高新区大学园路武大科技园,5516dfb4234bc2e97f29bd32,1,0,114.412956,30.460406,,house,http://api.map.baidu.com/place/detail?uid=5516dfb4234bc2e97f29bd32&output=html&source=placeapi_v2,,,,,,,,,,,,,,,,,,114.41290021151,30.460234709923,0
892963e48a1a681ccf06a432,华工科技园・创智大厦B,房地产,写字楼,湖北省,武汉市,江夏区,武汉市江夏区汤逊湖北路华工科技园・创新基地,892963e48a1a681ccf06a432,1,0,114.40811,30.447356,,house,http://api.map.baidu.com/place/detail?uid=892963e48a1a681ccf06a432&output=html&source=placeapi_v2,,,,,,,,,,,,,,,,,,114.40816434576,30.447269485833,0
72e57fd71895e1d2f8dc8518,兴业楼,房地产,写字楼,湖北省,武汉市,江夏区,武汉市江夏区武大园路5-2号,72e57fd71895e1d2f8dc8518,1,0,114.412938,30.460399,,house,http://api.map.baidu.com/place/detail?uid=72e57fd71895e1d2f8dc8518&output=html&source=placeapi_v2,,,4,,,,,,,,,,,,,,,114.41321125877,30.459701909713,0
5d602ceeee810e6ef7b916e7,武大科技园兴业楼北楼,房地产,写字楼,湖北省,武汉市,江夏区,武汉市江夏区武汉大学科技园兴业楼北楼1单元4层,5d602ceeee810e6ef7b916e7,1,0,114.412968,30.460987,,house,http://api.map.baidu.com/place/detail?uid=5d602ceeee810e6ef7b916e7&output=html&source=placeapi_v2,,,5,,,,,,,,,,,,,,,114.41290021151,30.460234709923,0
1aebfe74a90cb3c761685815,徽商大厦B,房地产,写字楼,湖北省,武汉市,江夏区,武汉市江夏区武大园路徽商大厦正门西南侧约80米,1aebfe74a90cb3c761685815,1,0,114.409409,30.460487,,house,http://api.map.baidu.com/place/detail?uid=1aebfe74a90cb3c761685815&output=html&source=placeapi_v2,,,,,,,,,,,,,,,,,,114.40924074842,30.460635802155,0
843429a730a112f35e17c394,佩尔中心C座,房地产,写字楼,湖北省,武汉市,江夏区,武汉市江夏区滨湖路佩尔中心,843429a730a112f35e17c394,1,0,114.406037,30.445732,,house,http://api.map.baidu.com/place/detail?uid=843429a730a112f35e17c394&output=html&source=placeapi_v2,,,,,,,,,,,,,,,,,,114.4062468821,30.445492085186,0
8b38bbb14b86772926d2bb09,b写字楼,房地产,写字楼,湖北省,武汉市,江夏区,武汉市江夏区大学园路徽商大厦正门西南侧约90米,8b38bbb14b86772926d2bb09,1,0,114.409218,30.46057,,house,http://api.map.baidu.com/place/detail?uid=8b38bbb14b86772926d2bb09&output=html&source=placeapi_v2,,,,,,,,,,,,,,,,,,,,0
0385691ae522ab699e9d683b,华工科技园创业SOHO,房地产,写字楼,湖北省,武汉市,江夏区,湖北省武汉市洪山区华师园北路武汉大学科技园科技园公寓旁,0385691ae522ab699e9d683b,1,0,114.408295,30.460436,,house,http://api.map.baidu.com/place/detail?uid=0385691ae522ab699e9d683b&output=html&source=placeapi_v2,,,,,,,,,,,,,,,,,,114.40875369166,30.460041033876,0
f4cb3fb0dff30aef455726d3,宇辰大厦,房地产,写字楼,湖北省,武汉市,江夏区,武汉市江夏区大学园路16号,f4cb3fb0dff30aef455726d3,1,0,114.406586,30.460134,,house,http://api.map.baidu.com/place/detail?uid=f4cb3fb0dff30aef455726d3&output=html&source=placeapi_v2,,,0,,,,,,,,,,,,,,,114.40704880662,30.460208165056,0
31509ebeb38355dea6da3991,创业楼,房地产,写字楼,湖北省,武汉市,江夏区,湖北省武汉市江夏区武大科技园武大园一路创业楼,31509ebeb38355dea6da3991,1,0,114.417183,30.463142,,house,http://api.map.baidu.com/place/detail?uid=31509ebeb38355dea6da3991&output=html&source=placeapi_v2,,,2,,,,,,,,,,,,,,,114.4165978418,30.463375686348,0
6f36ac91f48e0a031d580038,东湖高新区国家大学科技园知源楼-A座,房地产,写字楼,湖北省,武汉市,江夏区,湖北省武汉市江夏区汤逊湖北路8号,6f36ac91f48e0a031d580038,1,0,114.398618,30.45736,,house,http://api.map.baidu.com/place/detail?uid=6f36ac91f48e0a031d580038&output=html&source=placeapi_v2,,,,,,,,,,,,,,,,,,,,0
ef88e1a3f4a5f4bf441a3287,武汉市华科园一路现代SOHO楼,房地产,其他,湖北省,武汉市,江夏区,武汉市江夏区大学园路武汉大学科技园,ef88e1a3f4a5f4bf441a3287,1,0,114.408901,30.460365,,house,http://api.map.baidu.com/place/detail?uid=ef88e1a3f4a5f4bf441a3287&output=html&source=placeapi_v2,,,,,,,,,,,,,,,,,,,,0
fb21b2a69e30eca72202209a,宏业楼,房地产,写字楼,湖北省,武汉市,江夏区,武汉市江夏区武大园路8号,fb21b2a69e30eca72202209a,1,0,114.413239,30.459131,,house,http://api.map.baidu.com/place/detail?uid=fb21b2a69e30eca72202209a&output=html&source=placeapi_v2,,,5,,,,,,,,,,,,,,,114.41311233827,30.459476761134,0
88b0805fc6f709bef32d8387,豪迈大厦3栋研发楼,房地产,写字楼,湖北省,武汉市,江夏区,武汉市江夏区武大园一路11号武汉大学科技园兴业楼旁,88b0805fc6f709bef32d8387,1,0,114.414517,30.461343,(027)87196125,house,http://api.map.baidu.com/place/detail?uid=88b0805fc6f709bef32d8387&output=html&source=placeapi_v2,,,,,,,,,,,,,,,,,,114.41416949624,30.461369781344,0
9ca9ffd638b06c1aad31e5f4,武大科技园-慧业楼,房地产,写字楼,湖北省,武汉市,江夏区,武汉市江夏区武大园一路与第五大道交叉路口往南约50米(武汉大学科技园),9ca9ffd638b06c1aad31e5f4,1,0,114.417077,30.463598,,house,http://api.map.baidu.com/place/detail?uid=9ca9ffd638b06c1aad31e5f4&output=html&source=placeapi_v2,,,,,,,,,,,,,,,,,,114.4170266668,30.463703809663,0
94371136562a694e9c09f741,创新大楼,房地产,写字楼,湖北省,武汉市,江夏区,武汉市江夏区华师园路5号,94371136562a694e9c09f741,1,0,114.397711,30.464415,,house,http://api.map.baidu.com/place/detail?uid=94371136562a694e9c09f741&output=html&source=placeapi_v2,,,,,,,,,,,,,,,,,,114.39759775231,30.464215329766,0
3d457b01f86a4da99222e0af,招商租赁中心,房地产,写字楼,湖北省,武汉市,江夏区,武汉市江夏区华师园北路光谷科技港,,1,0,114.405742,30.462183,,house,http://api.map.baidu.com/place/detail?uid=3d457b01f86a4da99222e0af&output=html&source=placeapi_v2,,,,,,,,,,,,,,,,,,,,0
78814067765d8dafd7851ffc,力源信息大厦,房地产,写字楼,湖北省,武汉市,江夏区,湖北省武汉市江夏区武大园三路5号,78814067765d8dafd7851ffc,1,0,114.423991,30.458441,,house,http://api.map.baidu.com/place/detail?uid=78814067765d8dafd7851ffc&output=html&source=placeapi_v2,,,,,,,,,,,,,,,,,,114.4239150082,30.458390414348,0
810e7b909c0fed1929201a3f,腾睿大厦B座,房地产,写字楼,湖北省,武汉市,江夏区,武汉市江夏区华师园北路腾睿大厦,810e7b909c0fed1929201a3f,1,0,114.399,30.464543,,house,http://api.map.baidu.com/place/detail?uid=810e7b909c0fed1929201a3f&output=html&source=placeapi_v2,,,,,,,,,,,,,,,,,,114.39904477697,30.464579624068,0
26f54facf81324717c29bd54,武大GEO办公大厦,房地产,写字楼,湖北省,武汉市,江夏区,湖北省武汉市江夏区东湖高新区武大科技园,26f54facf81324717c29bd54,1,0,114.412622,30.460074,,house,http://api.map.baidu.com/place/detail?uid=26f54facf81324717c29bd54&output=html&source=placeapi_v2,,,,,,,,,,,,,,,,,,,,0
43b6d433c4468b660c3dda39,腾睿大厦A座,房地产,写字楼,湖北省,武汉市,江夏区,武汉市江夏区华师园一路腾睿大厦,,1,0,114.398854,30.463897,,house,http://api.map.baidu.com/place/detail?uid=43b6d433c4468b660c3dda39&output=html&source=placeapi_v2,,,,,,,,,,,,,,,,,,114.39886360042,30.463822746395,0
431369cc73ef266e2bb97c6f,光谷科技港-A1栋,房地产,写字楼,湖北省,武汉市,洪山区,湖北省武汉市洪山区关东街道华师园北路18号,431369cc73ef266e2bb97c6f,1,0,114.405016,30.463004,,house,http://api.map.baidu.com/place/detail?uid=431369cc73ef266e2bb97c6f&output=html&source=placeapi_v2,,,,,,,,,,,,,,,,,,,,0
deadf7d6dac36c6e018972f9,航天恒星大厦,房地产,写字楼,湖北省,武汉市,江夏区,武汉市江夏区武大园四路2-4号,deadf7d6dac36c6e018972f9,1,0,114.415392,30.461855,,house,http://api.map.baidu.com/place/detail?uid=deadf7d6dac36c6e018972f9&output=html&source=placeapi_v2,,,,,,,,,,,,,,,,,,,,0
e15fd6b8e8b6944f306212b4,写字楼办公楼招商,房地产,写字楼,湖北省,武汉市,江夏区,武汉市江夏区江夏大道禾悦酒店(武汉汤逊湖店)北侧约60米,,1,0,114.391778,30.450552,,house,http://api.map.baidu.com/place/detail?uid=e15fd6b8e8b6944f306212b4&output=html&source=placeapi_v2,,,,,,,,,,,,,,,,,,,,0
eed12eef6e03744b213bf2ad,豪迈大厦-a栋,房地产,写字楼,湖北省,武汉市,江夏区,武汉市江夏区豪迈大厦a栋,eed12eef6e03744b213bf2ad,1,0,114.414083,30.46164,,house,http://api.map.baidu.com/place/detail?uid=eed12eef6e03744b213bf2ad&output=html&source=placeapi_v2,,,,,,,,,,,,,,,,,,114.41408306247,30.461583421668,0
e5e97191eb95fb82901fc96f,航天数码大厦,房地产,写字楼,湖北省,武汉市,江夏区,武汉市江夏区武大园四路世纪皇城时尚酒店正门北侧约50米,e5e97191eb95fb82901fc96f,1,0,114.415394,30.461865,,house,http://api.map.baidu.com/place/detail?uid=e5e97191eb95fb82901fc96f&output=html&source=placeapi_v2,,,,,,,,,,,,,,,,,,,,0
9d5a21b744c737114e776efd,长江企业中心,房地产,写字楼,湖北省,武汉市,江夏区,武汉市江夏区华师园路光谷科技港,,1,0,114.404647,30.461937,(027)81772088,house,http://api.map.baidu.com/place/detail?uid=9d5a21b744c737114e776efd&output=html&source=placeapi_v2,,,,,,,,,,,,,,,,,,,,0
ac2a5021b0cdd66fabf7296d,当代国际花园十二区1栋-A座,房地产,写字楼,湖北省,武汉市,江夏区,武汉市江夏区郑桥小路当代国际花园,,1,0,114.421666,30.46547,,house,http://api.map.baidu.com/place/detail?uid=ac2a5021b0cdd66fabf7296d&output=html&source=placeapi_v2,,,,,,,,,,,,,,,,,,114.42138802359,30.465341162211,0
14ef54f21f450fa417948e5c,当代国际花园-A座,房地产,内部楼栋,湖北省,武汉市,江夏区,湖北省武汉市江夏区郑桥小路当代国际花园国际十三区1栋,14ef54f21f450fa417948e5c,1,0,114.422027,30.464294,,house,http://api.map.baidu.com/place/detail?uid=14ef54f21f450fa417948e5c&output=html&source=placeapi_v2,,,,,,,,,,,,,,,,,,,,0
057f0a6e4adcc1504f3a5943,现代服务基地1号研发楼,房地产,写字楼,湖北省,武汉市,江夏区,武汉市江夏区大学园路13号-1号,057f0a6e4adcc1504f3a5943,1,0,114.408962,30.459929,,house,http://api.map.baidu.com/place/detail?uid=057f0a6e4adcc1504f3a5943&output=html&source=placeapi_v2,,,,,,,,,,,,,,,,,,114.40960007062,30.459375045222,0
435bfd1620f4b8ac3ce23144,华工科技园・创智大厦,房地产,写字楼,湖北省,武汉市,江夏区,华中科技大学科技园创新基地旁,435bfd1620f4b8ac3ce23144,1,0,114.40794,30.447795,,life,http://api.map.baidu.com/place/detail?uid=435bfd1620f4b8ac3ce23144&output=html&source=placeapi_v2,,,,,,,,,,,,,,,,,,114.40879159566,30.447451516763,0
346f0f88f60f24e915c9052d,光谷科技港-2A栋,房地产,写字楼,湖北省,武汉市,洪山区,湖北省武汉市洪山区关东街道东湖高新区华师园北路,346f0f88f60f24e915c9052d,1,0,114.406433,30.462603,,house,http://api.map.baidu.com/place/detail?uid=346f0f88f60f24e915c9052d&output=html&source=placeapi_v2,,,,,,,,,,,,,,,,,,114.40646938789,30.462717755485,0
98545ed540e12088df1e527f,东湖高新区大学科技园-知乐楼,房地产,写字楼,湖北省,武汉市,江夏区,湖北省武汉市江夏区汤逊湖北路8号,98545ed540e12088df1e527f,1,0,114.396938,30.456364,,house,http://api.map.baidu.com/place/detail?uid=98545ed540e12088df1e527f&output=html&source=placeapi_v2,,,,,,,,,,,,,,,,,,114.39670492108,30.456418864755,0
858c9d91fdf4065bf7b916c5,武大航域-二区,房地产,写字楼,湖北省,武汉市,江夏区,武汉市江夏区武大园东路与武大园二路交叉路口往东北约100米,858c9d91fdf4065bf7b916c5,1,0,114.417029,30.461675,,house,http://api.map.baidu.com/place/detail?uid=858c9d91fdf4065bf7b916c5&output=html&source=placeapi_v2,,,0,,,,,,,,,,,,,,,114.4161486585,30.461562421534,0
b43748c6ae8bc568744ff119,武大慧园-3号楼,房地产,写字楼,湖北省,武汉市,江夏区,湖北省武汉市江夏区光谷武汉大学科技园武大慧园3号楼,b43748c6ae8bc568744ff119,1,0,114.416076,30.46245,,house,http://api.map.baidu.com/place/detail?uid=b43748c6ae8bc568744ff119&output=html&source=placeapi_v2,,,5,,,,,,,,,,,,,,,114.41607851339,30.462672315866,0
a6ae94dbc3d223b976e5b64f,慧园楼,房地产,写字楼,湖北省,武汉市,江夏区,武汉市江夏区武大园东路11号,a6ae94dbc3d223b976e5b64f,1,0,114.415597,30.462693,,house,http://api.map.baidu.com/place/detail?uid=a6ae94dbc3d223b976e5b64f&output=html&source=placeapi_v2,,,,,,,,,,,,,,,,,,114.41597236964,30.462844222265,0
0115d7c087874321ad0457c5,武大科技园慧园楼-1号楼,房地产,写字楼,湖北省,武汉市,江夏区,东湖开发区大学园路武汉大学科技园,0115d7c087874321ad0457c5,1,0,114.417108,30.463482,,house,http://api.map.baidu.com/place/detail?uid=0115d7c087874321ad0457c5&output=html&source=placeapi_v2,,,0,,,,,,,,,,,,,,,114.41716587361,30.463680719627,0
d2fd31bff0c3ebc43fe231c4,武大航域二区樱花墅-A7栋,房地产,写字楼,湖北省,武汉市,江夏区,武汉市江夏区武大园东路与武大园二路交叉路口往东北约100米武大航域二区樱花墅A7栋,d2fd31bff0c3ebc43fe231c4,1,0,114.416799,30.460505,,house,http://api.map.baidu.com/place/detail?uid=d2fd31bff0c3ebc43fe231c4&output=html&source=placeapi_v2,,,,,,,,,,,,,,,,,,114.41678692074,30.460425695511,0
a6278fffcbf8b103cafa5f25,中共湖北省司法厅党委党校-后勤楼,房地产,写字楼,湖北省,武汉市,江夏区,武汉市江夏区三园路中共湖北省司法厅党委党校,a6278fffcbf8b103cafa5f25,1,0,114.39815,30.441639,,house,http://api.map.baidu.com/place/detail?uid=a6278fffcbf8b103cafa5f25&output=html&source=placeapi_v2,,,,,,,,,,,,,,,,,,,,0
288a6ac981411e3a882fb524,行政办公区,房地产,写字楼,湖北省,武汉市,江夏区,武汉市江夏区青藏路武汉铁路职业技术学院(新校区),288a6ac981411e3a882fb524,1,0,114.414607,30.438614,,house,http://api.map.baidu.com/place/detail?uid=288a6ac981411e3a882fb524&output=html&source=placeapi_v2,,,,,,,,,,,,,,,,,,,,0
f9164b25d7d425e3461a32ee,武汉地铁佛祖岭车辆段综合楼,房地产,写字楼,湖北省,武汉市,江夏区,武汉市江夏区高新六路25号,,1,0,114.453936,30.447595,,house,http://api.map.baidu.com/place/detail?uid=f9164b25d7d425e3461a32ee&output=html&source=placeapi_v2,,,,,,,,,,,,,,,,,,114.45403939961,30.447140329054,0
77d35269ba01e114eee4a542,光谷汇金中心-2期,房地产,写字楼,湖北省,武汉市,江夏区,湖北省武汉市江夏区金融港路,77d35269ba01e114eee4a542,1,0,114.438605,30.457457,,house,http://api.map.baidu.com/place/detail?uid=77d35269ba01e114eee4a542&output=html&source=placeapi_v2,,,,,,,,,,,,,,,,,,114.43944195394,30.45716415196,0
c52cf6091859ef644f6d46d1,九江银行武汉研发中心办公楼,房地产,写字楼,湖北省,武汉市,江夏区,湖北省武汉市江夏区流芳园西路光谷汇金中心7B栋,c52cf6091859ef644f6d46d1,1,0,114.438648,30.458746,,house,http://api.map.baidu.com/place/detail?uid=c52cf6091859ef644f6d46d1&output=html&source=placeapi_v2,,,,,,,,,,,,,,,,,,114.43872335085,30.458765925851,0
fefe42ea81375eaf94ca07a9,光谷金融港B18,房地产,写字楼,湖北省,武汉市,江夏区,湖北省武汉市江夏区光谷金融港B18栋,fefe42ea81375eaf94ca07a9,1,0,114.434638,30.463916,,house,http://api.map.baidu.com/place/detail?uid=fefe42ea81375eaf94ca07a9&output=html&source=placeapi_v2,,,5,,,,,,,,,,,,,,,114.43489020039,30.463750060537,0
76f1a7fe9f994d7d7ec876b8,CPP中采大厦,房地产,写字楼,湖北省,武汉市,江夏区,公共采购大厦,76f1a7fe9f994d7d7ec876b8,1,0,114.431547,30.46207,,house,http://api.map.baidu.com/place/detail?uid=76f1a7fe9f994d7d7ec876b8&output=html&source=placeapi_v2,,,,,,,,,,,,,,,,,,114.43127895834,30.461639554379,0
257c3d140e5886d417948ed1,烽火集团大厦,房地产,写字楼,湖北省,武汉市,江夏区,武汉市江夏区光谷高新四路6号,257c3d140e5886d417948ed1,1,0,114.430612,30.454173,,house,http://api.map.baidu.com/place/detail?uid=257c3d140e5886d417948ed1&output=html&source=placeapi_v2,,,5,,,,,,,,,,,,,,,114.43187052935,30.45518366751,0
4659540c09f8280ba10464de,电谷孵化器大楼,房地产,写字楼,湖北省,武汉市,江夏区,武汉市江夏区高新区六路光电谷孵化器大楼,4659540c09f8280ba10464de,1,0,114.439596,30.443214,,house,http://api.map.baidu.com/place/detail?uid=4659540c09f8280ba10464de&output=html&source=placeapi_v2,,,,,,,,,,,,,,,,,,114.43954252553,30.443190460556,0
5da61c2e0dabccf54457265d,凤凰园-D座,房地产,写字楼,湖北省,武汉市,江夏区,湖北省武汉市江夏区光谷江夏藏龙岛科技园长咀科技园(灵杰路),5da61c2e0dabccf54457265d,1,0,114.438966,30.441311,,house,http://api.map.baidu.com/place/detail?uid=5da61c2e0dabccf54457265d&output=html&source=placeapi_v2,,,,,,,,,,,,,,,,,,114.4390555083,30.441325737023,0
8a3eb67b6716d31e09a8d4ec,施耐德大厦,房地产,写字楼,湖北省,武汉市,江夏区,武汉市江夏区东湖高新区光谷大道77号金融港b11栋施耐德大厦,8a3eb67b6716d31e09a8d4ec,1,0,114.433441,30.46076,,house,http://api.map.baidu.com/place/detail?uid=8a3eb67b6716d31e09a8d4ec&output=html&source=placeapi_v2,,,,,,,,,,,,,,,,,,114.43343650043,30.460567698199,0
439f51e9e8005093f7231072,藏龙阁-B座,房地产,写字楼,湖北省,武汉市,江夏区,湖北省武汉市江夏区高新六路江夏藏龙岛科技园长咀工业园,439f51e9e8005093f7231072,1,0,114.438529,30.441569,,house,http://api.map.baidu.com/place/detail?uid=439f51e9e8005093f7231072&output=html&source=placeapi_v2,,,,,,,,,,,,,,,,,,,,0
3f28622ba81a0ccff90cadd4,楚通大楼,房地产,写字楼,湖北省,武汉市,江夏区,武汉市江夏区金融港四路光谷汇金中心,3f28622ba81a0ccff90cadd4,1,0,114.438379,30.459333,,house,http://api.map.baidu.com/place/detail?uid=3f28622ba81a0ccff90cadd4&output=html&source=placeapi_v2,,,,,,,,,,,,,,,,,,,,0
62e0d3e51f79720e0bccdda8,武汉美泰乐办公楼,房地产,写字楼,湖北省,武汉市,江夏区,武汉市江夏区中芯一路武汉市光谷第七小学西侧,62e0d3e51f79720e0bccdda8,1,0,114.461431,30.457217,,house,http://api.map.baidu.com/place/detail?uid=62e0d3e51f79720e0bccdda8&output=html&source=placeapi_v2,,,,,,,,,,,,,,,,,,,,0
8c98b1224f3b6b71f02d834f,光谷金融港,公司企业,园区,湖北省,武汉市,江夏区,武汉市东湖高新区光谷大道77号(现代森林小镇小区对面),8c98b1224f3b6b71f02d834f,1,0,114.431998,30.461859,,house,http://api.map.baidu.com/place/detail?uid=8c98b1224f3b6b71f02d834f&output=html&source=placeapi_v2,,,4.6,,,,,,,,,,,,,,,114.427964,30.462180938813,0
85d6d3493f1c56f35810932a,公共采购大厦,房地产,写字楼,湖北省,武汉市,江夏区,武汉市江夏区金融港b6栋,85d6d3493f1c56f35810932a,1,0,114.431657,30.461994,,house,http://api.map.baidu.com/place/detail?uid=85d6d3493f1c56f35810932a&output=html&source=placeapi_v2,,,,,,,,,,,,,,,,,,114.43139219155,30.461976681797,0
32c3f9614df683089a0050b3,无忧大楼,房地产,写字楼,湖北省,武汉市,江夏区,湖北省武汉市江夏区佛祖岭街道光谷金融港b12栋,32c3f9614df683089a0050b3,1,0,114.431754,30.4603,,house,http://api.map.baidu.com/place/detail?uid=32c3f9614df683089a0050b3&output=html&source=placeapi_v2,,,,,,,,,,,,,,,,,,,,0
528055f7dce8a8849e82ea7a,光电谷-A座,房地产,写字楼,湖北省,武汉市,江夏区,武汉市江夏区灵杰路长咀科技园,528055f7dce8a8849e82ea7a,1,0,114.440475,30.441295,,house,http://api.map.baidu.com/place/detail?uid=528055f7dce8a8849e82ea7a&output=html&source=placeapi_v2,,,,,,,,,,,,,,,,,,,,0
c53ad005d9aa7475c7f0256a,凤凰园-C座,房地产,写字楼,湖北省,武汉市,江夏区,湖北省武汉市江夏区高新六路江夏藏龙岛科技园长咀工业园,c53ad005d9aa7475c7f0256a,1,0,114.439038,30.440581,,house,http://api.map.baidu.com/place/detail?uid=c53ad005d9aa7475c7f0256a&output=html&source=placeapi_v2,,,,,,,,,,,,,,,,,,114.43929712289,30.440650607879,0
e2ef0a24c73bacad58109304,凤凰新新家园-市场综合楼,房地产,写字楼,湖北省,武汉市,江夏区,经济开发区藏龙岛办事处,e2ef0a24c73bacad58109304,1,0,114.433852,30.446099,,house,http://api.map.baidu.com/place/detail?uid=e2ef0a24c73bacad58109304&output=html&source=placeapi_v2,,,,,,,,,,,,,,,,,,,,0
a7aa022f2b5e23f2e015f9bf,泰塑综合楼,房地产,写字楼,湖北省,武汉市,江夏区,武汉市江夏区流芳大道特1号,a7aa022f2b5e23f2e015f9bf,1,0,114.439011,30.463939,,house,http://api.map.baidu.com/place/detail?uid=a7aa022f2b5e23f2e015f9bf&output=html&source=placeapi_v2,,,,,,,,,,,,,,,,,,,,0
f56815ded399ea7e0b69d9b8,鼎和保险大厦,金融,投资理财,湖北省,武汉市,江夏区,湖北省武汉市江夏区光谷大道77号金融港b17栋,f56815ded399ea7e0b69d9b8,1,0,114.434145,30.462902,,life,http://api.map.baidu.com/place/detail?uid=f56815ded399ea7e0b69d9b8&output=html&source=placeapi_v2,,,,,,,,,,2,,,,,,,,114.43387402822,30.462843564823,0
85cdf0936a99edd0f503b8d4,九江银行大厦,房地产,写字楼,湖北省,武汉市,江夏区,武汉市江夏区光谷金融港b13栋九江银行大厦,85cdf0936a99edd0f503b8d4,1,0,114.433288,30.460301,,house,http://api.map.baidu.com/place/detail?uid=85cdf0936a99edd0f503b8d4&output=html&source=placeapi_v2,,,,,,,,,,,,,,,,,,,,0
ada995aab84075115fd4fe22,中国太平大厦,房地产,写字楼,湖北省,武汉市,江夏区,武汉市江夏区佛祖岭街道光谷金融港b23栋中国太平大厦,ada995aab84075115fd4fe22,1,0,114.435392,30.462438,,house,http://api.map.baidu.com/place/detail?uid=ada995aab84075115fd4fe22&output=html&source=placeapi_v2,,,,,,,,,,,,,,,,,,,,0
ba08664c70319a145cbe86cb,藏龙阁-D座,房地产,内部楼栋,湖北省,武汉市,江夏区,武汉市江夏区经济开发区藏龙岛办事处藏龙岛高新六路长咀工业园,ba08664c70319a145cbe86cb,1,0,114.43884,30.442347,,house,http://api.map.baidu.com/place/detail?uid=ba08664c70319a145cbe86cb&output=html&source=placeapi_v2,,,,,,,,,,,,,,,,,,,,0
4c0b8e931212d27039e4a656,凤凰园-A座,房地产,写字楼,湖北省,武汉市,江夏区,湖北省武汉市江夏区光谷江夏藏龙岛科技园长咀科技园(灵杰路),4c0b8e931212d27039e4a656,1,0,114.438283,30.441195,,house,http://api.map.baidu.com/place/detail?uid=4c0b8e931212d27039e4a656&output=html&source=placeapi_v2,,,,,,,,,,,,,,,,,,114.43816103226,30.441104343596,0
fcda63e52c6ade44c9fa5f93,永兴元大厦,房地产,写字楼,湖北省,武汉市,江夏区,湖北省武汉市江夏区光谷金融港b2栋永兴元大厦,fcda63e52c6ade44c9fa5f93,1,0,114.432357,30.463275,,house,http://api.map.baidu.com/place/detail?uid=fcda63e52c6ade44c9fa5f93&output=html&source=placeapi_v2,,,,,,,,,,,,,,,,,,,,0
4b0ee55eda61f118c41b758e,藏龙阁-C座,房地产,写字楼,湖北省,武汉市,江夏区,湖北省武汉市江夏区光谷江夏藏龙岛科技园长咀科技园,4b0ee55eda61f118c41b758e,1,0,114.439149,30.44163,,house,http://api.map.baidu.com/place/detail?uid=4b0ee55eda61f118c41b758e&output=html&source=placeapi_v2,,,,,,,,,,,,,,,,,,114.4390980745,30.441554240647,0
b2944426b38070adc61e5167,藏龙阁-A座,房地产,内部楼栋,湖北省,武汉市,江夏区,湖北省武汉市江夏区光谷江夏藏龙岛科技园长咀科技园,b2944426b38070adc61e5167,1,0,114.438264,30.442312,,house,http://api.map.baidu.com/place/detail?uid=b2944426b38070adc61e5167&output=html&source=placeapi_v2,,,,,,,,,,,,,,,,,,114.4381751689,30.442376565494,0
1b6fac8a203531073ce2317e,光谷金融港-B4栋,房地产,写字楼,湖北省,武汉市,江夏区,光谷金融港内,1b6fac8a203531073ce2317e,1,0,114.432078,30.462589,,house,http://api.map.baidu.com/place/detail?uid=1b6fac8a203531073ce2317e&output=html&source=placeapi_v2,,,0,,,,,,,,,,,,,,,114.43139444809,30.462717758754,0
176a2e06f16883f7fe0eb00b,光谷金融港-B17栋,房地产,写字楼,湖北省,武汉市,江夏区,武汉市江夏区高新区光谷大道77号(现代森林小镇小区对面)光谷金融港,176a2e06f16883f7fe0eb00b,1,0,114.434232,30.462911,,house,http://api.map.baidu.com/place/detail?uid=176a2e06f16883f7fe0eb00b&output=html&source=placeapi_v2,,,5,,,,,,,,,,,,,,,114.4338740345,30.462843532138,0
a7014714570c54a932870a64,光谷金融港-B7栋,房地产,写字楼,湖北省,武汉市,江夏区,武汉市江夏区高新区光谷大道77号(现代森林小镇小区对面)光谷金融港,a7014714570c54a932870a64,1,0,114.433052,30.461975,,house,http://api.map.baidu.com/place/detail?uid=a7014714570c54a932870a64&output=html&source=placeapi_v2,,,5,,,,,,,,,,,,,,,114.43314703316,30.461719289956,0
afaca71c866e18ca8bdb73f2,光谷金融港-B26栋,房地产,写字楼,湖北省,武汉市,江夏区,湖北省武汉市江夏区光谷金融港B26栋(金融港四路北),afaca71c866e18ca8bdb73f2,1,0,114.435899,30.459841,,house,http://api.map.baidu.com/place/detail?uid=afaca71c866e18ca8bdb73f2&output=html&source=placeapi_v2,,,,,,,,,,,,,,,,,,114.43564530792,30.45964401501,0
1a1d4432a007b511d33ce3fc,光谷新动力-9栋,房地产,写字楼,湖北省,武汉市,江夏区,光谷新动力9栋,1a1d4432a007b511d33ce3fc,1,0,114.467713,30.452837,,house,http://api.map.baidu.com/place/detail?uid=1a1d4432a007b511d33ce3fc&output=html&source=placeapi_v2,,,,,,,,,,,,,,,,,,,,0
b55c1e539b0f2fcd932ca38d,光谷金融港-B20栋,房地产,写字楼,湖北省,武汉市,江夏区,武汉市江夏区高新区光谷大道77号(现代森林小镇小区对面)光谷金融港,b55c1e539b0f2fcd932ca38d,1,0,114.433996,30.461987,,house,http://api.map.baidu.com/place/detail?uid=b55c1e539b0f2fcd932ca38d&output=html&source=placeapi_v2,,,,,,,,,,,,,,,,,,114.43415725676,30.462076895009,0
d1708ae5df43cf3db7265517,创客SOHO,房地产,写字楼,湖北省,武汉市,江夏区,武汉市江夏区港边田路7号,d1708ae5df43cf3db7265517,1,0,114.484517,30.461978,(027)81925088,house,http://api.map.baidu.com/place/detail?uid=d1708ae5df43cf3db7265517&output=html&source=placeapi_v2,,,,,,,,,,,,,,,,,,,,0
fb7b20eb4c6af19b9e9d6876,武汉东湖综合保税区a塔楼,房地产,写字楼,湖北省,武汉市,江夏区,武汉市江夏区光谷三路777号湖北城区武汉东湖综合保税区a塔楼,fb7b20eb4c6af19b9e9d6876,1,0,114.489246,30.436186,,house,http://api.map.baidu.com/place/detail?uid=fb7b20eb4c6af19b9e9d6876&output=html&source=placeapi_v2,,,,,,,,,,,,,,,,,,114.48948558193,30.436457330245,0
5921facf072969da03294fa1,葛洲坝・太阳城-18栋,房地产,写字楼,湖北省,武汉市,江夏区,佛祖岭街道高新四路葛洲坝・太阳城,5921facf072969da03294fa1,1,0,114.481878,30.461222,,house,http://api.map.baidu.com/place/detail?uid=5921facf072969da03294fa1&output=html&source=placeapi_v2,,,,,,,,,,,,,,,,,,114.48187200975,30.461403811092,0
c12f7ede50f3cbcd04fef589,葛洲坝・太阳城-12栋,房地产,写字楼,湖北省,武汉市,江夏区,佛祖岭街道高新四路葛洲坝・太阳城,c12f7ede50f3cbcd04fef589,1,0,114.481094,30.461189,,house,http://api.map.baidu.com/place/detail?uid=c12f7ede50f3cbcd04fef589&output=html&source=placeapi_v2,,,,,,,,,,,,,,,,,,114.48108759231,30.461375937634,0
b16b35f5f3d97953a80dd8dc,葛洲坝・太阳城-4栋,房地产,写字楼,湖北省,武汉市,江夏区,佛祖岭街道高新四路葛洲坝・太阳城,b16b35f5f3d97953a80dd8dc,1,0,114.480232,30.462052,,house,http://api.map.baidu.com/place/detail?uid=b16b35f5f3d97953a80dd8dc&output=html&source=placeapi_v2,,,,,,,,,,,,,,,,,,114.48042523662,30.462275233682,0
50efa2b81d6efbd07adbd274,葛洲坝・太阳城-22栋,房地产,写字楼,湖北省,武汉市,江夏区,湖北省武汉市江夏区佛祖岭街道港边田路葛洲坝・太阳城,50efa2b81d6efbd07adbd274,1,0,114.482825,30.462134,,house,http://api.map.baidu.com/place/detail?uid=50efa2b81d6efbd07adbd274&output=html&source=placeapi_v2,,,,,,,,,,,,,,,,,,114.48281691935,30.462292686815,0
46e2d0652a884aa204fef515,中铁大桥局桥梁特种技术研发大厦,房地产,写字楼,湖北省,武汉市,江夏区,武汉市江夏区佛祖岭一路与高新六路交叉路口往东北约110米,46e2d0652a884aa204fef515,1,0,114.475146,30.447324,,house,http://api.map.baidu.com/place/detail?uid=46e2d0652a884aa204fef515&output=html&source=placeapi_v2,,,,,,,,,,,,,,,,,,114.47524811961,30.447109951652,0
929ec0dc7e31093e2fb908b3,葛洲坝・太阳城-7栋,房地产,写字楼,湖北省,武汉市,江夏区,佛祖岭街道高新四路葛洲坝・太阳城,929ec0dc7e31093e2fb908b3,1,0,114.480983,30.463387,,house,http://api.map.baidu.com/place/detail?uid=929ec0dc7e31093e2fb908b3&output=html&source=placeapi_v2,,,,,,,,,,,,,,,,,,114.48104865346,30.463611846453,0
53f503dc1c813bde4251c0c8,武银经开大厦,房地产,写字楼,湖北省,武汉市,蔡甸区,武汉市蔡甸区创业路66号,53f503dc1c813bde4251c0c8,1,0,114.161466,30.489234,,house,http://api.map.baidu.com/place/detail?uid=53f503dc1c813bde4251c0c8&output=html&source=placeapi_v2,,,,,,,,,,,,,,,,,,114.16097454727,30.489331769264,0
89fd4ea3b2eabc47e4e96585,联发大厦,房地产,写字楼,湖北省,武汉市,蔡甸区,开拓南路29号,89fd4ea3b2eabc47e4e96585,1,0,114.162979,30.492013,,house,http://api.map.baidu.com/place/detail?uid=89fd4ea3b2eabc47e4e96585&output=html&source=placeapi_v2,,,3,,,,,,,,,,,,,,,114.16296259258,30.492333567694,0
e246a1ee72d29b4884330417,新都国际嘉园-A座,房地产,写字楼,湖北省,武汉市,蔡甸区,武汉市蔡甸区百业路新都国际嘉园,e246a1ee72d29b4884330417,1,0,114.1625,30.492325,,house,http://api.map.baidu.com/place/detail?uid=e246a1ee72d29b4884330417&output=html&source=placeapi_v2,,,,,,,,,,,,,,,,,,114.16249260723,30.492486559615,0
b388f9fd23796a41b25c6a85,银城大厦(创业路),房地产,写字楼,湖北省,武汉市,蔡甸区,武汉市蔡甸区创业路50号,b388f9fd23796a41b25c6a85,1,0,114.164322,30.492469,,house,http://api.map.baidu.com/place/detail?uid=b388f9fd23796a41b25c6a85&output=html&source=placeapi_v2,,,3,,,,,,,,,,,,,,,114.164568196,30.492826076243,0
b97012e5aca5198ebd4842d2,人才创新大厦,房地产,写字楼,湖北省,武汉市,蔡甸区,武汉市蔡甸区车城大道220号,b97012e5aca5198ebd4842d2,1,0,114.16838,30.48467,,house,http://api.map.baidu.com/place/detail?uid=b97012e5aca5198ebd4842d2&output=html&source=placeapi_v2,,,4.5,,,,,,,,,,,,,,,114.16833563272,30.484543428243,0
d4d65353221dff56eedfca46,中交二公院办公楼,房地产,写字楼,湖北省,武汉市,蔡甸区,武汉市蔡甸区经济技术开发区创业路18号,d4d65353221dff56eedfca46,1,0,114.167633,30.496953,,house,http://api.map.baidu.com/place/detail?uid=d4d65353221dff56eedfca46&output=html&source=placeapi_v2,,,5,,,,,,,,,,,,,,,114.16764979173,30.496922893125,0
fa4fa513858dc5e49122e037,武汉建工科技大楼,房地产,写字楼,湖北省,武汉市,蔡甸区,武汉市蔡甸区百业路与汉春巷交叉路口往东约100米,fa4fa513858dc5e49122e037,1,0,114.164648,30.493654,,house,http://api.map.baidu.com/place/detail?uid=fa4fa513858dc5e49122e037&output=html&source=placeapi_v2,,,,,,,,,,,,,,,,,,114.16430316713,30.492966446308,0
f9fd6062cbe6ad1f0e0e6b85,通达伟业大厦,房地产,写字楼,湖北省,武汉市,蔡甸区,武汉市蔡甸区经济技术开发区沌阳大道385号,f9fd6062cbe6ad1f0e0e6b85,1,0,114.169046,30.491249,,house,http://api.map.baidu.com/place/detail?uid=f9fd6062cbe6ad1f0e0e6b85&output=html&source=placeapi_v2,,,4,,,,,,,,,,,,,,,114.16914162117,30.491450032746,0
d38f76d17659c196f503b8cd,华源商务广场-A座,房地产,写字楼,湖北省,武汉市,蔡甸区,武汉市蔡甸区创业路16号,d38f76d17659c196f503b8cd,1,0,114.168525,30.497514,,house,http://api.map.baidu.com/place/detail?uid=d38f76d17659c196f503b8cd&output=html&source=placeapi_v2,,,3,,,,,,,,,,,,,,,114.16829209741,30.497816607097,0
cb4fd146f6931a419c9d6885,沌阳大厦,房地产,写字楼,湖北省,武汉市,蔡甸区,湖北省武汉市蔡甸区沌阳大道145号,cb4fd146f6931a419c9d6885,1,0,114.165959,30.494787,,house,http://api.map.baidu.com/place/detail?uid=cb4fd146f6931a419c9d6885&output=html&source=placeapi_v2,,,3.5,,,,,,,,,,,,,,,114.16591121574,30.494170899634,0
0cc174af5941da3b46e274ef,华源商务广场-B座,房地产,写字楼,湖北省,武汉市,蔡甸区,武汉市蔡甸区创业路16号,0cc174af5941da3b46e274ef,1,0,114.168017,30.497841,,house,http://api.map.baidu.com/place/detail?uid=0cc174af5941da3b46e274ef&output=html&source=placeapi_v2,,,,,,,,,,,,,,,,,,114.16813990183,30.497940281377,0
66c73f9ecaffe6197c29bd74,嘉昱商务公馆-A座,房地产,写字楼,湖北省,武汉市,蔡甸区,湖北省武汉经济技术开发区创业路12号,66c73f9ecaffe6197c29bd74,1,0,114.168867,30.498029,,house,http://api.map.baidu.com/place/detail?uid=66c73f9ecaffe6197c29bd74&output=html&source=placeapi_v2,,,5,,,,,,,,,,,,,,,114.16902315803,30.497881448806,0
79f5f59c744b530dd3ff23d2,车都大厦,房地产,写字楼,湖北省,武汉市,蔡甸区,湖北省武汉市蔡甸区东风大道199号,,1,0,114.166106,30.496792,,house,http://api.map.baidu.com/place/detail?uid=79f5f59c744b530dd3ff23d2&output=html&source=placeapi_v2,,,,,,,,,,,,,,,,,,114.16632492585,30.496394979263,0
96c900a0cb9e954072210b8a,圣龙国际广场-1号写字楼,房地产,写字楼,湖北省,武汉市,蔡甸区,湖北省武汉市蔡甸区东风大道106号圣龙国际广场1号写字楼,96c900a0cb9e954072210b8a,1,0,114.167059,30.501062,,house,http://api.map.baidu.com/place/detail?uid=96c900a0cb9e954072210b8a&output=html&source=placeapi_v2,,,5,,,,,,,,,,,,,,,114.16683264813,30.500995157091,0
ec06b4aebd3546e6f4b91642,德行天下就业大厦,房地产,写字楼,湖北省,武汉市,蔡甸区,湖北武汉市蔡甸区德行天下就业大厦,ec06b4aebd3546e6f4b91642,1,0,114.166858,30.495388,,house,http://api.map.baidu.com/place/detail?uid=ec06b4aebd3546e6f4b91642&output=html&source=placeapi_v2,,,,,,,,,,,,,,,,,,114.16700085134,30.495139492967,0
0068dcfb683cbde29ff7798a,圣龙国际广场写字楼,房地产,写字楼,湖北省,武汉市,蔡甸区,湖北省武汉市蔡甸区东风大道106号,0068dcfb683cbde29ff7798a,1,0,114.166998,30.501306,,house,http://api.map.baidu.com/place/detail?uid=0068dcfb683cbde29ff7798a&output=html&source=placeapi_v2,,,,,,,,,,,,,,,,,,,,0
c381a5fbd6db5194f5c59c33,绿岛大厦,房地产,写字楼,湖北省,武汉市,蔡甸区,湖北省武汉市经济技术开发区神龙大道111号,c381a5fbd6db5194f5c59c33,1,0,114.170104,30.499426,,house,http://api.map.baidu.com/place/detail?uid=c381a5fbd6db5194f5c59c33&output=html&source=placeapi_v2,,,3.3,,,,,,,,,,,,,,,114.16986020359,30.499136371846,0
f955989a68d4ca84abf0cdc9,中交二公院科研综合大楼,房地产,写字楼,湖北省,武汉市,蔡甸区,武汉市蔡甸区立业路财富广场西南侧约110米,,1,0,114.166466,30.497249,,house,http://api.map.baidu.com/place/detail?uid=f955989a68d4ca84abf0cdc9&output=html&source=placeapi_v2,,,,,,,,,,,,,,,,,,114.1669088415,30.497092286809,0
4d28122900e20ced9122e039,嘉昱商务公馆-B座,房地产,写字楼,湖北省,武汉市,蔡甸区,湖北省武汉市蔡甸区创业路12号,4d28122900e20ced9122e039,1,0,114.168959,30.498643,,house,http://api.map.baidu.com/place/detail?uid=4d28122900e20ced9122e039&output=html&source=placeapi_v2,,,,,,,,,,,,,,,,,,114.16904482426,30.498623320009,0
4ea3f2f160e0fbaaafcb6685,惠远大厦,房地产,写字楼,湖北省,武汉市,蔡甸区,武汉市蔡甸区神龙大道123号,4ea3f2f160e0fbaaafcb6685,1,0,114.163026,30.504286,,house,http://api.map.baidu.com/place/detail?uid=4ea3f2f160e0fbaaafcb6685&output=html&source=placeapi_v2,,,3,,,,,,,,,,,,,,,114.16318835832,30.50446886943,0
4cbebb03fafcc864f33cba30,绿岛大厦-A座,房地产,写字楼,湖北省,武汉市,蔡甸区,湖北省武汉市蔡甸区创业路2号,4cbebb03fafcc864f33cba30,1,0,114.170303,30.49943,,house,http://api.map.baidu.com/place/detail?uid=4cbebb03fafcc864f33cba30&output=html&source=placeapi_v2,,,,,,,,,,,,,,,,,,114.17006237354,30.4994370994,0
3c665b148c538454e6e965f8,金荷花园写字楼,房地产,写字楼,湖北省,武汉市,蔡甸区,湖北省武汉市蔡甸区经济技术开发区临近318国道处(沌口596终点站),3c665b148c538454e6e965f8,1,0,114.161588,30.499042,,house,http://api.map.baidu.com/place/detail?uid=3c665b148c538454e6e965f8&output=html&source=placeapi_v2,,,,,,,,,,,,,,,,,,114.16158627356,30.499124689995,0
606289fd0fb8114da3046485,绿岛大厦-B座,房地产,写字楼,湖北省,武汉市,蔡甸区,武汉市蔡甸区神龙大道111号,606289fd0fb8114da3046485,1,0,114.169841,30.499495,,house,http://api.map.baidu.com/place/detail?uid=606289fd0fb8114da3046485&output=html&source=placeapi_v2,,,,,,,,,,,,,,,,,,114.16986020359,30.499136371846,0
a691146b37031778ca09f04b,财富广场-B座,房地产,写字楼,湖北省,武汉市,蔡甸区,武汉市蔡甸区立业路16号财富广场B座,,1,0,114.167767,30.498668,,house,http://api.map.baidu.com/place/detail?uid=a691146b37031778ca09f04b&output=html&source=placeapi_v2,,,,,,,,,,,,,,,,,,,,0
d146b388bde683de75026985,中构・银城-A座,房地产,内部楼栋,湖北省,武汉市,蔡甸区,武汉市蔡甸区沌口经济开发区创业路银城大厦,d146b388bde683de75026985,1,0,114.163713,30.492837,,house,http://api.map.baidu.com/place/detail?uid=d146b388bde683de75026985&output=html&source=placeapi_v2,,,,,,,,,,,,,,,,,,114.16379705283,30.492412786121,0
61870e48a1c3f99bd0ff232c,中谊商务,房地产,写字楼,湖北省,武汉市,蔡甸区,湖北省武汉市蔡甸区沌口经济技术开发区车城西路16号东风阳光城彩虹苑,61870e48a1c3f99bd0ff232c,1,0,114.158998,30.504212,(027)84288666,house,http://api.map.baidu.com/place/detail?uid=61870e48a1c3f99bd0ff232c&output=html&source=placeapi_v2,,,,,,,,,,,,,,,,,,,,0
9753cfdb751ce1a9c909f0d2,武汉建工科技中心,房地产,写字楼,湖北省,武汉市,蔡甸区,湖北省武汉市蔡甸区武汉经济技术开发区沌阳大道409号,9753cfdb751ce1a9c909f0d2,1,0,114.164725,30.493561,(027)84782655,house,http://api.map.baidu.com/place/detail?uid=9753cfdb751ce1a9c909f0d2&output=html&source=placeapi_v2,,,4.6,,,,,,,,,,,,,,,114.16428175423,30.493060278692,0
f2f15ffb260db088621c6785,华源商务广场,房地产,写字楼,湖北省,武汉市,蔡甸区,武汉市蔡甸区经济开发区创业路16号,f2f15ffb260db088621c6785,1,0,114.168258,30.497667,(027)84213989,house,http://api.map.baidu.com/place/detail?uid=f2f15ffb260db088621c6785&output=html&source=placeapi_v2,,,0,,,,,,,,,,,,,,,114.16886309346,30.49754157394,0
d5f20eb6f7bdfe9a15764394,05栋三单元,房地产,写字楼,湖北省,武汉市,蔡甸区,车城大道241附32号附近,d5f20eb6f7bdfe9a15764394,1,0,114.153719,30.493227,,house,http://api.map.baidu.com/place/detail?uid=d5f20eb6f7bdfe9a15764394&output=html&source=placeapi_v2,,,,,,,,,,,,,,,,,,,,0
b6cd3558aff75490eee4a538,建银商务公馆,房地产,写字楼,湖北省,武汉市,蔡甸区,武汉市蔡甸区沌口经济技术开发区创业路10号,b6cd3558aff75490eee4a538,1,0,114.168722,30.498254,(027)59597777,house,http://api.map.baidu.com/place/detail?uid=b6cd3558aff75490eee4a538&output=html&source=placeapi_v2,,,4.2,,,,,,,,,,,,,,,114.16879775162,30.497714782413,0
61e2859ae1e3c38687330448,圣龙国际广场1号写字楼-西南门,出入口,门,湖北省,武汉市,蔡甸区,武汉市蔡甸区东风大道与神龙大道交叉口西150米,61e2859ae1e3c38687330448,1,0,114.166936,30.501092,,life,http://api.map.baidu.com/place/detail?uid=61e2859ae1e3c38687330448&output=html&source=placeapi_v2,,,,,,,,,,,,,,,,,,,,0
057812796578cc1640ab9a44,颐养楼,房地产,住宅区,湖北省,武汉市,蔡甸区,武汉市蔡甸区海滨城路1号海滨城度假村附近,057812796578cc1640ab9a44,1,0,114.140656,30.488988,,house,http://api.map.baidu.com/place/detail?uid=057812796578cc1640ab9a44&output=html&source=placeapi_v2,,,,,,,,,,,,,,,,,,,,0
51713671e56e80b2b54f5477,三川国际大厦,房地产,写字楼,湖北省,武汉市,蔡甸区,湖北省武汉市经济技术开发区江城大道505号,51713671e56e80b2b54f5477,1,0,114.20018,30.488565,(027)83838833,house,http://api.map.baidu.com/place/detail?uid=51713671e56e80b2b54f5477&output=html&source=placeapi_v2,,,,,,,,,,,,,,,,,,114.20012141772,30.488130931024,0
4c50f573dfbd6767c056acb3,慕天大楼,房地产,写字楼,湖北省,武汉市,蔡甸区,湖北省武汉市蔡甸区江城大道与沌阳大道交叉路口往北约115米,4c50f573dfbd6767c056acb3,1,0,114.197392,30.485222,,house,http://api.map.baidu.com/place/detail?uid=4c50f573dfbd6767c056acb3&output=html&source=placeapi_v2,,,,,,,,,,,,,,,,,,114.19740859347,30.485366515008,0
37381f23550717baf7e73b69,星河数智大厦,房地产,写字楼,湖北省,武汉市,蔡甸区,湖北省武汉市经济技术开发区江城大道505号,37381f23550717baf7e73b69,1,0,114.200254,30.488589,(027)83838833,house,http://api.map.baidu.com/place/detail?uid=37381f23550717baf7e73b69&output=html&source=placeapi_v2,,,,,,,,,,,,,,,,,,114.19989304779,30.48866813049,0
171f8cad3e9b2f90c5effb6d,湖北数字电视大楼,房地产,写字楼,湖北省,武汉市,蔡甸区,湖北省武汉市蔡甸区沌口经济技术开发区神龙大道18号,171f8cad3e9b2f90c5effb6d,1,0,114.189861,30.496545,(027)84477160,house,http://api.map.baidu.com/place/detail?uid=171f8cad3e9b2f90c5effb6d&output=html&source=placeapi_v2,,,0,,,,,,,,,,,,,,,114.18974037736,30.49621470165,0
a6b7ab5762090db0373a71af,文化数字创意产业园-C栋,房地产,写字楼,湖北省,武汉市,蔡甸区,武汉市蔡甸区文化数字创意产业园C栋,a6b7ab5762090db0373a71af,1,0,114.190414,30.498505,,house,http://api.map.baidu.com/place/detail?uid=a6b7ab5762090db0373a71af&output=html&source=placeapi_v2,,,,,,,,,,,,,,,,,,,,0
d2e3b9ef7fde6e522b3a9fde,湖北远大天天明制药有限公司-办公大楼,房地产,写字楼,湖北省,武汉市,蔡甸区,湖北省武汉市蔡甸区经济技术开发区车城北路2号湖北远大天天明制药有限公司,d2e3b9ef7fde6e522b3a9fde,1,0,114.191944,30.500594,(027)59409618,house,http://api.map.baidu.com/place/detail?uid=d2e3b9ef7fde6e522b3a9fde&output=html&source=placeapi_v2,,,,,,,,,,,,,,,,,,114.19150895227,30.500406210143,0
ed9122316713cc2ddcee8b44,张家湾科技孵化大楼,房地产,写字楼,湖北省,武汉市,洪山区,湖北省武汉市洪山区八坦路165号,ed9122316713cc2ddcee8b44,1,0,114.292937,30.495098,18627855609,house,http://api.map.baidu.com/place/detail?uid=ed9122316713cc2ddcee8b44&output=html&source=placeapi_v2,,,,,,,,,,,,,,,,,,114.29256336349,30.494872453458,0
b5c10dab928005262dfaa749,万科金色城市办公楼1,房地产,写字楼,湖北省,武汉市,洪山区,江州路与白沙四路交叉口东南100米,b5c10dab928005262dfaa749,1,0,114.266866,30.490202,,house,http://api.map.baidu.com/place/detail?uid=b5c10dab928005262dfaa749&output=html&source=placeapi_v2,,,0,,,,,,,,,,,,,,,114.26652892742,30.490521391844,0
7ef0e9af23b9030f79b55c04,长利科技大厦,房地产,写字楼,湖北省,武汉市,洪山区,武汉市洪山区白沙洲大道205号,7ef0e9af23b9030f79b55c04,1,0,114.288004,30.495555,,house,http://api.map.baidu.com/place/detail?uid=7ef0e9af23b9030f79b55c04&output=html&source=placeapi_v2,,,,,,,,,,,,,,,,,,,,0
cd1d11904ce6950e715e807e,办公楼,房地产,其他,湖北省,武汉市,洪山区,武汉市洪山区南市侧路,cd1d11904ce6950e715e807e,1,0,114.275858,30.489227,,house,http://api.map.baidu.com/place/detail?uid=cd1d11904ce6950e715e807e&output=html&source=placeapi_v2,,,,,,,,,,,,,,,,,,,,0
b8fb5c0ad0aa1fe1f7b9163c,长征综合大楼,房地产,写字楼,湖北省,武汉市,洪山区,湖北省武汉市洪山区白沙洲街办事处张家湾光霞果批入门(张家湾社区医院旁),b8fb5c0ad0aa1fe1f7b9163c,1,0,114.290533,30.495377,(027)88110555,house,http://api.map.baidu.com/place/detail?uid=b8fb5c0ad0aa1fe1f7b9163c&output=html&source=placeapi_v2,,,,,,,,,,,,,,,,,,114.28991882753,30.495798051683,0
a5f9d053d7fb0a1c077ce8f3,万科金色城市办公楼1-1东北门,出入口,门,湖北省,武汉市,洪山区,湖北省武汉市洪山区万科金色城市办公楼1号,a5f9d053d7fb0a1c077ce8f3,1,0,114.266977,30.490331,,life,http://api.map.baidu.com/place/detail?uid=a5f9d053d7fb0a1c077ce8f3&output=html&source=placeapi_v2,,,,,,,,,,,,,,,,,,114.26722514833,30.490521186842,0
f0425d8010cc2bdbf4eafc58,创意天地写字楼,房地产,写字楼,湖北省,武汉市,洪山区,武汉市洪山区野芷湖西路16号,f0425d8010cc2bdbf4eafc58,1,0,114.329501,30.474521,,house,http://api.map.baidu.com/place/detail?uid=f0425d8010cc2bdbf4eafc58&output=html&source=placeapi_v2,,,,,,,,,,,,,,,,,,114.33065320234,30.475012496092,0
518a841a2d74793ed52ce267,武汉创意天地D区-06号高层办公楼,房地产,写字楼,湖北省,武汉市,洪山区,洪山区野芷湖西路16号武汉创意天地D区06号高层办公楼,518a841a2d74793ed52ce267,1,0,114.326428,30.477725,,house,http://api.map.baidu.com/place/detail?uid=518a841a2d74793ed52ce267&output=html&source=placeapi_v2,,,5,,,,,,,,,,,,,,,114.32620203026,30.477597088477,0
c3c691537b24a0fcc056ac85,SBI创意大厦,房地产,写字楼,湖北省,武汉市,洪山区,鸿城家园6号楼,c3c691537b24a0fcc056ac85,1,0,114.338173,30.496194,,house,http://api.map.baidu.com/place/detail?uid=c3c691537b24a0fcc056ac85&output=html&source=placeapi_v2,,,0,,,,,,,,,,,,,,,114.33835543278,30.495992442716,0
d953e1750b17753a9de321fc,游戏产业大厦,房地产,写字楼,湖北省,武汉市,洪山区,武汉市洪山区野芷湖西路16号创意天地5号楼,d953e1750b17753a9de321fc,1,0,114.326785,30.477921,(027)87630598,house,http://api.map.baidu.com/place/detail?uid=d953e1750b17753a9de321fc&output=html&source=placeapi_v2,,,5,,,,,,,,,,,,,,,114.32667549296,30.478063565104,0
ba01e642230620938c55ec8f,武汉创意天地C区-08号高层办公楼,房地产,写字楼,湖北省,武汉市,洪山区,湖北省武汉市洪山区野芷湖西路16号创意天地,ba01e642230620938c55ec8f,1,0,114.3274,30.474936,,house,http://api.map.baidu.com/place/detail?uid=ba01e642230620938c55ec8f&output=html&source=placeapi_v2,,,,,,,,,,,,,,,,,,114.32735966579,30.474726398337,0
10d1c589f0e9a277e4e965a1,太阳能大楼,房地产,写字楼,湖北省,武汉市,洪山区,武汉市洪山区梧桐大道湖北工业大学,10d1c589f0e9a277e4e965a1,1,0,114.317102,30.490138,,house,http://api.map.baidu.com/place/detail?uid=10d1c589f0e9a277e4e965a1&output=html&source=placeapi_v2,,,,,,,,,,,,,,,,,,,,0
3ff09df74e82c81af82d61f3,武汉创意天地-10号高层办公楼,房地产,写字楼,湖北省,武汉市,洪山区,武汉市洪山区野芷湖西路16号,3ff09df74e82c81af82d61f3,1,0,114.329167,30.474482,,house,http://api.map.baidu.com/place/detail?uid=3ff09df74e82c81af82d61f3&output=html&source=placeapi_v2,,,0,,,,,,,,,,,,,,,114.32903088864,30.474229854254,0
b60aab09034df02e35b06c4f,武汉创意天地B区-10号创意工坊,房地产,写字楼,湖北省,武汉市,洪山区,洪山区野芷湖西路16号武汉创意天地B区10号创意工坊,b60aab09034df02e35b06c4f,1,0,114.329151,30.475192,(027)87376666,house,http://api.map.baidu.com/place/detail?uid=b60aab09034df02e35b06c4f&output=html&source=placeapi_v2,,,5,,,,,,,,,,,,,,,114.3292445003,30.474899561846,0
8b9af3c65c6b10542fe67be4,广寰公司办公楼,房地产,写字楼,湖北省,武汉市,洪山区,武汉市洪山区三义北路马湖新村-A区,8b9af3c65c6b10542fe67be4,1,0,114.330907,30.47873,,house,http://api.map.baidu.com/place/detail?uid=8b9af3c65c6b10542fe67be4&output=html&source=placeapi_v2,,,,,,,,,,,,,,,,,,,,0
8a0861f32fa84b6ae6e9656d,湖北农业科技楼,房地产,写字楼,湖北省,武汉市,洪山区,武汉市洪山区珞狮路312号,8a0861f32fa84b6ae6e9656d,1,0,114.344906,30.486936,,house,http://api.map.baidu.com/place/detail?uid=8a0861f32fa84b6ae6e9656d&output=html&source=placeapi_v2,,,5,,,,,,,,,,,,,,,114.34512836348,30.486696056841,0
5582e052ff81ac3b96f08c98,南湖城市大厦,房地产,写字楼,湖北省,武汉市,洪山区,武汉市洪山区南湖大道52号,5582e052ff81ac3b96f08c98,1,0,114.343927,30.485564,,house,http://api.map.baidu.com/place/detail?uid=5582e052ff81ac3b96f08c98&output=html&source=placeapi_v2,,,0,,,,,,,,,,,,,,,114.34393365218,30.486011336793,0
28ce4cbc3906963b3310af5b,创意天地06创意工坊-高层办公,房地产,写字楼,湖北省,武汉市,洪山区,湖北省武汉市洪山区南湖花园城创意天地10办公楼,28ce4cbc3906963b3310af5b,1,0,114.329084,30.474533,,house,http://api.map.baidu.com/place/detail?uid=28ce4cbc3906963b3310af5b&output=html&source=placeapi_v2,,,,,,,,,,,,,,,,,,114.32901393581,30.474195564694,0
e93d96745d8957e4102935d3,武汉创意天地C区-07号创意工坊,房地产,写字楼,湖北省,武汉市,洪山区,湖北省武汉市洪山区野芷湖西路16号,,1,0,114.327028,30.475707,,house,http://api.map.baidu.com/place/detail?uid=e93d96745d8957e4102935d3&output=html&source=placeapi_v2,,,0,,,,,,,,,,,,,,,114.32677465152,30.4753795187,0
2cf685f41b95d97d90114c53,澳新创业中心-A座,房地产,写字楼,湖北省,武汉市,洪山区,武汉市洪山区杨泗港快速通道湖北澳新教育专修学院,2cf685f41b95d97d90114c53,1,0,114.343455,30.492672,,house,http://api.map.baidu.com/place/detail?uid=2cf685f41b95d97d90114c53&output=html&source=placeapi_v2,,,0,,,,,,,,,,,,,,,114.34354766647,30.492826213635,0
71d615b54aa4a22ebea2407e,窝牛创意大厦,房地产,写字楼,湖北省,武汉市,洪山区,湖北省武汉市洪山区书城路170号,71d615b54aa4a22ebea2407e,1,0,114.337402,30.495782,,house,http://api.map.baidu.com/place/detail?uid=71d615b54aa4a22ebea2407e&output=html&source=placeapi_v2,,,0,,,,,,,,,,,,,,,114.33684647895,30.495711614034,0
a2f2a2a96c63766488db7344,幸福村,行政地标,村庄,湖北省,武汉市,洪山区,武汉市洪山区珞狮路471号,a2f2a2a96c63766488db7344,1,0,114.342661,30.490427,,life,http://api.map.baidu.com/place/detail?uid=a2f2a2a96c63766488db7344&output=html&source=placeapi_v2,,,0,,,,,,,8,0,,,,,,,,,0
4acb2eb4ec66d65ac4f02502,南湖城市大厦计生委公寓楼,房地产,写字楼,湖北省,武汉市,洪山区,湖北省武汉市洪山区狮子山街道壕沟南湖城市大厦计生委公寓楼,4acb2eb4ec66d65ac4f02502,1,0,114.344069,30.485774,,house,http://api.map.baidu.com/place/detail?uid=4acb2eb4ec66d65ac4f02502&output=html&source=placeapi_v2,,,,,,,,,,,,,,,,,,,,0
5885d0d0831c6f2dabf72974,营销中心,房地产,写字楼,湖北省,武汉市,洪山区,武汉市洪山区文馨街南湖中央广场,,1,0,114.330763,30.502974,,house,http://api.map.baidu.com/place/detail?uid=5885d0d0831c6f2dabf72974&output=html&source=placeapi_v2,,,,,,,,,,,,,,,,,,,,0
4be5b91c009af0cd3a13fd10,NOVONEST,房地产,写字楼,湖北省,武汉市,洪山区,武汉市洪山区南湖大道8号,4be5b91c009af0cd3a13fd10,1,0,114.328251,30.487144,,house,http://api.map.baidu.com/place/detail?uid=4be5b91c009af0cd3a13fd10&output=html&source=placeapi_v2,,,3,,,,,,,,,,,,,,,114.32876981051,30.487481682701,0
2632cb63b48e5e15601c674b,武汉创意天地D区-04号高层办公楼,房地产,写字楼,湖北省,武汉市,洪山区,洪山区野芷湖西路16号武汉创意天地D区04号高层办公楼,2632cb63b48e5e15601c674b,1,0,114.327431,30.477934,,house,http://api.map.baidu.com/place/detail?uid=2632cb63b48e5e15601c674b&output=html&source=placeapi_v2,,,,,,,,,,,,,,,,,,114.3272535328,30.478074037619,0
6c7ded6aefc56b7a970319cb,武汉创意天地B区-09号高层办公楼,房地产,写字楼,湖北省,武汉市,洪山区,洪山区野芷湖西路16号武汉创意天地B区09号高层办公楼,6c7ded6aefc56b7a970319cb,1,0,114.328656,30.474708,,house,http://api.map.baidu.com/place/detail?uid=6c7ded6aefc56b7a970319cb&output=html&source=placeapi_v2,,,,,,,,,,,,,,,,,,114.32870592392,30.474930605831,0
ac07d4630936fb869d9d68fa,武汉创意天地B区-11号创意工坊,房地产,写字楼,湖北省,武汉市,洪山区,湖北省武汉市洪山区野芷湖西路16号,ac07d4630936fb869d9d68fa,1,0,114.329681,30.475185,,house,http://api.map.baidu.com/place/detail?uid=ac07d4630936fb869d9d68fa&output=html&source=placeapi_v2,,,,,,,,,,,,,,,,,,114.32980713868,30.475100077089,0
6747612d8f19544384154111,武汉创意天地艺术家工作室-02栋,房地产,写字楼,湖北省,武汉市,洪山区,湖北省武汉市洪山区野芷湖西路16号,6747612d8f19544384154111,1,0,114.329112,30.477421,,house,http://api.map.baidu.com/place/detail?uid=6747612d8f19544384154111&output=html&source=placeapi_v2,,,0,,,,,,,,,,,,,,,114.32851974921,30.477192029902,0
8abf58712e49c0e442d63eb1,武汉创意天地-A区,房地产,写字楼,湖北省,武汉市,洪山区,湖北省武汉市洪山区仕雅路,8abf58712e49c0e442d63eb1,1,0,114.329848,30.477587,,house,http://api.map.baidu.com/place/detail?uid=8abf58712e49c0e442d63eb1&output=html&source=placeapi_v2,,,,,,,,,,,,,,,,,,114.33063776765,30.476710600317,0
58fbddc28f2d6b88a6da39ed,武汉创意天地A区-02号高层办公楼,房地产,内部楼栋,湖北省,武汉市,洪山区,湖北省武汉市洪山区仕雅路武汉创意天地A区02号高层办公楼,58fbddc28f2d6b88a6da39ed,1,0,114.329234,30.477936,,house,http://api.map.baidu.com/place/detail?uid=58fbddc28f2d6b88a6da39ed&output=html&source=placeapi_v2,,,,,,,,,,,,,,,,,,114.32944465893,30.47792637272,0
aecd4beb9084300e9a00503f,武汉创意天地C区-07号高层办公楼,房地产,内部楼栋,湖北省,武汉市,洪山区,洪山区野芷湖西路16号武汉创意天地C区07号高层办公楼,aecd4beb9084300e9a00503f,1,0,114.326583,30.475084,,house,http://api.map.baidu.com/place/detail?uid=aecd4beb9084300e9a00503f&output=html&source=placeapi_v2,,,5,,,,,,,,,,,,,,,114.32654122863,30.474914761423,0
848a1039759890a7adb22aa2,武汉创意天地A区-01号高层办公楼,房地产,内部楼栋,湖北省,武汉市,洪山区,湖北省武汉市洪山区仕雅路武汉创意天地A区01号高层办公楼,848a1039759890a7adb22aa2,1,0,114.329961,30.477944,,house,http://api.map.baidu.com/place/detail?uid=848a1039759890a7adb22aa2&output=html&source=placeapi_v2,,,,,,,,,,,,,,,,,,114.32995317441,30.478102221068,0
2d959eb3f50931f0eb1e978a,武汉创意天地-11号高层办公楼,房地产,内部楼栋,湖北省,武汉市,洪山区,野芷湖西路75号附近,2d959eb3f50931f0eb1e978a,1,0,114.329766,30.474391,,house,http://api.map.baidu.com/place/detail?uid=2d959eb3f50931f0eb1e978a&output=html&source=placeapi_v2,,,5,,,,,,,,,,,,,,,114.32979050745,30.474266620745,0
93317d7a54b098233904b131,创意天地3栋,房地产,内部楼栋,湖北省,武汉市,洪山区,野芷湖西路89号附近,93317d7a54b098233904b131,1,0,114.327738,30.47798,,house,http://api.map.baidu.com/place/detail?uid=93317d7a54b098233904b131&output=html&source=placeapi_v2,,,0,,,,,,,,,,,,,,,114.32773699453,30.47808846739,0
3359bf52512cdbba0e3ddae2,爱谷国际,房地产,住宅区,湖北省,武汉市,洪山区,武汉市洪山区野芷湖西路马湖新村-A区,,1,0,114.3312,30.479763,,house,http://api.map.baidu.com/place/detail?uid=3359bf52512cdbba0e3ddae2&output=html&source=placeapi_v2,,,,,,,,,,,,,,,,,,,,0
4800352edffbfebfbadf8f80,华中农业大学第一综合大楼-B座,房地产,写字楼,湖北省,武汉市,洪山区,武汉市洪山区狮子山街1号,4800352edffbfebfbadf8f80,1,0,114.359832,30.479538,,house,http://api.map.baidu.com/place/detail?uid=4800352edffbfebfbadf8f80&output=html&source=placeapi_v2,,,,,,,,,,,,,,,,,,,,0
76b2054bd4c463db3a04b15c,产业西楼,房地产,写字楼,湖北省,武汉市,洪山区,武汉市洪山区南湖路华农西苑小区东侧约60米,,1,0,114.355942,30.481933,,house,http://api.map.baidu.com/place/detail?uid=76b2054bd4c463db3a04b15c&output=html&source=placeapi_v2,,,,,,,,,,,,,,,,,,,,0
8a1755eaa3ed80efb23c81da,荟园学生事务大楼,教育培训,其他,湖北省,武汉市,洪山区,湖北省武汉市洪山区狮子山街1号,,1,0,114.368464,30.479608,,house,http://api.map.baidu.com/place/detail?uid=8a1755eaa3ed80efb23c81da&output=html&source=placeapi_v2,,,,,,,,,,,,,,,,,,,,0
d82d66977bd16ba6d418b7e0,华中农业大学-天惠楼,房地产,写字楼,湖北省,武汉市,洪山区,湖北省武汉市洪山区狮子山街1号,d82d66977bd16ba6d418b7e0,1,0,114.350699,30.48047,,house,http://api.map.baidu.com/place/detail?uid=d82d66977bd16ba6d418b7e0&output=html&source=placeapi_v2,,,5,,,,,,,,,,,,,,,114.35076958194,30.48072084053,0
33633ffdf3e31bf0fbdc85db,律师楼,房地产,写字楼,湖北省,武汉市,洪山区,武汉市洪山区雄庄路居然之家(光谷店),,1,0,114.409196,30.486283,,house,http://api.map.baidu.com/place/detail?uid=33633ffdf3e31bf0fbdc85db&output=html&source=placeapi_v2,,,,,,,,,,,,,,,,,,114.40916177209,30.48593974073,0
01a5df1ea17a50c031870a3b,光谷创意大厦,房地产,写字楼,湖北省,武汉市,洪山区,武汉市洪山区关山大道20号,01a5df1ea17a50c031870a3b,1,0,114.417594,30.489122,,house,http://api.map.baidu.com/place/detail?uid=01a5df1ea17a50c031870a3b&output=html&source=placeapi_v2,,,0,,,,,,,,,,,,,,,114.41803332143,30.488157892923,0
08400e64325d955f21026232,交通银行大楼,房地产,写字楼,湖北省,武汉市,洪山区,武汉市洪山区光谷软件园c7栋,08400e64325d955f21026232,1,0,114.409483,30.479854,,house,http://api.map.baidu.com/place/detail?uid=08400e64325d955f21026232&output=html&source=placeapi_v2,,,1,,,,,,,,,,,,,,,114.41025583365,30.480416632239,0
3f9337d6066898aaf623108e,光谷时间广场,房地产,写字楼,湖北省,武汉市,洪山区,洪山区民族大道118号(当代学生公寓旁),3f9337d6066898aaf623108e,1,0,114.403419,30.501827,,house,http://api.map.baidu.com/place/detail?uid=3f9337d6066898aaf623108e&output=html&source=placeapi_v2,,,4.4,,,,,,,,,,,,,,,114.40417436689,30.502055494581,0
11132d4bed882a81adcb662b,光谷软件园d8栋f座,房地产,写字楼,湖北省,武汉市,洪山区,武汉市洪山区东湖新技术开发区光谷软件园d8栋f座,11132d4bed882a81adcb662b,1,0,114.411143,30.483407,,house,http://api.map.baidu.com/place/detail?uid=11132d4bed882a81adcb662b&output=html&source=placeapi_v2,,,,,,,,,,,,,,,,,,114.41094512143,30.483370537015,0
14e06b701e61ea4efb2213ae,恒隆大楼,房地产,写字楼,湖北省,武汉市,洪山区,武汉市洪山区光谷软件园d8号d8栋,14e06b701e61ea4efb2213ae,1,0,114.411711,30.483591,,house,http://api.map.baidu.com/place/detail?uid=14e06b701e61ea4efb2213ae&output=html&source=placeapi_v2,,,,,,,,,,,,,,,,,,114.41177610343,30.483508944208,0
809178c6c1146b2276e5b6ee,银联商务大厦,房地产,写字楼,湖北省,武汉市,洪山区,湖北武汉市洪山区关东街道武汉市光谷软件园6期e3栋银联商务大厦,,1,0,114.408935,30.481895,,house,http://api.map.baidu.com/place/detail?uid=809178c6c1146b2276e5b6ee&output=html&source=placeapi_v2,,,,,,,,,,,,,,,,,,114.40916594113,30.481480370735,0
c89cab01cab266bbc61e5150,保利国际中心,房地产,写字楼,湖北省,武汉市,洪山区,武汉市洪山区关山大道322号,c89cab01cab266bbc61e5150,1,0,114.417059,30.497882,,house,http://api.map.baidu.com/place/detail?uid=c89cab01cab266bbc61e5150&output=html&source=placeapi_v2,,,1,,,,,,,,,,,,,,,114.41707196475,30.498021554395,0
0164c432046c1a162ad7ab6c,光谷新发展国际中心-A座,房地产,写字楼,湖北省,武汉市,洪山区,湖北省武汉市洪山区关山大道473号,0164c432046c1a162ad7ab6c,1,0,114.417683,30.486399,(027)87868666,house,http://api.map.baidu.com/place/detail?uid=0164c432046c1a162ad7ab6c&output=html&source=placeapi_v2,,,5,,,,,,,,,,,,,,,114.41718893195,30.48699988446,0
dad91027fa53731815c8f6b6,光谷软件园招商银行大楼,房地产,写字楼,湖北省,武汉市,洪山区,武汉市洪山区关山大道519号光谷天地1层,dad91027fa53731815c8f6b6,1,0,114.415144,30.480417,"(027)67885256,(027)87051109",house,http://api.map.baidu.com/place/detail?uid=dad91027fa53731815c8f6b6&output=html&source=placeapi_v2,,,3,,,,,,,,,,,,,,,114.41439785927,30.481110843237,0
66c575e3124189250ab93ad5,海豚湾-C座,房地产,写字楼,湖北省,武汉市,江夏区,湖北省武汉市江夏区民族大道302号,66c575e3124189250ab93ad5,1,0,114.400815,30.484323,,house,http://api.map.baidu.com/place/detail?uid=66c575e3124189250ab93ad5&output=html&source=placeapi_v2,,,,,,,,,,,,,,,,,,,,0
1426065db7863d0ff4e73bea,光谷万科中心,房地产,写字楼,湖北省,武汉市,洪山区,湖北省武汉市洪山区雄楚大道1008号,1426065db7863d0ff4e73bea,1,0,114.413096,30.502541,(027)87566999,house,http://api.map.baidu.com/place/detail?uid=1426065db7863d0ff4e73bea&output=html&source=placeapi_v2,,,4.8,,,,,,,,,,,,,,,114.41285193657,30.502892749751,0
49330ae88496fcb9d13ce3bb,海康威视大厦,房地产,写字楼,湖北省,武汉市,洪山区,武汉市洪山区光谷软件园F4栋,49330ae88496fcb9d13ce3bb,1,0,114.415406,30.484056,,house,http://api.map.baidu.com/place/detail?uid=49330ae88496fcb9d13ce3bb&output=html&source=placeapi_v2,,,,,,,,,,,,,,,,,,114.41538209848,30.483800395041,0
13cc79377df9bfb503ff2d2d,武银光谷大厦,房地产,写字楼,湖北省,武汉市,洪山区,武汉市洪山区关山大道光谷软件园F5栋,13cc79377df9bfb503ff2d2d,1,0,114.415628,30.483416,,house,http://api.map.baidu.com/place/detail?uid=13cc79377df9bfb503ff2d2d&output=html&source=placeapi_v2,,,0,,,,,,,,,,,,,,,114.41556701018,30.483081437187,0
0b3a81af1e833fc38c1a897b,保利时代天悦写字楼,房地产,写字楼,湖北省,武汉市,洪山区,高新区关山大道332号,0b3a81af1e833fc38c1a897b,1,0,114.416775,30.495172,,house,http://api.map.baidu.com/place/detail?uid=0b3a81af1e833fc38c1a897b&output=html&source=placeapi_v2,,,,,,,,,,,,,,,,,,114.41625117852,30.495845360814,0
e839e994047a4fef471a32c8,物业中心,房地产,写字楼,湖北省,武汉市,洪山区,武汉市洪山区关山大道纺织路金地格林东郡2栋1006物业中心,e839e994047a4fef471a32c8,1,0,114.413103,30.49022,,house,http://api.map.baidu.com/place/detail?uid=e839e994047a4fef471a32c8&output=html&source=placeapi_v2,,,,,,,,,,,,,,,,,,,,0
ca215e0d84a3d9931894c623,光谷创意大厦-C座,房地产,写字楼,湖北省,武汉市,洪山区,关山大道456号附近,ca215e0d84a3d9931894c623,1,0,114.417748,30.488486,,house,http://api.map.baidu.com/place/detail?uid=ca215e0d84a3d9931894c623&output=html&source=placeapi_v2,,,0,,,,,,,,,,,,,,,114.41721319275,30.488207856512,0
4c881bc837a960a43fe2313d,交通银行大厦c7座,房地产,写字楼,湖北省,武汉市,洪山区,湖北省武汉市洪山区东湖高新技术开放区软件园一路交通银行大厦c7座,4c881bc837a960a43fe2313d,1,0,114.409876,30.479629,,house,http://api.map.baidu.com/place/detail?uid=4c881bc837a960a43fe2313d&output=html&source=placeapi_v2,,,,,,,,,,,,,,,,,,114.4098724647,30.479487838855,0
e7875ab141bbe62ef4eafc6b,立信大厦,房地产,写字楼,湖北省,武汉市,洪山区,武汉市洪山区雄楚大道979号,e7875ab141bbe62ef4eafc6b,1,0,114.408205,30.504084,(027)87860717,house,http://api.map.baidu.com/place/detail?uid=e7875ab141bbe62ef4eafc6b&output=html&source=placeapi_v2,,,5,,,,,,,,,,,,,,,114.40777651044,30.503919570644,0
baad822f76a6f8212fe67bc0,中国光谷创业产业基地-A座,房地产,写字楼,湖北省,武汉市,洪山区,武汉市洪山区关山大道1号,baad822f76a6f8212fe67bc0,1,0,114.417626,30.489771,,house,http://api.map.baidu.com/place/detail?uid=baad822f76a6f8212fe67bc0&output=html&source=placeapi_v2,,,5,,,,,,,,,,,,,,,114.41729168669,30.489851703181,0
5924ace7cc16b8964251c03b,光谷创意大厦-B座,房地产,写字楼,湖北省,武汉市,洪山区,武汉市洪山区关山大道465号中国光谷创意产业基地,5924ace7cc16b8964251c03b,1,0,114.417574,30.488981,,house,http://api.map.baidu.com/place/detail?uid=5924ace7cc16b8964251c03b&output=html&source=placeapi_v2,,,0,,,,,,,,,,,,,,,114.41733426188,30.489005058363,0
121bf4289e5befc85cd4fe33,光谷新发展国际中心-B座,房地产,写字楼,湖北省,武汉市,洪山区,湖北省武汉市洪山区关山街道关山大道473号,,1,0,114.417533,30.485626,(027)87868666,house,http://api.map.baidu.com/place/detail?uid=121bf4289e5befc85cd4fe33&output=html&source=placeapi_v2,,,4.5,,,,,,,,,,,,,,,114.4178666112,30.48522568844,0
c177e9e8a442365f9e9d680e,同学广场,购物,其他,湖北省,武汉市,洪山区,湖北省武汉市洪山区民族大道219号,c177e9e8a442365f9e9d680e,1,0,114.403329,30.495176,(027)87616868,house,http://api.map.baidu.com/place/detail?uid=c177e9e8a442365f9e9d680e&output=html&source=placeapi_v2,,00:00-24:00,2,,,,,,,,,,,,,,,114.40272408183,30.495113091287,0
b791184ccca184ebb34c49a0,光谷软件园E区-4栋,公司企业,其他,湖北省,武汉市,洪山区,武汉市洪山区南湖大道光谷软件园E区4栋,b791184ccca184ebb34c49a0,1,0,114.41178,30.484668,,house,http://api.map.baidu.com/place/detail?uid=b791184ccca184ebb34c49a0&output=html&source=placeapi_v2,,,,,,,,,,,,,,,,,,114.41182790332,30.484782366558,0
8cb3b27fd33ef9d8f6eafca3,光谷软件园D区-6栋,公司企业,其他,湖北省,武汉市,洪山区,武汉市洪山区南湖大道南150米光谷软件园D区6栋,8cb3b27fd33ef9d8f6eafca3,1,0,114.412566,30.483914,,house,http://api.map.baidu.com/place/detail?uid=8cb3b27fd33ef9d8f6eafca3&output=html&source=placeapi_v2,,,0,,,,,,,,,,,,,,,114.41274681955,30.48405726157,0
6563cefd1294322546e274ae,保利天悦中心,房地产,写字楼,湖北省,武汉市,洪山区,关山大道332号,6563cefd1294322546e274ae,1,0,114.41606,30.495143,(027)87775000,house,http://api.map.baidu.com/place/detail?uid=6563cefd1294322546e274ae&output=html&source=placeapi_v2,,,,,,,,,,,,,,,,,,114.41544803949,30.494763364547,0
655d09f188a929e6e5e96534,保利商务中心,房地产,写字楼,湖北省,武汉市,洪山区,湖北省武汉市洪山区关山大道,655d09f188a929e6e5e96534,1,0,114.416648,30.495757,,house,http://api.map.baidu.com/place/detail?uid=655d09f188a929e6e5e96534&output=html&source=placeapi_v2,,,,,,,,,,,,,,,,,,114.41613289504,30.495856461619,0
7c4914475d599f9ad6b74e6f,光谷软件园B区-7栋,公司企业,其他,湖北省,武汉市,洪山区,武汉市洪山区软件园路9号光谷软件园B区7栋,7c4914475d599f9ad6b74e6f,1,0,114.411396,30.482076,,house,http://api.map.baidu.com/place/detail?uid=7c4914475d599f9ad6b74e6f&output=html&source=placeapi_v2,,,,,,,,,,,,,,,,,,114.41109214709,30.481879208293,0
c87f8262c519e500c9c3dbcc,光谷软件园D区-4栋,公司企业,其他,湖北省,武汉市,洪山区,武汉市洪山区南湖大道南150米光谷软件园D区4栋,c87f8262c519e500c9c3dbcc,1,0,114.41298,30.484103,,house,http://api.map.baidu.com/place/detail?uid=c87f8262c519e500c9c3dbcc&output=html&source=placeapi_v2,,,,,,,,,,,,,,,,,,,,0
e9916ecab22157edf82d61c3,唐山大厦,房地产,写字楼,湖北省,武汉市,江夏区,高新二路22号,e9916ecab22157edf82d61c3,1,0,114.428114,30.483506,,house,http://api.map.baidu.com/place/detail?uid=e9916ecab22157edf82d61c3&output=html&source=placeapi_v2,,,0,,,,,,,,,,,,,,,114.4285902491,30.483692294558,0
b960d04a2fd2f833b5147f1f,保利国际中心写字楼,房地产,写字楼,湖北省,武汉市,洪山区,湖北省武汉市洪山区关山街道关山大道330号,b960d04a2fd2f833b5147f1f,1,0,114.416719,30.497842,,house,http://api.map.baidu.com/place/detail?uid=b960d04a2fd2f833b5147f1f&output=html&source=placeapi_v2,,,,,,,,,,,,,,,,,,,,0
f61f80a65317eb3ead0457cc,楚源高科写字楼,房地产,写字楼,湖北省,武汉市,江夏区,武汉市江夏区光谷大道高架中国光谷云计算海外高新企业孵化中心,f61f80a65317eb3ead0457cc,1,0,114.427933,30.483179,,house,http://api.map.baidu.com/place/detail?uid=f61f80a65317eb3ead0457cc&output=html&source=placeapi_v2,,,,,,,,,,,,,,,,,,114.42771297562,30.483213664449,0
22e7e040c3949655d9d89191,铭丰大厦,房地产,写字楼,湖北省,武汉市,洪山区,湖北省武汉市洪山区关山街道关山大道355号,22e7e040c3949655d9d89191,1,0,114.419321,30.499821,(027)87809227,house,http://api.map.baidu.com/place/detail?uid=22e7e040c3949655d9d89191&output=html&source=placeapi_v2,,,2.5,,,,,,,,,,,,,,,114.41941936102,30.50013318451,0
b9ced7075d5e9d699de32186,光谷软件园B区-4栋,公司企业,其他,湖北省,武汉市,洪山区,湖北省武汉市洪山区软件园路9号光谷软件园B区,b9ced7075d5e9d699de32186,1,0,114.412085,30.481177,,house,http://api.map.baidu.com/place/detail?uid=b9ced7075d5e9d699de32186&output=html&source=placeapi_v2,,,,,,,,,,,,,,,,,,114.41209903438,30.481356339024,0
5cd1c0c0b0772fc4d7851f8f,光谷软件园A区-9栋,公司企业,其他,湖北省,武汉市,洪山区,湖北省武汉市洪山区关山大道1号光谷软件园A区9栋,5cd1c0c0b0772fc4d7851f8f,1,0,114.412932,30.480819,,house,http://api.map.baidu.com/place/detail?uid=5cd1c0c0b0772fc4d7851f8f&output=html&source=placeapi_v2,,,,,,,,,,,,,,,,,,114.41302717352,30.480503983927,0
f57394d85e3b40a6b04c49c2,云计算唐山大厦,房地产,写字楼,湖北省,武汉市,江夏区,武汉市江夏区关东街道东湖新技术开发区高新二路22号中国光谷云计算唐山大厦,,1,0,114.428303,30.483292,,house,http://api.map.baidu.com/place/detail?uid=f57394d85e3b40a6b04c49c2&output=html&source=placeapi_v2,,,0,,,,,,,,,,,,,,,114.42830285961,30.483473458421,0
6dae7d255896b321ad31e550,光谷时间广场写字楼,房地产,写字楼,湖北省,武汉市,洪山区,湖北省武汉市洪山区民族大道158号(当代学生公寓旁),6dae7d255896b321ad31e550,1,0,114.403597,30.501075,"13296553183,15827554166",house,http://api.map.baidu.com/place/detail?uid=6dae7d255896b321ad31e550&output=html&source=placeapi_v2,,,0,,,,,,,,,,,,,,,,,0
5438b5f63505e7eb6b49f3ee,国际企业中心2期-聚星楼,房地产,写字楼,湖北省,武汉市,洪山区,光谷国际企业中心附近,5438b5f63505e7eb6b49f3ee,1,0,114.427378,30.493157,,house,http://api.map.baidu.com/place/detail?uid=5438b5f63505e7eb6b49f3ee&output=html&source=placeapi_v2,,,3,,,,,,,,,,,,,,,114.42780019031,30.493146572772,0
ae76eaefd246814d5cd4fec2,国际企业中心2期-邀月楼,房地产,写字楼,湖北省,武汉市,洪山区,武汉市洪山区新技术开发区关山二路特1号国际企业中心1栋1-5层,ae76eaefd246814d5cd4fec2,1,0,114.427222,30.492822,,house,http://api.map.baidu.com/place/detail?uid=ae76eaefd246814d5cd4fec2&output=html&source=placeapi_v2,,,,,,,,,,,,,,,,,,114.4270635196,30.49282865408,0
2d2208e5e41b0d4b100daa06,东逸10舍-B座,房地产,写字楼,湖北省,武汉市,洪山区,武汉市洪山区关山大道463号,2d2208e5e41b0d4b100daa06,1,0,114.424284,30.48766,,house,http://api.map.baidu.com/place/detail?uid=2d2208e5e41b0d4b100daa06&output=html&source=placeapi_v2,,,,,,,,,,,,,,,,,,114.42416704308,30.487672831851,0
48778b8a96a6e1cd2ce67ba7,众诚鼎泰商务楼,房地产,写字楼,湖北省,武汉市,江夏区,武汉市江夏区水蓝路矿山小区东侧,48778b8a96a6e1cd2ce67ba7,1,0,114.396926,30.475148,,house,http://api.map.baidu.com/place/detail?uid=48778b8a96a6e1cd2ce67ba7&output=html&source=placeapi_v2,,,,,,,,,,,,,,,,,,114.39697479495,30.474999454315,0
03e8a3631f156fefd718b728,购物中心t写字楼,房地产,写字楼,湖北省,武汉市,洪山区,武汉市洪山区关山街道关山大道355号光谷新世界k11购物中心t写字楼,,1,0,114.419333,30.499657,,house,http://api.map.baidu.com/place/detail?uid=03e8a3631f156fefd718b728&output=html&source=placeapi_v2,,,,,,,,,,,,,,,,,,,,0
6657a27d5e1826d5100daafb,光谷软件园A区-3栋,公司企业,其他,湖北省,武汉市,洪山区,湖北省武汉市洪山区关山大道1号光谷软件园A区3栋,6657a27d5e1826d5100daafb,1,0,114.414213,30.480277,,house,http://api.map.baidu.com/place/detail?uid=6657a27d5e1826d5100daafb&output=html&source=placeapi_v2,,,0,,,,,,,,,,,,,,,114.41410944122,30.480509786689,0
9059e0f6d0f268ee9ee3211e,光谷软件园A区-5栋,公司企业,其他,湖北省,武汉市,洪山区,湖北省武汉市洪山区关山大道1号光谷软件园A区5栋,9059e0f6d0f268ee9ee3211e,1,0,114.413931,30.479853,,house,http://api.map.baidu.com/place/detail?uid=9059e0f6d0f268ee9ee3211e&output=html&source=placeapi_v2,,,,,,,,,,,,,,,,,,114.41393642129,30.479693535477,0
05bb5bb3dbe1a1d2d518b7e9,光谷国际企业中心-四期,房地产,写字楼,湖北省,武汉市,洪山区,湖北省武汉市洪山区光谷大道,05bb5bb3dbe1a1d2d518b7e9,1,0,114.426348,30.494491,,house,http://api.map.baidu.com/place/detail?uid=05bb5bb3dbe1a1d2d518b7e9&output=html&source=placeapi_v2,,,0,,,,,,,,,,,,,,,114.42616482423,30.494747805257,0
1077308bfdc41fb72e47333e,东逸11舍-A座,房地产,写字楼,湖北省,武汉市,洪山区,武汉市洪山区关山大道463号,1077308bfdc41fb72e47333e,1,0,114.425668,30.487908,,house,http://api.map.baidu.com/place/detail?uid=1077308bfdc41fb72e47333e&output=html&source=placeapi_v2,,,,,,,,,,,,,,,,,,114.42558092565,30.487753649987,0
fdf2f6fdf0e596fc2a11d1ff,精伦电子股份有限公司-办公楼,房地产,写字楼,湖北省,武汉市,江夏区,武汉市江夏区光谷大道高架精伦电子股份有限公司,fdf2f6fdf0e596fc2a11d1ff,1,0,114.425764,30.47779,,house,http://api.map.baidu.com/place/detail?uid=fdf2f6fdf0e596fc2a11d1ff&output=html&source=placeapi_v2,,,,,,,,,,,,,,,,,,114.42607760595,30.477926862067,0
81bad80fa9899a8a2cb17e31,中国石油大厦,房地产,写字楼,湖北省,武汉市,洪山区,武汉市洪山区关山街道雄楚大道与民院路交汇处东南角洪福添美城市广场9栋1单元1302中石油大厦,81bad80fa9899a8a2cb17e31,1,0,114.405611,30.503241,,house,http://api.map.baidu.com/place/detail?uid=81bad80fa9899a8a2cb17e31&output=html&source=placeapi_v2,,,,,,,,,,,,,,,,,,114.40563631373,30.50363143406,0
d162d5408439e70173455b78,光谷软件园A区-6栋,房地产,内部楼栋,湖北省,武汉市,洪山区,武汉市洪山区软件园路11号,d162d5408439e70173455b78,1,0,114.415063,30.480299,,house,http://api.map.baidu.com/place/detail?uid=d162d5408439e70173455b78&output=html&source=placeapi_v2,,,0,,,,,,,,,,,,,,,114.41525742805,30.480284735792,0
d93a79e648e61f1f71455b90,光谷智慧城写字楼,房地产,写字楼,湖北省,武汉市,洪山区,湖北省武汉市洪山区雄楚大街以北光谷步行街隔壁(民院大道与关山一路间关山中学对面),d93a79e648e61f1f71455b90,1,0,114.414307,30.503442,,house,http://api.map.baidu.com/place/detail?uid=d93a79e648e61f1f71455b90&output=html&source=placeapi_v2,,,,,,,,,,,,,,,,,,114.41430006703,30.503571341979,0
fb34a52dcbb1697300ff2d1a,招商银行大楼,房地产,写字楼,湖北省,武汉市,洪山区,湖北省武汉市洪山区关山街道关山大道特1号光谷软件园a6号,,1,0,114.417159,30.48459,,house,http://api.map.baidu.com/place/detail?uid=fb34a52dcbb1697300ff2d1a&output=html&source=placeapi_v2,,,,,,,,,,,,,,,,,,,,0
1299d5490fcd72d1d618b721,东逸10舍-C座,房地产,写字楼,湖北省,武汉市,洪山区,湖北省武汉市洪山区关山大道463号,1299d5490fcd72d1d618b721,1,0,114.42418,30.487394,,house,http://api.map.baidu.com/place/detail?uid=1299d5490fcd72d1d618b721&output=html&source=placeapi_v2,,,,,,,,,,,,,,,,,,,,0
b0af9cf9780bbcf0bbbd6329,光谷软件园D区-7栋,公司企业,其他,湖北省,武汉市,洪山区,武汉市洪山区南湖大道南150米光谷软件园D区7栋,b0af9cf9780bbcf0bbbd6329,1,0,114.412554,30.483588,,house,http://api.map.baidu.com/place/detail?uid=b0af9cf9780bbcf0bbbd6329&output=html&source=placeapi_v2,,,,,,,,,,,,,,,,,,114.41221381447,30.483770600898,0
5c2f0aeec4b5a8fb82a12efa,中科院CBI科普大楼,房地产,写字楼,湖北省,武汉市,洪山区,武汉市洪山区民光路武汉普罗旺斯花园酒店(光谷店),5c2f0aeec4b5a8fb82a12efa,1,0,114.407216,30.500692,(027)65381689,house,http://api.map.baidu.com/place/detail?uid=5c2f0aeec4b5a8fb82a12efa&output=html&source=placeapi_v2,,,,,,,,,,,,,,,,,,,,0
1f37b20e2abc7e94d92f28c5,紫菘枫林上城写字楼,房地产,写字楼,湖北省,武汉市,洪山区,湖北省武汉市洪山区光谷雄楚大道上七一七所对面,1f37b20e2abc7e94d92f28c5,1,0,114.403808,30.503516,,house,http://api.map.baidu.com/place/detail?uid=1f37b20e2abc7e94d92f28c5&output=html&source=placeapi_v2,,,,,,,,,,,,,,,,,,,,0
8539c32224ee60fffadc85e0,东逸10舍-A座,房地产,写字楼,湖北省,武汉市,洪山区,武汉市洪山区关山大道463号,8539c32224ee60fffadc85e0,1,0,114.424263,30.48803,,house,http://api.map.baidu.com/place/detail?uid=8539c32224ee60fffadc85e0&output=html&source=placeapi_v2,,,,,,,,,,,,,,,,,,,,0
90b8734754c8751fcae33cde,金地中心楼A,房地产,写字楼,湖北省,武汉市,洪山区,武汉市洪山区天龙路中南民族大学北区学生公寓,90b8734754c8751fcae33cde,1,0,114.400352,30.501005,,house,http://api.map.baidu.com/place/detail?uid=90b8734754c8751fcae33cde&output=html&source=placeapi_v2,,,,,,,,,,,,,,,,,,,,0
536cb01c2acb1eea0f0a70df,武汉方正律师楼,房地产,写字楼,湖北省,武汉市,洪山区,武汉市洪山区新竹路金地・阳光城-北苑,536cb01c2acb1eea0f0a70df,1,0,114.403854,30.497465,,house,http://api.map.baidu.com/place/detail?uid=536cb01c2acb1eea0f0a70df&output=html&source=placeapi_v2,,,,,,,,,,,,,,,,,,,,0
d6efe90cc429085cc42ba126,正威律师楼,房地产,写字楼,湖北省,武汉市,洪山区,武汉市洪山区新竹路金地・阳光城-北苑,d6efe90cc429085cc42ba126,1,0,114.403724,30.497428,,house,http://api.map.baidu.com/place/detail?uid=d6efe90cc429085cc42ba126&output=html&source=placeapi_v2,,,,,,,,,,,,,,,,,,,,0
c30cc539eafc2a0beaf8539b,中南民族大学-行政楼,教育培训,其他,湖北省,武汉市,洪山区,湖北武汉市洪山区民族大道182号,c30cc539eafc2a0beaf8539b,1,0,114.401273,30.493555,,education,http://api.map.baidu.com/place/detail?uid=c30cc539eafc2a0beaf8539b&output=html&source=placeapi_v2,,09:00-18:00,0,,,,,,,,0,,,,,,,114.40130516965,30.493312453923,0
3d2717a990a047e3fa0cad63,光谷国际企业中心,房地产,写字楼,湖北省,武汉市,洪山区,湖北省武汉市洪山区关山大道330号光谷国际企业中心,,1,0,114.416883,30.496597,,house,http://api.map.baidu.com/place/detail?uid=3d2717a990a047e3fa0cad63&output=html&source=placeapi_v2,,,,,,,,,,,,,,,,,,,,0
6c4fc5025288b58bdeee8b20,海创电子-行政楼,房地产,写字楼,湖北省,武汉市,洪山区,武汉市洪山区茅店山东路芭比伦堡南侧约190米,,1,0,114.409642,30.473592,,house,http://api.map.baidu.com/place/detail?uid=6c4fc5025288b58bdeee8b20&output=html&source=placeapi_v2,,,,,,,,,,,,,,,,,,,,0
50f4fe560fba5a992202205c,光伏中心,房地产,写字楼,湖北省,武汉市,江夏区,新技术开发区关山大道茅店山中路6号日新科技光伏工业园3楼,,1,0,114.409897,30.472138,,house,http://api.map.baidu.com/place/detail?uid=50f4fe560fba5a992202205c&output=html&source=placeapi_v2,,,,,,,,,,,,,,,,,,,,0
1e58e7326be8101c2a3a9fe0,东逸11舍-C座,房地产,写字楼,湖北省,武汉市,洪山区,湖北省武汉市洪山区光谷大道35号附近,1e58e7326be8101c2a3a9fe0,1,0,114.425733,30.487286,,house,http://api.map.baidu.com/place/detail?uid=1e58e7326be8101c2a3a9fe0&output=html&source=placeapi_v2,,,,,,,,,,,,,,,,,,114.42557194259,30.487216813973,0
f670c671766ab36a3210af79,关山苗圃科普楼,房地产,写字楼,湖北省,武汉市,洪山区,武汉市洪山区民族大道163号,f670c671766ab36a3210af79,1,0,114.407216,30.500692,,house,http://api.map.baidu.com/place/detail?uid=f670c671766ab36a3210af79&output=html&source=placeapi_v2,,,,,,,,,,,,,,,,,,,,0
95a0ec0a9c373c74c27da2cf,东逸11舍-B座,房地产,写字楼,湖北省,武汉市,洪山区,武汉市洪山区光谷大道高架光谷总部国际6栋西门北侧约80米,95a0ec0a9c373c74c27da2cf,1,0,114.425746,30.487405,,house,http://api.map.baidu.com/place/detail?uid=95a0ec0a9c373c74c27da2cf&output=html&source=placeapi_v2,,,,,,,,,,,,,,,,,,114.4255899087,30.487403539883,0
4545e31f37a19d7f04fef540,武汉职业技术学院凌曦楼-C座,房地产,写字楼,湖北省,武汉市,洪山区,职业技术学院东区纺织服装工程学院附近,4545e31f37a19d7f04fef540,1,0,114.424898,30.48878,,house,http://api.map.baidu.com/place/detail?uid=4545e31f37a19d7f04fef540&output=html&source=placeapi_v2,,,,,,,,,,,,,,,,,,114.42505123262,30.488119472608,0
22fb6b6972819e12ca1b9534,XII星座,房地产,写字楼,湖北省,武汉市,洪山区,武汉市洪山区康福路金地雄楚-1号,,1,0,114.395619,30.501081,,house,http://api.map.baidu.com/place/detail?uid=22fb6b6972819e12ca1b9534&output=html&source=placeapi_v2,,,,,,,,,,,,,,,,,,,,0
535be12f8b61313c901fc9ce,东林外庐池渊庭-A座,房地产,内部楼栋,湖北省,武汉市,江夏区,湖北省武汉市江夏区光谷南湖大道东林外庐,535be12f8b61313c901fc9ce,1,0,114.403093,30.481058,,house,http://api.map.baidu.com/place/detail?uid=535be12f8b61313c901fc9ce&output=html&source=placeapi_v2,,,,,,,,,,,,,,,,,,114.40294258027,30.480923049362,0
52af9c5823970016fe0eb062,爱尚写字,房地产,写字楼,湖北省,武汉市,洪山区,武汉市洪山区自强路金地天悦,,1,0,114.396625,30.498301,,house,http://api.map.baidu.com/place/detail?uid=52af9c5823970016fe0eb062&output=html&source=placeapi_v2,,,,,,,,,,,,,,,,,,,,0
a317f635e73cf2624107c14b,武汉职业技术学院凌曦楼-B座,房地产,内部楼栋,湖北省,武汉市,洪山区,武汉市洪山区,a317f635e73cf2624107c14b,1,0,114.424898,30.48878,,house,http://api.map.baidu.com/place/detail?uid=a317f635e73cf2624107c14b&output=html&source=placeapi_v2,,,,,,,,,,,,,,,,,,114.42507368576,30.488987031303,0
614313b37c8da36032870ac8,武汉职业技术学院凌曦楼-D座,房地产,内部楼栋,湖北省,武汉市,洪山区,武汉市洪山区东逸大道武汉职业技术学院,614313b37c8da36032870ac8,1,0,114.424781,30.488477,,house,http://api.map.baidu.com/place/detail?uid=614313b37c8da36032870ac8&output=html&source=placeapi_v2,,,0,,,,,,,,,,,,,,,,,0
155cf0caf57c018ec51e512c,武汉职业技术学院凌曦楼-A座,房地产,内部楼栋,湖北省,武汉市,洪山区,职业技术学院东区纺织服装工程学院附近,155cf0caf57c018ec51e512c,1,0,114.425552,30.488733,,house,http://api.map.baidu.com/place/detail?uid=155cf0caf57c018ec51e512c&output=html&source=placeapi_v2,,,0,,,,,,,,,,,,,,,114.42545344621,30.488942372523,0
e55151b87ef170acb23c819d,APP写字楼招商中心,房地产,,湖北省,武汉市,洪山区,湖北省武汉市洪山区光谷APP广场(南湖大道),,1,0,114.408215,30.486302,,house,http://api.map.baidu.com/place/detail?uid=e55151b87ef170acb23c819d&output=html&source=placeapi_v2,,,,,,,,,,,,,,,,,,,,0
5427ce5ad3da192d72210b22,中国移动通信枢纽大楼,房地产,写字楼,湖北省,武汉市,洪山区,关山大道与南湖大道交叉口西150米,5427ce5ad3da192d72210b22,1,0,114.415059,30.485313,,house,http://api.map.baidu.com/place/detail?uid=5427ce5ad3da192d72210b22&output=html&source=placeapi_v2,,,1,,,,,,,,,,,,,,,114.41543016501,30.485249143742,0
1746c037dce4fe52c16c1419,光谷软件园F区-1栋,房地产,写字楼,湖北省,武汉市,洪山区,武汉市洪山区关山大道与南湖大道交叉口西南150米光谷软件园F区1栋,1746c037dce4fe52c16c1419,1,0,114.413612,30.484286,,life,http://api.map.baidu.com/place/detail?uid=1746c037dce4fe52c16c1419&output=html&source=placeapi_v2,,,5.0,,,,,,,5,2,,,,,,,114.41332255972,30.484002534778,0
30fd0368eb2e18930ab93a91,光谷软件园F区-2栋,房地产,写字楼,湖北省,武汉市,洪山区,武汉市洪山区关山大道与南湖大道交叉口西南150米光谷软件园F区2栋,30fd0368eb2e18930ab93a91,1,0,114.414101,30.484799,,house,http://api.map.baidu.com/place/detail?uid=30fd0368eb2e18930ab93a91&output=html&source=placeapi_v2,,,5,,,,,,,,,,,,,,,114.41412293466,30.484979873865,0
c078803659e7deba1ce99950,光谷软件园E区-2栋,房地产,写字楼,湖北省,武汉市,洪山区,武汉市洪山区软件园路9号,c078803659e7deba1ce99950,1,0,114.412208,30.485093,,house,http://api.map.baidu.com/place/detail?uid=c078803659e7deba1ce99950&output=html&source=placeapi_v2,,,0,,,,,,,,,,,,,,,114.41211974931,30.485175608622,0
d02e7b89f60e2a9629fc4897,光谷软件园A区-10栋,房地产,写字楼,湖北省,武汉市,洪山区,湖北省武汉市洪山区软件园东路1号,d02e7b89f60e2a9629fc4897,1,0,114.412069,30.480752,,house,http://api.map.baidu.com/place/detail?uid=d02e7b89f60e2a9629fc4897&output=html&source=placeapi_v2,,,0,,,,,,,,,,,,,,,114.41208467677,30.481040429321,0
81039e2b01c854e909a8d4d2,光谷E城-E3栋,房地产,写字楼,湖北省,武汉市,洪山区,湖北省武汉市洪山区软件园中路,81039e2b01c854e909a8d4d2,1,0,114.408813,30.481731,,house,http://api.map.baidu.com/place/detail?uid=81039e2b01c854e909a8d4d2&output=html&source=placeapi_v2,,,5,,,,,,,,,,,,,,,114.4088018085,30.481913528109,0
b634e7277fac42eaeaf8535c,光谷软件园-F3栋,房地产,写字楼,湖北省,武汉市,洪山区,湖北省武汉市洪山区关山大道与南湖大道交叉口西南150米,b634e7277fac42eaeaf8535c,1,0,114.414833,30.484685,,house,http://api.map.baidu.com/place/detail?uid=b634e7277fac42eaeaf8535c&output=html&source=placeapi_v2,,,4,,,,,,,,,,,,,,,114.41485691764,30.48488407045,0
5483103b028e3a2645572644,光谷软件园A区-8栋,房地产,写字楼,湖北省,武汉市,洪山区,湖北省武汉市洪山区关山大道1号光谷软件园A区8栋,5483103b028e3a2645572644,1,0,114.413753,30.481082,,house,http://api.map.baidu.com/place/detail?uid=5483103b028e3a2645572644&output=html&source=placeapi_v2,,,0,,,,,,,,,,,,,,,114.41377596596,30.481027595047,0
3cb119401ddb02acb45f1e8f,光谷软件园F区-4栋,房地产,写字楼,湖北省,武汉市,洪山区,武汉市洪山区关山大道与南湖大道交叉口西南150米光谷软件园F区4栋,3cb119401ddb02acb45f1e8f,1,0,114.415505,30.483945,(027)87611116,house,http://api.map.baidu.com/place/detail?uid=3cb119401ddb02acb45f1e8f&output=html&source=placeapi_v2,,,0,,,,,,,,,,,,,,,114.41505349024,30.483926790284,0
7290b98a95ad2ed2fbdc850d,光谷软件园C区-6栋,房地产,写字楼,湖北省,武汉市,洪山区,武汉市洪山区软件园中路光谷软件园C区6栋,7290b98a95ad2ed2fbdc850d,1,0,114.40995,30.481704,,house,http://api.map.baidu.com/place/detail?uid=7290b98a95ad2ed2fbdc850d&output=html&source=placeapi_v2,,,4,,,,,,,,,,,,,,,114.41025513207,30.481825268758,0
7fd7231153978de25cbe8618,中国石油华中管道大楼,房地产,写字楼,湖北省,武汉市,洪山区,东胡开发区雄楚大道977号,7fd7231153978de25cbe8618,1,0,114.405957,30.504268,,house,http://api.map.baidu.com/place/detail?uid=7fd7231153978de25cbe8618&output=html&source=placeapi_v2,,,5,,,,,,,,,,,,,,,114.40581842721,30.504097172209,0
d5e96043462ea8db86420e08,光谷总部国际-8栋,房地产,写字楼,湖北省,武汉市,洪山区,武汉市洪山区光谷大道58号,d5e96043462ea8db86420e08,1,0,114.425743,30.486089,,house,http://api.map.baidu.com/place/detail?uid=d5e96043462ea8db86420e08&output=html&source=placeapi_v2,,,,,,,,,,,,,,,,,,114.42613474087,30.485979855153,0
f2883c61f54f709385420e26,光谷总部国际-4栋,房地产,写字楼,湖北省,武汉市,洪山区,湖北省武汉市洪山区光谷大道62号光谷总部国际,f2883c61f54f709385420e26,1,0,114.424202,30.486882,,house,http://api.map.baidu.com/place/detail?uid=f2883c61f54f709385420e26&output=html&source=placeapi_v2,,,4,,,,,,,,,,,,,,,114.42371250498,30.48694571594,0
51d4801f58d5856003ff2dcd,光谷总部国际-1栋,房地产,写字楼,湖北省,武汉市,洪山区,武汉市光谷大道光谷总部国际,51d4801f58d5856003ff2dcd,1,0,114.423847,30.484999,,house,http://api.map.baidu.com/place/detail?uid=51d4801f58d5856003ff2dcd&output=html&source=placeapi_v2,,,0,,,,,,,,,,,,,,,114.42406307859,30.484774012532,0
60394bf48cfa98f6da2f28c3,紫菘枫尚国际大厦,房地产,写字楼,湖北省,武汉市,洪山区,武汉市洪山区民族大道159号,60394bf48cfa98f6da2f28c3,1,0,114.404689,30.502036,,house,http://api.map.baidu.com/place/detail?uid=60394bf48cfa98f6da2f28c3&output=html&source=placeapi_v2,,,5,,,,,,,,,,,,,,,114.40447736488,30.502037407832,0
a23e601e6d799a489a005016,保利国际公寓-B栋,房地产,写字楼,湖北省,武汉市,洪山区,关山大道与新竹路交叉口西北100米,a23e601e6d799a489a005016,1,0,114.416403,30.496297,,house,http://api.map.baidu.com/place/detail?uid=a23e601e6d799a489a005016&output=html&source=placeapi_v2,,,0,,,,,,,,,,,,,,,114.41630830356,30.495827830281,0
bf5fec590f48d63076e5b68d,光谷总部国际-6栋,房地产,写字楼,湖北省,武汉市,洪山区,洪山区关谷大道62号光谷总部国际内,bf5fec590f48d63076e5b68d,1,0,114.425835,30.486708,,house,http://api.map.baidu.com/place/detail?uid=bf5fec590f48d63076e5b68d&output=html&source=placeapi_v2,,,,,,,,,,,,,,,,,,114.42622944204,30.486662002091,0
8201a7127e6bdc90246e9884,光谷总部・时代-1栋,房地产,写字楼,湖北省,武汉市,江夏区,湖北省武汉市江夏区高新二路光谷总部国际二期时代,8201a7127e6bdc90246e9884,1,0,114.428443,30.48573,,house,http://api.map.baidu.com/place/detail?uid=8201a7127e6bdc90246e9884&output=html&source=placeapi_v2,,,,,,,,,,,,,,,,,,114.42862722426,30.485874706573,0
5f8c2aa49d6f8e8e223bf2b8,金地格林东郡-商业广场,房地产,写字楼,湖北省,武汉市,洪山区,武汉市洪山区纺织路,5f8c2aa49d6f8e8e223bf2b8,1,0,114.41495,30.490372,,house,http://api.map.baidu.com/place/detail?uid=5f8c2aa49d6f8e8e223bf2b8&output=html&source=placeapi_v2,,,4,,,,,,,,,,,,,,,114.41505687146,30.490361240525,0
94801b899e84a72286330470,光谷总部国际-7栋,房地产,写字楼,湖北省,武汉市,洪山区,湖北省武汉市洪山区光谷总部国际8栋正门,94801b899e84a72286330470,1,0,114.425071,30.486047,,house,http://api.map.baidu.com/place/detail?uid=94801b899e84a72286330470&output=html&source=placeapi_v2,,,,,,,,,,,,,,,,,,114.42450777575,30.486128837606,0
f053452c95c6ff9dc51b75a5,洪福添美-9号楼,房地产,写字楼,湖北省,武汉市,洪山区,武汉市洪山区雄楚大道938号,f053452c95c6ff9dc51b75a5,1,0,114.406227,30.503024,,house,http://api.map.baidu.com/place/detail?uid=f053452c95c6ff9dc51b75a5&output=html&source=placeapi_v2,,,5,,,,,,,,,,,,,,,114.40621668286,30.502869644902,0
