uid,name,cat_L1,cat_L2,province,city,area,address,street_id,detail,child_num,loc_lng,loc_lat,telephone,type,detail_url,price,shop_hours,overall_rating,taste_rating,service_rating,environment_rating,facility_rating,hygiene_rating,technology_rating,image_num,comment_num,groupon_num,discount_num,favorite_num,checkin_num,brand,content_tag,naviloc_lng,naviloc_lat,child_num
6747853fe4d3e35bc7f50d06,上海金山现代农业工业园,公司企业,园区,上海市,上海市,金山区,上海市金山区金石南路2239号11幢,6747853fe4d3e35bc7f50d06,1,0,121.254309,30.792838,,life,http://api.map.baidu.com/place/detail?uid=6747853fe4d3e35bc7f50d06&output=html&source=placeapi_v2,,,,,,,,,,1,,,,,,,,121.254307185,30.79271948599,0
6716f682d88d1280c91b95df,级工业园区・张堰工业区,公司企业,园区,上海市,上海市,金山区,金张支路14号,6716f682d88d1280c91b95df,1,0,121.287107,30.808662,,life,http://api.map.baidu.com/place/detail?uid=6716f682d88d1280c91b95df&output=html&source=placeapi_v2,,,0.0,,,,,,,7,,,,,,,,121.28738708868,30.808669784397,0
e10cc3d6096b1ee7aaf0cdd0,上海联欣科技发展有限公司生产基地,公司企业,园区,上海市,上海市,金山区,上海市金山区汇达路与振堰路交叉路口往北约150米,,1,0,121.278174,30.809905,,enterprise,http://api.map.baidu.com/place/detail?uid=e10cc3d6096b1ee7aaf0cdd0&output=html&source=placeapi_v2,,,,,,,,,,,,,,,,,,,,0
fa01e937f42b2e49774ff1c1,上海鑫灵企业园,公司企业,园区,上海市,上海市,金山区,上海市金山区山磊路188号,fa01e937f42b2e49774ff1c1,1,0,121.370012,30.784075,(021)57247070,enterprise,http://api.map.baidu.com/place/detail?uid=fa01e937f42b2e49774ff1c1&output=html&source=placeapi_v2,,,0.0,,,,,,,,,,,,,,,121.36996760275,30.784110630078,0
9ee392b81b6edf40bbbd6324,金山工业区,公司企业,园区,上海市,上海市,金山区,上海市金山区亭卫公路,9ee392b81b6edf40bbbd6324,1,0,121.356582,30.80928,,enterprise,http://api.map.baidu.com/place/detail?uid=9ee392b81b6edf40bbbd6324&output=html&source=placeapi_v2,,,0.0,,,,,,,,,,,,,,,121.36137522072,30.804652970426,0
8f5e9d5eab5dc1723a13fd84,华东电器集团-金山电气产业基地,公司企业,园区,上海市,上海市,金山区,上海市金山区金舸路188号,8f5e9d5eab5dc1723a13fd84,1,0,121.352744,30.808425,,enterprise,http://api.map.baidu.com/place/detail?uid=8f5e9d5eab5dc1723a13fd84&output=html&source=placeapi_v2,,,,,,,,,,,,,,,,,,121.35276541784,30.808280400692,0
bb557f10515944432cb908e0,上海金山漕泾经济园区,公司企业,园区,上海市,上海市,金山区,上海市金山区海创路451号,bb557f10515944432cb908e0,1,0,121.41676,30.800273,,enterprise,http://api.map.baidu.com/place/detail?uid=bb557f10515944432cb908e0&output=html&source=placeapi_v2,,,,,,,,,,,,,,,,,,121.41694856052,30.800303353373,0
5211d2191c83b3257dc8763d,振吕工业园,公司企业,园区,上海市,上海市,金山区,上海市金山区建乐路691号,5211d2191c83b3257dc8763d,1,0,121.18956,30.840432,,life,http://api.map.baidu.com/place/detail?uid=5211d2191c83b3257dc8763d&output=html&source=placeapi_v2,,,0.0,,,,,,,,0,,,,,,,121.18992921244,30.841763580534,0
251a4ad5ccb89478e315f9bc,天庆彩钢结构公司钢结构生产基地,公司企业,园区,上海市,上海市,金山区,上海市金山区荣昌路625号,,1,1,121.238108,30.845889,,enterprise,http://api.map.baidu.com/place/detail?uid=251a4ad5ccb89478e315f9bc&output=html&source=placeapi_v2,,,,,,,,,,,,,,,,,,121.23827763553,30.845888509253,1
61ced0f534998fb8cbc3dbed,上海杭州湾北岸电子商务产业园,公司企业,园区,上海市,上海市,金山区,上海市金山区夏宁路818弄1-85号,61ced0f534998fb8cbc3dbed,1,0,121.321504,30.842745,,enterprise,http://api.map.baidu.com/place/detail?uid=61ced0f534998fb8cbc3dbed&output=html&source=placeapi_v2,,,,,,,,,,,,,,,,,,121.32138460245,30.842713002994,0
40991ffa6771e7dccb213d19,爱尔企业园,公司企业,园区,上海市,上海市,金山区,上海市金山区平业路155号,40991ffa6771e7dccb213d19,1,0,121.365864,30.822033,,enterprise,http://api.map.baidu.com/place/detail?uid=40991ffa6771e7dccb213d19&output=html&source=placeapi_v2,,,,,,,,,,,,,,,,,,121.36686844874,30.822790570988,0
db1f39d4e3376e6ef5c59c2f,上海美宝科技创业园区,公司企业,园区,上海市,上海市,金山区,上海市金山区平业路8-88号,db1f39d4e3376e6ef5c59c2f,1,0,121.36668,30.824195,,life,http://api.map.baidu.com/place/detail?uid=db1f39d4e3376e6ef5c59c2f&output=html&source=placeapi_v2,,,0.0,,,,,,,2,,,,,,,,121.36614975762,30.822876164942,0
44207646d9396568deee8bc6,恒信科技产业园,公司企业,园区,上海市,上海市,金山区,上海市金山区天工路285弄北区28号楼,44207646d9396568deee8bc6,1,0,121.350499,30.829205,,life,http://api.map.baidu.com/place/detail?uid=44207646d9396568deee8bc6&output=html&source=placeapi_v2,,,0.0,,,,,,,1,,,,,,,,121.34992640682,30.832295301851,0
cd9d05dd620311c885420e43,上海矮柳科技创业园,公司企业,园区,上海市,上海市,金山区,上海市金山区亭卫公路3688号,cd9d05dd620311c885420e43,1,3,121.360695,30.823055,,enterprise,http://api.map.baidu.com/place/detail?uid=cd9d05dd620311c885420e43&output=html&source=placeapi_v2,,,3,,,,,,,,1,,,,,,,121.36224217087,30.822278894215,3
c06c8727a6d7732e373a71c6,浦东高东建安漕泾基地,公司企业,园区,上海市,上海市,奉贤区,建国路与迎立路交叉口东50米,c06c8727a6d7732e373a71c6,1,0,121.416837,30.834708,,enterprise,http://api.map.baidu.com/place/detail?uid=c06c8727a6d7732e373a71c6&output=html&source=placeapi_v2,,,0.0,,,,,,,,,,,,,,,,,0
16b7fd4081df77a0990050b9,鼎信集团工业园,公司企业,园区,上海市,上海市,奉贤区,上海市奉贤区浦卫公路9855号,16b7fd4081df77a0990050b9,1,0,121.433209,30.827858,,life,http://api.map.baidu.com/place/detail?uid=16b7fd4081df77a0990050b9&output=html&source=placeapi_v2,,,0.0,,,,,,,1,,,,,,,,121.43236617888,30.827728873683,0
50fb64ffc815385ee9f853e9,上海师大科技产业园区,公司企业,园区,上海市,上海市,奉贤区,上海市奉贤区奉炮公路438弄,50fb64ffc815385ee9f853e9,1,0,121.528346,30.845792,,life,http://api.map.baidu.com/place/detail?uid=50fb64ffc815385ee9f853e9&output=html&source=placeapi_v2,,,0.0,,,,,,,6,,,,,,,,121.52810763763,30.845537924292,0
593850fb6a433b5cdf1e5224,复成工业园,公司企业,园区,上海市,上海市,金山区,上海市金山区金腾路1111号,593850fb6a433b5cdf1e5224,1,0,121.335552,30.871867,,life,http://api.map.baidu.com/place/detail?uid=593850fb6a433b5cdf1e5224&output=html&source=placeapi_v2,,,,,,,,,,,,,,,,,,121.33570630606,30.872272253218,0
ac284ea92ad9b779f5c59ce7,柘林镇新申经济园区,公司企业,园区,上海市,上海市,奉贤区,上海市奉贤区沪杭公路2451号,ac284ea92ad9b779f5c59ce7,1,0,121.466787,30.869786,,life,http://api.map.baidu.com/place/detail?uid=ac284ea92ad9b779f5c59ce7&output=html&source=placeapi_v2,,,0.0,,,,,,,5,,,,,,,,121.46694163906,30.869820121632,0
2e0ede0bbaf5d2e0cd04ef37,上海派米雷(奉贤)企业园区,公司企业,园区,上海市,上海市,奉贤区,上海市奉贤区民乐路328号,2e0ede0bbaf5d2e0cd04ef37,1,3,121.54158,30.85535,(021)57508088,enterprise,http://api.map.baidu.com/place/detail?uid=2e0ede0bbaf5d2e0cd04ef37&output=html&source=placeapi_v2,,,5.0,,,,,,,,1,,,,,,,121.54187615752,30.855309067035,3
f3c2373c8fa2fc51d22dd6e9,星火开发区工业厂房园区(白云路),公司企业,园区,上海市,上海市,奉贤区,上海市奉贤区白云路85号,f3c2373c8fa2fc51d22dd6e9,1,2,121.560443,30.859056,,enterprise,http://api.map.baidu.com/place/detail?uid=f3c2373c8fa2fc51d22dd6e9&output=html&source=placeapi_v2,,,,,,,,,,,,,,,,,,121.56167461423,30.85968018792,2
d5f93c0e53dcfc5decdfca8a,上海教卫青少年社会实践基地,公司企业,园区,上海市,上海市,奉贤区,上海市奉贤区五四公路3451号,d5f93c0e53dcfc5decdfca8a,1,0,121.70133,30.87889,,life,http://api.map.baidu.com/place/detail?uid=d5f93c0e53dcfc5decdfca8a&output=html&source=placeapi_v2,,,0.0,,,,,,,1,0,,,,,,,121.70129212757,30.879123330498,0
f8601d556f7ed17429fc4898,湛成机械制造公司生产基地,公司企业,园区,上海市,上海市,金山区,上海市金山区万枫路35号,,1,0,121.15783,30.902447,,enterprise,http://api.map.baidu.com/place/detail?uid=f8601d556f7ed17429fc4898&output=html&source=placeapi_v2,,,,,,,,,,,,,,,,,,121.15782928282,30.902619228911,0
befdb2924c1043e087154125,朱泾工业园区,公司企业,园区,上海市,上海市,金山区,朱泾镇仙居村15组,befdb2924c1043e087154125,1,0,121.195405,30.89896,(021)67311382,life,http://api.map.baidu.com/place/detail?uid=befdb2924c1043e087154125&output=html&source=placeapi_v2,,,0.0,,,,,,,3,1,,,,,,,121.19554725257,30.898894986061,0
7390e472318ecc87b5147faf,辰基食品园,公司企业,园区,上海市,上海市,金山区,上海市金山区中达路369号2号楼,7390e472318ecc87b5147faf,1,1,121.207625,30.907918,,enterprise,http://api.map.baidu.com/place/detail?uid=7390e472318ecc87b5147faf&output=html&source=placeapi_v2,,,,,,,,,,,,,,,,,,121.20748086244,30.907920470432,1
c8e8f633f8d0b06dab0dd82a,上海鸿越工业园1区,公司企业,园区,上海市,上海市,金山区,上海市金山区鸿安路281号,c8e8f633f8d0b06dab0dd82a,1,0,121.232798,30.90849,,life,http://api.map.baidu.com/place/detail?uid=c8e8f633f8d0b06dab0dd82a&output=html&source=placeapi_v2,,,0.0,,,,,,,,0,,,,,,,121.23291313109,30.908724950633,0
f633606a276a564f0b69d92a,鸿越工业园二区,公司企业,园区,上海市,上海市,金山区,上海市金山区鸿安路381号二区381弄6号楼,f633606a276a564f0b69d92a,1,0,121.231913,30.910904,(021)57348000,life,http://api.map.baidu.com/place/detail?uid=f633606a276a564f0b69d92a&output=html&source=placeapi_v2,,,0.0,,,,,,,,0,,,,,,,121.2319746327,30.910753573913,0
75e805d605d58e58705e802d,亭林工业园区(西部),公司企业,园区,上海市,上海市,金山区,上海市金山区亭枫公路康发路201号,75e805d605d58e58705e802d,1,0,121.26212,30.896882,,enterprise,http://api.map.baidu.com/place/detail?uid=75e805d605d58e58705e802d&output=html&source=placeapi_v2,,,0,,,,,,,,1,,,,,,,121.26284271777,30.898772824054,0
2fd2beabafb9cc517adbd251,亭林工业区,公司企业,园区,上海市,上海市,金山区,上海市金山区亭枫公路亭林工业园区(西部),2fd2beabafb9cc517adbd251,1,0,121.262261,30.898569,,life,http://api.map.baidu.com/place/detail?uid=2fd2beabafb9cc517adbd251&output=html&source=placeapi_v2,,,,,,,,,,,,,,,,,,121.26225421627,30.898912475878,0
f4a33da9c81bd20a3010affa,亭林开业园区,公司企业,园区,上海市,上海市,金山区,上海市金山区大通路26号,f4a33da9c81bd20a3010affa,1,0,121.318951,30.887295,,life,http://api.map.baidu.com/place/detail?uid=f4a33da9c81bd20a3010affa&output=html&source=placeapi_v2,,,,,,,,,,,,,,,,,,121.31913538057,30.887153662818,0
1c4d39756dd0ea7309a8d458,中东(上海)跨境电商外贸产业孵化基地,公司企业,园区,上海市,上海市,金山区,上海市金山区上海电器城(267县道北),,1,1,121.339567,30.899554,,enterprise,http://api.map.baidu.com/place/detail?uid=1c4d39756dd0ea7309a8d458&output=html&source=placeapi_v2,,,,,,,,,,,,,,,,,,121.33953296626,30.899467004072,1
bb1d38e4856923330c0a707d,上海庄行欧洲工业园区,公司企业,园区,上海市,上海市,奉贤区,上海市奉贤区南亭公路与姚新路交叉路口北侧,bb1d38e4856923330c0a707d,1,0,121.394025,30.906621,,life,http://api.map.baidu.com/place/detail?uid=bb1d38e4856923330c0a707d&output=html&source=placeapi_v2,,,0.0,,,,,,,2,,,,,,,,121.39386788232,30.90661487657,0
3ff1defd0cda27518c772766,威斯汀豪斯电气工业园,公司企业,园区,上海市,上海市,奉贤区,上海市奉贤区长堤村路338号,3ff1defd0cda27518c772766,1,1,121.431366,30.906242,,enterprise,http://api.map.baidu.com/place/detail?uid=3ff1defd0cda27518c772766&output=html&source=placeapi_v2,,,,,,,,,,,,,,,,,,121.43182708598,30.906288679833,1
5db1091fef36c8d81e580097,上海金融产业服务基地管理有限公司,公司企业,园区,上海市,上海市,奉贤区,上海市奉贤区沿钱公路5599号,,1,0,121.582443,30.897094,,enterprise,http://api.map.baidu.com/place/detail?uid=5db1091fef36c8d81e580097&output=html&source=placeapi_v2,,,0,,,,,,,,0,,,,,,,,,0
fdb4d4bce37790022fb17e98,上海埃斯凯电气临港园区,公司企业,园区,上海市,上海市,奉贤区,上海市奉贤区新四平公路168号,,1,0,121.74871,30.890663,,enterprise,http://api.map.baidu.com/place/detail?uid=fdb4d4bce37790022fb17e98&output=html&source=placeapi_v2,,,0.0,,,,,,,,1,,,,,,,,,0
0b7adf05791ac9152902e199,普洛斯奉贤海港物流园,公司企业,园区,上海市,上海市,奉贤区,上海市奉贤区海杰路818号,0b7adf05791ac9152902e199,1,2,121.763766,30.906067,,enterprise,http://api.map.baidu.com/place/detail?uid=0b7adf05791ac9152902e199&output=html&source=placeapi_v2,,,1,,,,,,,,1,,,,,,,121.76086524542,30.906556043934,2
e82beae306d015125b1093d6,欣季草坪工程有限公司松江草坪生产基地,公司企业,园区,上海市,上海市,松江区,四季路与朱定公路交叉口东南150米,,1,0,121.157189,30.929465,13585697394,enterprise,http://api.map.baidu.com/place/detail?uid=e82beae306d015125b1093d6&output=html&source=placeapi_v2,,,,,,,,,,,,,,,,,,,,0
b0d056f28dc7e97dcac3db4d,上海泖港都市型工业园区,公司企业,园区,上海市,上海市,松江区,上海市松江区泖港镇中强路998号,b0d056f28dc7e97dcac3db4d,1,0,121.197527,30.937045,,life,http://api.map.baidu.com/place/detail?uid=b0d056f28dc7e97dcac3db4d&output=html&source=placeapi_v2,,,0.0,,,,,,,2,,,,,,,,121.20057376353,30.939285435711,0
e6ee2fd2315edb492b11d1ef,上海沪寰实业有限公司工业园区,公司企业,园区,上海市,上海市,松江区,上海市松江区新波路358弄,e6ee2fd2315edb492b11d1ef,1,1,121.21668,30.934829,(021)57860559,enterprise,http://api.map.baidu.com/place/detail?uid=e6ee2fd2315edb492b11d1ef&output=html&source=placeapi_v2,,,,,,,,,,,,,,,,,,121.21660881153,30.934824733193,1
3da907f32042cd52b320a8e9,双高集团工业园,公司企业,园区,上海市,上海市,松江区,上海市松江区叶旺路288号,3da907f32042cd52b320a8e9,1,0,121.312857,30.9438,(021)67801258,life,http://api.map.baidu.com/place/detail?uid=3da907f32042cd52b320a8e9&output=html&source=placeapi_v2,,,0.0,,,,,,,3,,,,,,,,121.31175701584,30.944126265121,0
f633606adce77d300a69d9a4,上海奉贤海虾淡养示范区,公司企业,园区,上海市,上海市,奉贤区,上海市奉贤区庄行路651号,f633606adce77d300a69d9a4,1,0,121.40954,30.920456,,enterprise,http://api.map.baidu.com/place/detail?uid=f633606adce77d300a69d9a4&output=html&source=placeapi_v2,,,,,,,,,,,,,,,,,,,,0
42828626a2fc248dd8eceddb,上海派米雷投资(集团)有限公司,公司企业,园区,上海市,上海市,奉贤区,上海市奉贤区张翁庙路699号园区3栋,42828626a2fc248dd8eceddb,1,0,121.442248,30.938798,(021)57508088,life,http://api.map.baidu.com/place/detail?uid=42828626a2fc248dd8eceddb&output=html&source=placeapi_v2,,,5.0,,,,,,,8,1,,,,,,,121.4421911834,30.939665483658,0
7ea3240a47107d78465726bb,上海交通大学国家大学科技园,公司企业,园区,上海市,上海市,奉贤区,上海市奉贤区奉浦大道1599号2号楼3楼,7ea3240a47107d78465726bb,1,1,121.440052,30.941451,(021)54740000,enterprise,http://api.map.baidu.com/place/detail?uid=7ea3240a47107d78465726bb&output=html&source=placeapi_v2,0.0,,4.5,,,,,,,,5,,,,,,,121.43963119505,30.942630898389,1
46e28e6d9f9f9ba697ec8470,上海现代服务业南桥科创园,公司企业,园区,上海市,上海市,奉贤区,上海市奉贤区奉浦大道科创园2号楼201室,46e28e6d9f9f9ba697ec8470,1,0,121.44579,30.943924,(021)61768955,life,http://api.map.baidu.com/place/detail?uid=46e28e6d9f9f9ba697ec8470&output=html&source=placeapi_v2,,,,,,,,,,5,1,,,,,,,121.44603329086,30.943984413616,0
becea0029edf5a580a5cb37b,上海阿波罗机械股份有限公司高端设备产业园,公司企业,园区,上海市,上海市,奉贤区,上海市奉贤区八字桥路1818号,,1,0,121.440705,30.936498,,enterprise,http://api.map.baidu.com/place/detail?uid=becea0029edf5a580a5cb37b&output=html&source=placeapi_v2,,,,,,,,,,,,,,,,,,121.44086511109,30.935859490707,0
2bbac6019b390f5dae31e5e5,上海奉贤南桥经济园区,公司企业,园区,上海市,上海市,奉贤区,上海市奉贤区金海公路二部4号楼,2bbac6019b390f5dae31e5e5,1,0,121.47948,30.924141,(021)33656189,enterprise,http://api.map.baidu.com/place/detail?uid=2bbac6019b390f5dae31e5e5&output=html&source=placeapi_v2,,,0,,,,,,,,1,,,,,,,121.47968256213,30.924180363744,0
0de7fb389662b08e59bbbc34,交通经济园区,公司企业,园区,上海市,上海市,奉贤区,上海市奉贤区贤韵路华龙别墅,0de7fb389662b08e59bbbc34,1,0,121.479217,30.937911,,life,http://api.map.baidu.com/place/detail?uid=0de7fb389662b08e59bbbc34&output=html&source=placeapi_v2,,,,,,,,,,,,,,,,,,121.47921353616,30.937732002128,0
17422004f8dd3acdc26c14e8,上海南桥中小企业总部商务区,公司企业,园区,上海市,上海市,奉贤区,上海市奉贤区望园南路1288弄二期5号楼,17422004f8dd3acdc26c14e8,1,0,121.496087,30.919054,,enterprise,http://api.map.baidu.com/place/detail?uid=17422004f8dd3acdc26c14e8&output=html&source=placeapi_v2,,,,,,,,,,,,,,,,,,121.49601996,30.919257113392,0
5c56edd623430d5ba1d23002,南桥镇光明科创经济园区,公司企业,园区,上海市,上海市,奉贤区,奉贤区金钱公路3329号天万国际11楼,5c56edd623430d5ba1d23002,1,0,121.519774,30.923391,(021)57475899,enterprise,http://api.map.baidu.com/place/detail?uid=5c56edd623430d5ba1d23002&output=html&source=placeapi_v2,,,5,,,,,,,,1,,,,,,,121.52213847974,30.913301425626,0
7d5f3a0a56f34a482cb90850,奉城镇经济园区,公司企业,园区,上海市,上海市,奉贤区,上海市奉贤区南奉公路888号1楼,7d5f3a0a56f34a482cb90850,1,0,121.630008,30.92161,,enterprise,http://api.map.baidu.com/place/detail?uid=7d5f3a0a56f34a482cb90850&output=html&source=placeapi_v2,,,,,,,,,,,,,,,,,,121.62999148218,30.921544535601,0
d653cce610371d43c9fa5f43,美迪科(上海)产业园,公司企业,园区,上海市,上海市,奉贤区,上海市奉贤区奉云路899弄号,d653cce610371d43c9fa5f43,1,2,121.630402,30.936232,,enterprise,http://api.map.baidu.com/place/detail?uid=d653cce610371d43c9fa5f43&output=html&source=placeapi_v2,,,5,,,,,,,,2,,,,,,,121.63061171183,30.936333175774,2
b41d664e11d2c92e8a36eed5,上海润广文化科技产业园,公司企业,园区,上海市,上海市,奉贤区,上海市奉贤区奉村路28号26栋,,1,2,121.607338,30.93636,(021)61119399,enterprise,http://api.map.baidu.com/place/detail?uid=b41d664e11d2c92e8a36eed5&output=html&source=placeapi_v2,,,0,,,,,,,,1,,,,,,,121.6052966972,30.936436108727,2
2cf1d2bc184adea7bf484282,上海人本工业园,公司企业,园区,上海市,上海市,奉贤区,上海市奉贤区神州路1155号,2cf1d2bc184adea7bf484282,1,0,121.632784,30.930011,(021)57510606,life,http://api.map.baidu.com/place/detail?uid=2cf1d2bc184adea7bf484282&output=html&source=placeapi_v2,,,0.0,,,,,,,1,1,,,,,,,121.63314780525,30.929918693434,0
1bd967d5f7fc211543ab9a0e,上海连枝实业有限公司实木家具生产基地,公司企业,园区,上海市,上海市,奉贤区,上海市奉贤区川南奉公路9255号,1bd967d5f7fc211543ab9a0e,1,0,121.679615,30.928159,15000424043,enterprise,http://api.map.baidu.com/place/detail?uid=1bd967d5f7fc211543ab9a0e&output=html&source=placeapi_v2,,,,,,,,,,,,,,,,,,,,0
25ec69fcefcb8a7ec36c148e,上海赛狮园区,公司企业,园区,上海市,上海市,奉贤区,上海市奉贤区坎北路201号,25ec69fcefcb8a7ec36c148e,1,0,121.732953,30.937262,(021)37510179,enterprise,http://api.map.baidu.com/place/detail?uid=25ec69fcefcb8a7ec36c148e&output=html&source=placeapi_v2,,,,,,,,,,,,,,,,,,121.7328135161,30.937574223199,0
5817038c51466be117c8f627,武胜科创产业园,公司企业,园区,上海市,上海市,奉贤区,上海市奉贤区海奕路东区2号楼4楼,,1,1,121.742458,30.951682,"13501810080,17717631352",enterprise,http://api.map.baidu.com/place/detail?uid=5817038c51466be117c8f627&output=html&source=placeapi_v2,,,5.0,,,,,,,,1,,,,,,,121.74229628958,30.951661636903,1
a8d66e49b472ee551e1d114a,玖益工业园,公司企业,园区,上海市,上海市,松江区,上海市松江区贵南路1100号2号工厂2栋,a8d66e49b472ee551e1d114a,1,1,121.194721,30.980772,,enterprise,http://api.map.baidu.com/place/detail?uid=a8d66e49b472ee551e1d114a&output=html&source=placeapi_v2,,,5,,,,,,,,3,,,,,,,121.19413328223,30.980789598524,1
9e8c246e42991ec13be4a6a2,沪生物流园,公司企业,园区,上海市,上海市,松江区,上海市松江区贵南路9号,9e8c246e42991ec13be4a6a2,1,0,121.192234,30.961538,,enterprise,http://api.map.baidu.com/place/detail?uid=9e8c246e42991ec13be4a6a2&output=html&source=placeapi_v2,,,5.0,,,,,,,,1,,,,,,,121.19382176605,30.962460119278,0
a3f21eee7ae0c7392fb17e35,李塔经济城,公司企业,园区,上海市,上海市,松江区,上海市松江区唐明路600号,a3f21eee7ae0c7392fb17e35,1,0,121.193687,30.978826,"(021)57841919,(021)57846313",life,http://api.map.baidu.com/place/detail?uid=a3f21eee7ae0c7392fb17e35&output=html&source=placeapi_v2,,,5.0,,,,,,,8,2,,,,,,,121.19392493554,30.97882837312,0
98280d44b4b75d7ec9291589,上海倾技仪器仪表科技有限公司,公司企业,园区,上海市,上海市,奉贤区,上海市奉贤区安东路208号,98280d44b4b75d7ec9291589,1,0,121.409665,30.967934,(021)67256816,enterprise,http://api.map.baidu.com/place/detail?uid=98280d44b4b75d7ec9291589&output=html&source=placeapi_v2,,,0,,,,,,,,1,,,,,,,121.40983705128,30.967992281764,0
49a02a7a1ee672432a201a94,上海生阳商务园,公司企业,园区,上海市,上海市,奉贤区,上海市奉贤区大叶公路与浦卫公路交叉路口往南约210米,49a02a7a1ee672432a201a94,1,0,121.398753,30.959168,,enterprise,http://api.map.baidu.com/place/detail?uid=49a02a7a1ee672432a201a94&output=html&source=placeapi_v2,,,0,,,,,,,,0,,,,,,,121.39933320987,30.958952227012,0
8cba4bb059705885ad04573b,上海普天能源科技有限公司,公司企业,园区,上海市,上海市,奉贤区,上海市奉贤区环城北路168号南厂房4楼,8cba4bb059705885ad04573b,1,0,121.459363,30.965115,(021)67105866,enterprise,http://api.map.baidu.com/place/detail?uid=8cba4bb059705885ad04573b&output=html&source=placeapi_v2,,,0.0,,,,,,,,,,,,,,,121.45960046904,30.964424473654,0
ddd917936fe20f9b0e3dda48,如新大中华创新总部园区,公司企业,园区,上海市,上海市,奉贤区,上海市奉贤区环城西路3000号,ddd917936fe20f9b0e3dda48,1,2,121.441209,30.960361,(021)60173999,enterprise,http://api.map.baidu.com/place/detail?uid=ddd917936fe20f9b0e3dda48&output=html&source=placeapi_v2,,,5,,,,,,,,2,,,,,,,121.44059238194,30.961398635076,2
6c08ec0edb94ee564bcc4ac8,天地科技公司上海分公司生产基地,公司企业,园区,上海市,上海市,奉贤区,上海市奉贤区南桥环城东路168号,6c08ec0edb94ee564bcc4ac8,1,0,121.459188,30.967615,,enterprise,http://api.map.baidu.com/place/detail?uid=6c08ec0edb94ee564bcc4ac8&output=html&source=placeapi_v2,,,,,,,,,,,,,,,,,,121.45895734877,30.967580014986,0
3a63a5e17c4d5c2602294f75,上海市工业综合开发区有限公司,公司企业,园区,上海市,上海市,奉贤区,上海市奉贤区环城西路3111号,3a63a5e17c4d5c2602294f75,1,0,121.44003,30.959882,(021)33655888,life,http://api.map.baidu.com/place/detail?uid=3a63a5e17c4d5c2602294f75&output=html&source=placeapi_v2,,,5,,,,,,,8,2,,,,,,,121.44006240325,30.959759890704,0
52ee86353b27f1f2b6147f52,上海广电电气工业园,公司企业,园区,上海市,上海市,奉贤区,环城东路123弄-1号,52ee86353b27f1f2b6147f52,1,5,121.464767,30.968808,,enterprise,http://api.map.baidu.com/place/detail?uid=52ee86353b27f1f2b6147f52&output=html&source=placeapi_v2,,,5,,,,,,,,2,,,,,,,121.45956137887,30.968703817848,5
f9abeec171f201324d776ea8,双菱集团(上海)工业基地,公司企业,园区,上海市,上海市,奉贤区,上海市奉贤区南桥镇大叶公路3988号,f9abeec171f201324d776ea8,1,0,121.459165,30.97641,(021)57436597,enterprise,http://api.map.baidu.com/place/detail?uid=f9abeec171f201324d776ea8&output=html&source=placeapi_v2,,,,,,,,,,,,,,,,,,121.45926213045,30.976491611122,0
d3c9cb12b08c4095b9df8f8c,上海奉浦工业投资有限公司中小企业孵化基地,公司企业,园区,上海市,上海市,奉贤区,上海市奉贤区沪杭公路1588号3号楼,d3c9cb12b08c4095b9df8f8c,1,0,121.452362,30.956114,(021)33655655,enterprise,http://api.map.baidu.com/place/detail?uid=d3c9cb12b08c4095b9df8f8c&output=html&source=placeapi_v2,,,,,,,,,,,,,,,,,,121.45251353925,30.956172892859,0
eba405f6b0f36de6882fb5a2,国际制造服务(上海)科创中心,公司企业,园区,上海市,上海市,奉贤区,上海市奉贤区汇丰北路1515弄2号楼,,1,1,121.468749,30.974142,,enterprise,http://api.map.baidu.com/place/detail?uid=eba405f6b0f36de6882fb5a2&output=html&source=placeapi_v2,,,,,,,,,,,,,,,,,,121.46872682004,30.974216111444,1
af09c79b20a6caf3d8eceddf,上海奉贤经济开发区生物科技园区,公司企业,园区,上海市,上海市,奉贤区,上海市奉贤区金海公路5885号35栋,af09c79b20a6caf3d8eceddf,1,1,121.489957,30.957002,(021)37196000,enterprise,http://api.map.baidu.com/place/detail?uid=af09c79b20a6caf3d8eceddf&output=html&source=placeapi_v2,,,0,,,,,,,,1,,,,,,,121.49170596546,30.955584441502,1
71d890d67da0a6db9d9d682a,上海奉贤经济开发区,公司企业,园区,上海市,上海市,奉贤区,岚丰路与金海公路交叉口西北100米,71d890d67da0a6db9d9d682a,1,0,121.487448,30.974216,,enterprise,http://api.map.baidu.com/place/detail?uid=71d890d67da0a6db9d9d682a&output=html&source=placeapi_v2,,,,,,,,,,,,,,,,,,121.48732321642,30.975182470049,0
c8b5cdefab779e02130daa38,伟星上海工业园,公司企业,园区,上海市,上海市,奉贤区,上海市奉贤区大叶公路4601号,c8b5cdefab779e02130daa38,1,0,121.484805,30.983121,(021)57481738,life,http://api.map.baidu.com/place/detail?uid=c8b5cdefab779e02130daa38&output=html&source=placeapi_v2,,,0.0,,,,,,,3,,,,,,,,121.48510328971,30.981370914179,0
4dfbf758f492da335a3ac8f5,上海纳究智能科技有限公司生产基地,公司企业,园区,上海市,上海市,奉贤区,上海市奉贤区光泰路1999号a9号,,1,0,121.586753,30.981025,,enterprise,http://api.map.baidu.com/place/detail?uid=4dfbf758f492da335a3ac8f5&output=html&source=placeapi_v2,,,,,,,,,,,,,,,,,,,,0
5817038c51466be117c8f627,武胜科创产业园,公司企业,园区,上海市,上海市,奉贤区,上海市奉贤区海奕路东区2号楼4楼,,1,1,121.742458,30.951682,"13501810080,17717631352",enterprise,http://api.map.baidu.com/place/detail?uid=5817038c51466be117c8f627&output=html&source=placeapi_v2,,,5.0,,,,,,,,1,,,,,,,121.74229628958,30.951661636903,1
dc0f0adcc1d9e65ff92213a0,凯航燃气设备工程公司制造基地,公司企业,园区,上海市,上海市,奉贤区,上海市奉贤区渔墩村五墩693临,dc0f0adcc1d9e65ff92213a0,1,0,121.745731,30.952552,,enterprise,http://api.map.baidu.com/place/detail?uid=dc0f0adcc1d9e65ff92213a0&output=html&source=placeapi_v2,,,,,,,,,,,,,,,,,,121.74550377852,30.952272156221,0
bfce4aecdf5f3fdf2fb908de,格立盛产业园,公司企业,园区,上海市,上海市,浦东新区,上海市浦东新区海潮路139号,bfce4aecdf5f3fdf2fb908de,1,2,121.773592,30.960299,,enterprise,http://api.map.baidu.com/place/detail?uid=bfce4aecdf5f3fdf2fb908de&output=html&source=placeapi_v2,,,0,,,,,,,,0,,,,,,,121.77251626788,30.960485110355,2
4bb049d949ce5046990050ee,天孜工业园,公司企业,园区,上海市,上海市,松江区,上海市松江区港兴路466号,4bb049d949ce5046990050ee,1,0,121.151094,31.004393,,life,http://api.map.baidu.com/place/detail?uid=4bb049d949ce5046990050ee&output=html&source=placeapi_v2,,,0.0,,,,,,,4,,,,,,,,121.15121372896,31.004295389284,0
d6c5d99134e8bee930169be6,巨洲工业园,公司企业,园区,上海市,上海市,松江区,上海市松江区港业路558号11栋,d6c5d99134e8bee930169be6,1,0,121.150681,31.00769,(021)37745386,life,http://api.map.baidu.com/place/detail?uid=d6c5d99134e8bee930169be6&output=html&source=placeapi_v2,,,0.0,,,,,,,1,0,,,,,,,121.1507719998,31.00659095065,0
56f2f696673d37810aa8d4e1,威氏工业园区C区,公司企业,园区,上海市,上海市,松江区,上海市松江区镇中心路599号,56f2f696673d37810aa8d4e1,1,0,121.14323,31.010942,,life,http://api.map.baidu.com/place/detail?uid=56f2f696673d37810aa8d4e1&output=html&source=placeapi_v2,,,0.0,,,,,,,1,,,,,,,,121.14294920239,31.012630935517,0
91ccc490eef6e715d4b74ea6,上海乔纳施企业发展有限公司大港工业园,公司企业,园区,上海市,上海市,松江区,上海市松江区昆港公路357号b幢,,1,0,121.157037,31.008946,,enterprise,http://api.map.baidu.com/place/detail?uid=91ccc490eef6e715d4b74ea6&output=html&source=placeapi_v2,,,,,,,,,,,,,,,,,,121.15708105632,31.008953646948,0
a55892025ed28cdcc27da27d,上海锐环科技园,公司企业,园区,上海市,上海市,松江区,上海市松江区光华路489号18栋,a55892025ed28cdcc27da27d,1,0,121.14561,31.018355,,life,http://api.map.baidu.com/place/detail?uid=a55892025ed28cdcc27da27d&output=html&source=placeapi_v2,,,0.0,,,,,,,5,,,,,,,,121.14531000137,31.019358309108,0
8ea96888c894dc38740269e9,金宝山园区,公司企业,园区,上海市,上海市,松江区,上海市松江区玉树路1805号,8ea96888c894dc38740269e9,1,0,121.214515,31.002583,,enterprise,http://api.map.baidu.com/place/detail?uid=8ea96888c894dc38740269e9&output=html&source=placeapi_v2,,,0.0,,,,,,,,,,,,,,,121.21561202029,31.002528374286,0
6ed3083aea8236b42b3a9f6a,上海仓杰工业小区,公司企业,园区,上海市,上海市,松江区,上海市松江区玉秀路79-86号,6ed3083aea8236b42b3a9f6a,1,0,121.206714,31.002793,,life,http://api.map.baidu.com/place/detail?uid=6ed3083aea8236b42b3a9f6a&output=html&source=placeapi_v2,,,,,,,,,,7,,,,,,,,121.20629645471,31.0023896638,0
91c13f9366290afb21f017e1,松江综合保税区B区,公司企业,园区,上海市,上海市,松江区,上海市松江区出口加工区B区(松蒸公路北),91c13f9366290afb21f017e1,1,0,121.176339,31.008006,,life,http://api.map.baidu.com/place/detail?uid=91c13f9366290afb21f017e1&output=html&source=placeapi_v2,,,,,,,,,,,,,,,,,,121.1766446789,31.007952964627,0
1020060fdca6afa71894c6ef,上海广基实业有限公司(工业园区),公司企业,园区,上海市,上海市,松江区,上海市松江区欣玉路12号楼,1020060fdca6afa71894c6ef,1,0,121.225505,31.005299,,life,http://api.map.baidu.com/place/detail?uid=1020060fdca6afa71894c6ef&output=html&source=placeapi_v2,,,,,,,,,,1,,,,,,,,121.22544821231,31.004061240929,0
bca8a77d859543deaeb22ad4,上海仓城影视文化产业园,公司企业,园区,上海市,上海市,松江区,上海市松江区金玉路2号,bca8a77d859543deaeb22ad4,1,0,121.236146,31.003621,,enterprise,http://api.map.baidu.com/place/detail?uid=bca8a77d859543deaeb22ad4&output=html&source=placeapi_v2,,,4.5,,,,,,,,3,,,,,,,121.23583145531,31.00382339645,0
c3b9004053774df3c61e512c,星宇产业园,公司企业,园区,上海市,上海市,松江区,上海市松江区金玉路998号,c3b9004053774df3c61e512c,1,0,121.229873,31.000938,18616958616,life,http://api.map.baidu.com/place/detail?uid=c3b9004053774df3c61e512c&output=html&source=placeapi_v2,,,,,,,,,,,,,,,,,,121.23000984002,31.000886648458,0
04bdf4a3d75d074e354aaeec,凤泽工业园,公司企业,园区,上海市,上海市,松江区,上海市松江区永航路188弄6号,04bdf4a3d75d074e354aaeec,1,0,121.225215,30.989839,,life,http://api.map.baidu.com/place/detail?uid=04bdf4a3d75d074e354aaeec&output=html&source=placeapi_v2,,,0.0,,,,,,,5,,,,,,,,121.2238223512,30.989643110595,0
06d2dffd5db484f788f15dee,威氏工业园,公司企业,园区,上海市,上海市,松江区,上海市松江区大江路129号,06d2dffd5db484f788f15dee,1,0,121.225861,30.988251,,life,http://api.map.baidu.com/place/detail?uid=06d2dffd5db484f788f15dee&output=html&source=placeapi_v2,,,,,,,,,,3,,,,,,,,121.22593329728,30.988250769485,0
b56b55e263e8066b8f55eca7,上海仓城影视文化产业园,公司企业,园区,上海市,上海市,松江区,上海市松江区富永路4号3楼,b56b55e263e8066b8f55eca7,1,0,121.230455,30.99608,(021)33521356,enterprise,http://api.map.baidu.com/place/detail?uid=b56b55e263e8066b8f55eca7&output=html&source=placeapi_v2,,,0,,,,,,,,1,,,,,,,121.23042805783,30.996341508037,0
79086c9da69c9cd830621201,上海科胜幕墙有限公司生产基地,公司企业,园区,上海市,上海市,松江区,上海市松江区真玉路1号77号,79086c9da69c9cd830621201,1,0,121.219325,31.003692,,enterprise,http://api.map.baidu.com/place/detail?uid=79086c9da69c9cd830621201&output=html&source=placeapi_v2,,,,,,,,,,,,,,,,,,121.21904099975,31.003904846541,0
403c62146bde6a4446e274f0,福贵诚工业园,公司企业,园区,上海市,上海市,松江区,上海市松江区北松公路6638号a4栋,403c62146bde6a4446e274f0,1,0,121.279452,31.01033,13373854555,life,http://api.map.baidu.com/place/detail?uid=403c62146bde6a4446e274f0&output=html&source=placeapi_v2,,,0.0,,,,,,,4,,,,,,,,121.27887050027,31.010265858462,0
9ee392b89475543cbbbd6334,上海南宾工业园区,公司企业,园区,上海市,上海市,松江区,上海市松江区申牛路888号1号楼,9ee392b89475543cbbbd6334,1,0,121.265572,30.995912,,life,http://api.map.baidu.com/place/detail?uid=9ee392b89475543cbbbd6334&output=html&source=placeapi_v2,,,0.0,,,,,,,0,,,,,,,,121.26507818959,30.995286849068,0
7aea43b7128da6f97d29bd9c,松江综合保税区,公司企业,园区,上海市,上海市,松江区,上海市松江区南乐路,7aea43b7128da6f97d29bd9c,1,2,121.285562,31.014811,,enterprise,http://api.map.baidu.com/place/detail?uid=7aea43b7128da6f97d29bd9c&output=html&source=placeapi_v2,,,4,,,,,,,,6,,,,,,,121.28729662841,31.016022663161,2
005861085b02f9db47e27488,车墩现代农业园区,公司企业,园区,上海市,上海市,松江区,车亭路792弄,005861085b02f9db47e27488,1,0,121.311768,30.987632,,enterprise,http://api.map.baidu.com/place/detail?uid=005861085b02f9db47e27488&output=html&source=placeapi_v2,,,0,,,,,,,,0,,,,,,,121.31189048347,30.987596750939,0
af8c2e2e654b323b3a13fd16,财富兴园・国际企业公园,公司企业,园区,上海市,上海市,松江区,松江区上海松江车墩泖亭路188号,af8c2e2e654b323b3a13fd16,1,6,121.307834,31.003916,,house,http://api.map.baidu.com/place/detail?uid=af8c2e2e654b323b3a13fd16&output=html&source=placeapi_v2,,,4,,,,,,,,,,,,,,,121.30621504127,31.002743548603,6
bf29b7026d785b9809b93a60,闵行开发区生态公园西洋园・企业园,公司企业,园区,上海市,上海市,闵行区,上海市闵行区东川路3333号,bf29b7026d785b9809b93a60,1,0,121.381929,31.004201,,enterprise,http://api.map.baidu.com/place/detail?uid=bf29b7026d785b9809b93a60&output=html&source=placeapi_v2,,,3.8,,,,,,,,5,,,,,,,121.38077032064,31.007218006245,0
2848ffd6d28b4e0e48cc4a18,闵行电气工业园区,公司企业,园区,上海市,上海市,闵行区,上海市闵行区江川路1800号,2848ffd6d28b4e0e48cc4a18,1,0,121.371805,30.998121,,life,http://api.map.baidu.com/place/detail?uid=2848ffd6d28b4e0e48cc4a18&output=html&source=placeapi_v2,,,,,,,,,,,,,,,,,,121.371638451,30.998056204774,0
57cd5dfc3557ef85157643a4,弘鹄商务园,公司企业,园区,上海市,上海市,闵行区,上海市闵行区景谷路398号202室,57cd5dfc3557ef85157643a4,1,0,121.393511,31.014588,18017883066,enterprise,http://api.map.baidu.com/place/detail?uid=57cd5dfc3557ef85157643a4&output=html&source=placeapi_v2,,,4.0,,,,,,,,1,,,,,,,,,0
b21165a33674160c83a00c97,贞观国际商务园,公司企业,园区,上海市,上海市,闵行区,上海市闵行区文井路189号,b21165a33674160c83a00c97,1,1,121.388234,31.006273,(021)54721621,enterprise,http://api.map.baidu.com/place/detail?uid=b21165a33674160c83a00c97&output=html&source=placeapi_v2,,,,,,,,,,,,,,,,,,121.38825614803,31.006197266866,1
e3a7fd13985c1f5328b97c36,兰宝科技园,公司企业,园区,上海市,上海市,奉贤区,上海市奉贤区金碧路228号,e3a7fd13985c1f5328b97c36,1,2,121.514884,31.007151,(021)57486188,scope,http://api.map.baidu.com/place/detail?uid=e3a7fd13985c1f5328b97c36&output=html&source=placeapi_v2,,,,,,,,,,,1,,,,,,,121.51514275622,31.007148733253,2
9ee7cc78cd70787116c90536,中发科技园,公司企业,园区,上海市,上海市,奉贤区,上海市奉贤区浦星公路5088号,9ee7cc78cd70787116c90536,1,0,121.518345,31.008245,,life,http://api.map.baidu.com/place/detail?uid=9ee7cc78cd70787116c90536&output=html&source=placeapi_v2,,,0.0,,,,,,,1,,,,,,,,121.52020919929,31.008332632094,0
50f7d14684a4e7ba72210b58,维一企业园,公司企业,园区,上海市,上海市,浦东新区,上海市浦东新区航头镇航南公路999号,50f7d14684a4e7ba72210b58,1,0,121.588176,31.014044,13701968777,enterprise,http://api.map.baidu.com/place/detail?uid=50f7d14684a4e7ba72210b58&output=html&source=placeapi_v2,,,0.0,,,,,,,,,,,,,,,121.58755543467,31.014127464241,0
637df60ab77c537340afe613,上海汇南工业小区,公司企业,园区,上海市,上海市,闵行区,上海市闵行区永南路2号,637df60ab77c537340afe613,1,0,121.565571,31.012013,,life,http://api.map.baidu.com/place/detail?uid=637df60ab77c537340afe613&output=html&source=placeapi_v2,,,,,,,,,,0,,,,,,,,121.56580579281,31.011289045398,0
3e6c975382202b7a2902e148,上海东盟产业园区,公司企业,园区,上海市,上海市,奉贤区,上海市奉贤区大叶公路7238号3号楼,,1,2,121.622284,30.990403,(021)69110806,enterprise,http://api.map.baidu.com/place/detail?uid=3e6c975382202b7a2902e148&output=html&source=placeapi_v2,,,5,,,,,,,,1,,,,,,,121.62225667918,30.990774148185,2
cd9d05dd525121b584420e90,上海奉贤姚堂工业区,公司企业,园区,上海市,上海市,奉贤区,上海市奉贤区乐泰路30号,cd9d05dd525121b584420e90,1,0,121.603854,30.993404,,life,http://api.map.baidu.com/place/detail?uid=cd9d05dd525121b584420e90&output=html&source=placeapi_v2,,,0.0,,,,,,,2,,,,,,,,121.60315572885,30.99339208529,0
2bebfcbe4804c257cb213d52,忠源企业工业基地,公司企业,园区,上海市,上海市,奉贤区,上海市奉贤区大叶公路8118号,2bebfcbe4804c257cb213d52,1,0,121.668397,30.988937,,life,http://api.map.baidu.com/place/detail?uid=2bebfcbe4804c257cb213d52&output=html&source=placeapi_v2,,,0.0,,,,,,,4,,,,,,,,121.668357744,30.990247538932,0
7290521ebf921c3240e19224,上海小昆山经济区,公司企业,园区,上海市,上海市,松江区,崇南路3号,7290521ebf921c3240e19224,1,2,121.155273,31.034567,,house,http://api.map.baidu.com/place/detail?uid=7290521ebf921c3240e19224&output=html&source=placeapi_v2,,,0,,,,,,,,,,,,,,,121.15513784004,31.034660870122,2
a55892025ed28cdcc27da27d,上海锐环科技园,公司企业,园区,上海市,上海市,松江区,上海市松江区光华路489号18栋,a55892025ed28cdcc27da27d,1,0,121.14561,31.018355,,life,http://api.map.baidu.com/place/detail?uid=a55892025ed28cdcc27da27d&output=html&source=placeapi_v2,,,0.0,,,,,,,5,,,,,,,,121.14531000137,31.019358309108,0
8a87ab7ab573016ff6c59ca9,中电电气集团(上海光伏产业基地店),公司企业,园区,上海市,上海市,松江区,上海市松江区昆港公路与思贤路交叉路口往西约190米,,1,2,121.15077,31.026229,,enterprise,http://api.map.baidu.com/place/detail?uid=8a87ab7ab573016ff6c59ca9&output=html&source=placeapi_v2,,,,,,,,,,,,,,,,,,,,2
8a7820836ff0bdaa17948e27,时尚谷创意园,公司企业,园区,上海市,上海市,松江区,上海市松江区鼎源路618弄,8a7820836ff0bdaa17948e27,1,0,121.175276,31.036888,(021)57760066,enterprise,http://api.map.baidu.com/place/detail?uid=8a7820836ff0bdaa17948e27&output=html&source=placeapi_v2,,,5,,,,,,,,1,,,,,,,121.17443344239,31.034815583858,0
fa5f4c28e9f6818ad518b7ba,维罗纳小镇,公司企业,园区,上海市,上海市,松江区,上海市松江区玉树北路2号,fa5f4c28e9f6818ad518b7ba,1,0,121.212765,31.031346,,life,http://api.map.baidu.com/place/detail?uid=fa5f4c28e9f6818ad518b7ba&output=html&source=placeapi_v2,,,,,,,,,,2,,,,,,,,121.21265976828,31.03134549216,0
69fcd6dfa9e2242ccb2915bf,上海申田经济园区,公司企业,园区,上海市,上海市,松江区,上海市松江区荣乐中路12弄号邱家湾厂区136号,69fcd6dfa9e2242ccb2915bf,1,0,121.245974,31.023959,"(021)57704215,(021)57704217",house,http://api.map.baidu.com/place/detail?uid=69fcd6dfa9e2242ccb2915bf&output=html&source=placeapi_v2,,,,,,,,,,,,,,,,,,121.24598851037,31.023918337685,0
db1f39d4e37c6e6ef5c59ce6,科邦工业园,公司企业,园区,上海市,上海市,松江区,上海市松江区茸北路2号楼,db1f39d4e37c6e6ef5c59ce6,1,2,121.250474,31.044694,(021)57782023,house,http://api.map.baidu.com/place/detail?uid=db1f39d4e37c6e6ef5c59ce6&output=html&source=placeapi_v2,,,,,,,,,,,,,,,,,,121.25082534296,31.045397400813,2
4bfbf6a10e812a7df7b9161f,上海强民经济城,公司企业,园区,上海市,上海市,松江区,上海市松江区文诚路4层,4bfbf6a10e812a7df7b9161f,1,1,121.224776,31.039788,(021)37662250,life,http://api.map.baidu.com/place/detail?uid=4bfbf6a10e812a7df7b9161f&output=html&source=placeapi_v2,,,0.0,,,,,,,8,1,,,,,,,121.2240288896,31.040346433147,1
9f97b1c5afc09705b74f54b5,创亿国际企业园,公司企业,园区,上海市,上海市,松江区,上海市松江区工业区南乐路1276弄115号,9f97b1c5afc09705b74f54b5,1,0,121.28598,31.026206,(021)37745012,enterprise,http://api.map.baidu.com/place/detail?uid=9f97b1c5afc09705b74f54b5&output=html&source=placeapi_v2,,,0.0,,,,,,,,,,,,,,,121.28685637697,31.02694806864,0
edd64ce162e35d903ee2319f,松江工业区高新技术产业园区,公司企业,园区,上海市,上海市,松江区,上海市松江区美能达路503号,edd64ce162e35d903ee2319f,1,4,121.262583,31.028651,,enterprise,http://api.map.baidu.com/place/detail?uid=edd64ce162e35d903ee2319f&output=html&source=placeapi_v2,,,0,,,,,,,,0,,,,,,,121.26246738237,31.030460295181,4
108b1ceaa6ac39ad3486f49f,鑫沣工业园,公司企业,园区,上海市,上海市,松江区,上海市松江区东兴路385号1号楼,108b1ceaa6ac39ad3486f49f,1,0,121.275735,31.03209,,life,http://api.map.baidu.com/place/detail?uid=108b1ceaa6ac39ad3486f49f&output=html&source=placeapi_v2,,,0.0,,,,,,,7,,,,,,,,121.27643603305,31.032773342102,0
49a02a7a70e868412a201a9c,上海都城经济园区,公司企业,园区,上海市,上海市,松江区,上海市松江区洞泾路10号,49a02a7a70e868412a201a9c,1,0,121.265971,31.024689,(021)57744027,life,http://api.map.baidu.com/place/detail?uid=49a02a7a70e868412a201a9c&output=html&source=placeapi_v2,,,0.0,,,,,,,15,,,,,,,,121.26590401988,31.02462656874,0
573f21af6367071bbca8223c,上海友喜国际高科技园区,公司企业,园区,上海市,上海市,松江区,上海市松江区文翔东路58号,573f21af6367071bbca8223c,1,0,121.275984,31.044295,(021)57748888,enterprise,http://api.map.baidu.com/place/detail?uid=573f21af6367071bbca8223c&output=html&source=placeapi_v2,,,0,,,,,,,,0,,,,,,,121.27495377416,31.043896076128,0
4ad986209994bb9f8605bfd1,罗伊尔工业园,公司企业,园区,上海市,上海市,松江区,上海市松江区西泖泾路175号4期c栋,4ad986209994bb9f8605bfd1,1,0,121.290316,31.022547,,life,http://api.map.baidu.com/place/detail?uid=4ad986209994bb9f8605bfd1&output=html&source=placeapi_v2,,,0.0,,,,,,,5,,,,,,,,121.29155727707,31.023595843447,0
56e88cbabd26551ba4c75604,华滨工业园,公司企业,园区,上海市,上海市,松江区,上海市松江区华加路99号,56e88cbabd26551ba4c75604,1,0,121.283112,31.021244,19521251240,life,http://api.map.baidu.com/place/detail?uid=56e88cbabd26551ba4c75604&output=html&source=placeapi_v2,,,0.0,,,,,,,7,0,,,,,,,121.28381267715,31.022728418351,0
1bf85b25bd1922daa1a9347c,中联重科上海工业园,公司企业,园区,上海市,上海市,松江区,上海市松江区缤纷路297号,1bf85b25bd1922daa1a9347c,1,0,121.277647,31.046752,(021)67668908,enterprise,http://api.map.baidu.com/place/detail?uid=1bf85b25bd1922daa1a9347c&output=html&source=placeapi_v2,,,1,,,,,,,,2,,,,,,,121.27629231675,31.047415384658,0
6b3b9f6f11a32086c5f50d7e,松江出口加工区3,公司企业,园区,上海市,上海市,松江区,上海市松江区三庄路,6b3b9f6f11a32086c5f50d7e,1,0,121.295111,31.027269,(021)57635070,life,http://api.map.baidu.com/place/detail?uid=6b3b9f6f11a32086c5f50d7e&output=html&source=placeapi_v2,,,,,,,,,,,,,,,,,,121.29441112451,31.028201032172,0
ddd7a8cec28d3b35cc06a44b,申田LOFT新办公领地,公司企业,园区,上海市,上海市,松江区,上海市松江区民强路1525号n宿舍29栋,ddd7a8cec28d3b35cc06a44b,1,1,121.296592,31.044127,(021)57687600,house,http://api.map.baidu.com/place/detail?uid=ddd7a8cec28d3b35cc06a44b&output=html&source=placeapi_v2,,,0,,,,,,,,,,,,,,,121.29655172007,31.044148145809,1
d4034eb3cc87618bc036442b,新飞企业家园,公司企业,园区,上海市,上海市,松江区,上海市松江区新飞路250号,d4034eb3cc87618bc036442b,1,4,121.330575,31.025411,(021)67754393,enterprise,http://api.map.baidu.com/place/detail?uid=d4034eb3cc87618bc036442b&output=html&source=placeapi_v2,,,0.0,,,,,,,,,,,,,,,121.32881622734,31.025338899134,4
161a0ed28548ec2e5cd4fe42,米登工业园区,公司企业,园区,上海市,上海市,松江区,上海市松江区申港路2855弄2厂3号楼,161a0ed28548ec2e5cd4fe42,1,0,121.335477,31.040691,(021)67890907,life,http://api.map.baidu.com/place/detail?uid=161a0ed28548ec2e5cd4fe42&output=html&source=placeapi_v2,,,0.0,,,,,,,1,,,,,,,,121.3342393105,31.041170808568,0
77fc651a833f0fd6b54f54cd,新飞企业家园-B2,公司企业,园区,上海市,上海市,松江区,上海市松江区新飞路新飞企业家园,,1,0,121.329971,31.024974,,enterprise,http://api.map.baidu.com/place/detail?uid=77fc651a833f0fd6b54f54cd&output=html&source=placeapi_v2,,,,,,,,,,,,,,,,,,,,0
5c7bf9b283d85c0a621809a0,上海国际中小企业城,公司企业,园区,上海市,上海市,松江区,上海市松江区三浜路261号北区d07栋,5c7bf9b283d85c0a621809a0,1,9,121.305442,31.034346,,enterprise,http://api.map.baidu.com/place/detail?uid=5c7bf9b283d85c0a621809a0&output=html&source=placeapi_v2,,,4,,,,,,,,2,,,,,,,121.30736469176,31.035388022474,9
36c7760a2ae248cc72210b6a,新飞企业家园A6,公司企业,园区,上海市,上海市,松江区,上海市松江区书山路新飞企业家园,36c7760a2ae248cc72210b6a,1,0,121.331541,31.027025,,enterprise,http://api.map.baidu.com/place/detail?uid=36c7760a2ae248cc72210b6a&output=html&source=placeapi_v2,,,,,,,,,,,,,,,,,,121.33123309406,31.026962161981,0
825213e491843dce4d776e64,璀Z创业园,公司企业,园区,上海市,上海市,松江区,上海市松江区申港路3699号,825213e491843dce4d776e64,1,0,121.333845,31.026255,,life,http://api.map.baidu.com/place/detail?uid=825213e491843dce4d776e64&output=html&source=placeapi_v2,,,,,,,,,,4,,,,,,,,121.33422402651,31.027095058717,0
3507e3ddfb6cc219c036447b,新飞企业家园C11,公司企业,园区,上海市,上海市,松江区,上海市松江区新飞路新飞企业家园,3507e3ddfb6cc219c036447b,1,0,121.331255,31.023154,,enterprise,http://api.map.baidu.com/place/detail?uid=3507e3ddfb6cc219c036447b&output=html&source=placeapi_v2,,,,,,,,,,,,,,,,,,,,0
ca5b3739f4aadfc374e5b6a3,新飞企业家园A1,公司企业,园区,上海市,上海市,松江区,上海市松江区书山路新飞企业家园,ca5b3739f4aadfc374e5b6a3,1,0,121.331362,31.026836,,enterprise,http://api.map.baidu.com/place/detail?uid=ca5b3739f4aadfc374e5b6a3&output=html&source=placeapi_v2,,,,,,,,,,,,,,,,,,121.33123149957,31.026834263736,0
a582773a39de322df32d837b,新飞企业家园C3,公司企业,园区,上海市,上海市,松江区,上海市松江区新飞路250号新飞企业家园,,1,0,121.330045,31.023581,,enterprise,http://api.map.baidu.com/place/detail?uid=a582773a39de322df32d837b&output=html&source=placeapi_v2,,,,,,,,,,,,,,,,,,121.33007385505,31.023466657753,0
bfed3162d6da7623441a329a,上海国际中小企业城北区,公司企业,园区,上海市,上海市,松江区,上海市松江区三浜路261号,bfed3162d6da7623441a329a,1,0,121.307242,31.035368,,enterprise,http://api.map.baidu.com/place/detail?uid=bfed3162d6da7623441a329a&output=html&source=placeapi_v2,,,,,,,,,,,,,,,,,,121.30724466018,31.035496259395,0
6d9b3f156a1d56b5a8f7293f,宏美厂区,公司企业,园区,上海市,上海市,松江区,上海市松江区联营路333号,6d9b3f156a1d56b5a8f7293f,1,2,121.317473,31.026546,,enterprise,http://api.map.baidu.com/place/detail?uid=6d9b3f156a1d56b5a8f7293f&output=html&source=placeapi_v2,,,0,,,,,,,,0,,,,,,,121.31822520538,31.026808814672,2
90e745a11ed2316ec5effb8d,新飞企业家园A2,公司企业,园区,上海市,上海市,松江区,上海市松江区申港路3802号,90e745a11ed2316ec5effb8d,1,0,121.33137,31.026566,,enterprise,http://api.map.baidu.com/place/detail?uid=90e745a11ed2316ec5effb8d&output=html&source=placeapi_v2,,,,,,,,,,,,,,,,,,,,0
d41ac7af30f8684b601c67f0,上海国际中小企业城(南乐路),公司企业,园区,上海市,上海市,松江区,上海市松江区南乐路8号,d41ac7af30f8684b601c67f0,1,0,121.31063,31.031866,,enterprise,http://api.map.baidu.com/place/detail?uid=d41ac7af30f8684b601c67f0&output=html&source=placeapi_v2,,,,,,,,,,,,,,,,,,121.31160470545,31.030677764467,0
ffd6d40394ac9ef116b54bbf,春强物流园,公司企业,园区,上海市,上海市,松江区,上海市松江区新车公路281号a区5号楼,ffd6d40394ac9ef116b54bbf,1,0,121.311725,31.038782,,enterprise,http://api.map.baidu.com/place/detail?uid=ffd6d40394ac9ef116b54bbf&output=html&source=placeapi_v2,,,4,,,,,,,,2,,,,,,,121.30986188765,31.039736300165,0
1062f6ba7175afc38bdb7315,富士达城,公司企业,园区,上海市,上海市,松江区,上海市松江区新飞路1000号,1062f6ba7175afc38bdb7315,1,0,121.326189,31.038298,,life,http://api.map.baidu.com/place/detail?uid=1062f6ba7175afc38bdb7315&output=html&source=placeapi_v2,,,0.0,,,,,,,1,0,,,,,,,121.32408510105,31.038472202671,0
1377bbc2de3ec8c9f8dc85ef,新飞企业家园C4,公司企业,园区,上海市,上海市,松江区,上海市松江区申港路3802号c5附近,,1,0,121.330298,31.02357,,enterprise,http://api.map.baidu.com/place/detail?uid=1377bbc2de3ec8c9f8dc85ef&output=html&source=placeapi_v2,,,,,,,,,,,,,,,,,,,,0
c00752b03ff329bdf4eafc2c,盛辉上海物流园,公司企业,园区,上海市,上海市,松江区,上海市松江区赵家泾路329号,c00752b03ff329bdf4eafc2c,1,0,121.306687,31.039193,"(021)57791559,4008222222",life,http://api.map.baidu.com/place/detail?uid=c00752b03ff329bdf4eafc2c&output=html&source=placeapi_v2,,,0.0,,,,,,,2,1,,,,,,,121.30669096263,31.039874583141,0
c8350b0b5a8f3c648c55ecc0,新飞企业家园C5,公司企业,园区,上海市,上海市,松江区,上海市松江区申港路3802号c6附近,,1,0,121.330621,31.023552,,enterprise,http://api.map.baidu.com/place/detail?uid=c8350b0b5a8f3c648c55ecc0&output=html&source=placeapi_v2,,,,,,,,,,,,,,,,,,121.33092643681,31.022948303364,0
43e3bacbea72ca81631c6703,金地威新松江智造园,公司企业,园区,上海市,上海市,松江区,上海市松江区申港路3255号2区28号楼,,1,1,121.33355,31.033895,18655228104,enterprise,http://api.map.baidu.com/place/detail?uid=43e3bacbea72ca81631c6703&output=html&source=placeapi_v2,,,5,,,,,,,,3,,,,,,,121.33348741599,31.033933712162,1
d146b388dff961df7502699c,松江科技创业中心,公司企业,园区,上海市,上海市,松江区,上海市松江区新飞路1500弄30号楼,d146b388dff961df7502699c,1,3,121.32524,31.046198,(021)67600111,house,http://api.map.baidu.com/place/detail?uid=d146b388dff961df7502699c&output=html&source=placeapi_v2,,,0.0,,,,,,,,,,,,,,,121.32446856252,31.045722374285,3
7a483bc7315e50ecc1f1cfbc,上海国际中小企业城C3,公司企业,园区,上海市,上海市,松江区,上海市松江区三浜路261号c02栋附近,,1,0,121.30581,31.033905,,enterprise,http://api.map.baidu.com/place/detail?uid=7a483bc7315e50ecc1f1cfbc&output=html&source=placeapi_v2,,,,,,,,,,,,,,,,,,121.30581062323,31.034003333912,0
aa40108b96a83e6bc5effb59,上海伦明工业园,公司企业,园区,上海市,上海市,闵行区,上海市闵行区中辉路60号19幢,aa40108b96a83e6bc5effb59,1,0,121.362577,31.022745,,enterprise,http://api.map.baidu.com/place/detail?uid=aa40108b96a83e6bc5effb59&output=html&source=placeapi_v2,,,0.0,,,,,,,,,,,,,,,121.36079570766,31.022499854503,0
e9bd81430382cfc2deee8b7d,福克斯创新园,公司企业,园区,上海市,上海市,闵行区,元江路3599号,e9bd81430382cfc2deee8b7d,1,2,121.4059,31.052916,(021)33883399,house,http://api.map.baidu.com/place/detail?uid=e9bd81430382cfc2deee8b7d&output=html&source=placeapi_v2,,,,,,,,,,,,,,,,,,121.40494761931,31.052513159332,2
ec8d0506d4fc0ce640afe66a,北松科创园,公司企业,园区,上海市,上海市,闵行区,上海市闵行区北松公路288号2号楼,ec8d0506d4fc0ce640afe66a,1,0,121.410673,31.047081,,life,http://api.map.baidu.com/place/detail?uid=ec8d0506d4fc0ce640afe66a&output=html&source=placeapi_v2,,,,,,,,,,11,,,,,,,,121.41074374517,31.046965723567,0
8d900419c808f8b2b020a860,紫竹科技园区,公司企业,园区,上海市,上海市,闵行区,闵行区东川路555号,8d900419c808f8b2b020a860,1,1,121.459224,31.028855,,enterprise,http://api.map.baidu.com/place/detail?uid=8d900419c808f8b2b020a860&output=html&source=placeapi_v2,,,4,,,,,,,,4,,,,,,,121.4555187323,31.027877184267,1
1adf7a3d0dade25a2b201af3,东软软件园,公司企业,园区,上海市,上海市,闵行区,上海市闵行区紫月路1000号,1adf7a3d0dade25a2b201af3,1,2,121.451181,31.023989,,enterprise,http://api.map.baidu.com/place/detail?uid=1adf7a3d0dade25a2b201af3&output=html&source=placeapi_v2,,,2.5,,,,,,,,2,,,,,,,121.45211764164,31.022948303364,2
7a4fa2cc8238d91bf02d833b,紫竹信息数码港,公司企业,园区,上海市,上海市,闵行区,上海市闵行区东川路555号4号楼,7a4fa2cc8238d91bf02d833b,1,0,121.456312,31.028686,(021)61190090,enterprise,http://api.map.baidu.com/place/detail?uid=7a4fa2cc8238d91bf02d833b&output=html&source=placeapi_v2,,,0,,,,,,,,1,,,,,,,121.45550672465,31.027858294045,0
931bb0f07246c85fc9fa5fcb,中航民用航空电子产业园,公司企业,园区,上海市,上海市,闵行区,上海市闵行区紫星路666号1号楼,931bb0f07246c85fc9fa5fcb,1,2,121.46401,31.028011,(021)64956751,enterprise,http://api.map.baidu.com/place/detail?uid=931bb0f07246c85fc9fa5fcb&output=html&source=placeapi_v2,,,5,,,,,,,,1,,,,,,,121.46526027255,31.028254541291,2
e95b359dbd357fbe8433041b,立景国际物流园区,公司企业,园区,上海市,上海市,闵行区,上海市闵行区都会路288号,e95b359dbd357fbe8433041b,1,0,121.437539,31.04428,(021)54439919,enterprise,http://api.map.baidu.com/place/detail?uid=e95b359dbd357fbe8433041b&output=html&source=placeapi_v2,,,,,,,,,,,,,,,,,,121.43735617616,31.044212889265,0
f3c2373c65c6e653d22dd613,上海东方经济城,公司企业,园区,上海市,上海市,闵行区,三鲁路718弄58号,f3c2373c65c6e653d22dd613,1,0,121.536975,31.035759,,life,http://api.map.baidu.com/place/detail?uid=f3c2373c65c6e653d22dd613&output=html&source=placeapi_v2,,,0.0,,,,,,,1,,,,,,,,121.53697680466,31.035739680545,0
f60a15edf25fbdedbb17e713,上海汇红工业小区,公司企业,园区,上海市,上海市,闵行区,上海市闵行区召泰路2298号,f60a15edf25fbdedbb17e713,1,0,121.558414,31.03285,,life,http://api.map.baidu.com/place/detail?uid=f60a15edf25fbdedbb17e713&output=html&source=placeapi_v2,,,,,,,,,,1,1,,,,,,,121.5575009961,31.032204033646,0
cd9d05ddc2e5b1cb85420e21,天威工业园(航都路),公司企业,园区,上海市,上海市,浦东新区,上海市浦东新区航都路5号1号楼,cd9d05ddc2e5b1cb85420e21,1,0,121.617311,31.035285,,life,http://api.map.baidu.com/place/detail?uid=cd9d05ddc2e5b1cb85420e21&output=html&source=placeapi_v2,,,5,,,,,,,13,1,,,,,,,121.6177108257,31.03542710598,0
f9fd60621347c5620f0e6b21,上海宏仕发工业园,公司企业,园区,上海市,上海市,浦东新区,上海市浦东新区航头路118号5号楼,f9fd60621347c5620f0e6b21,1,0,121.615957,31.04239,,life,http://api.map.baidu.com/place/detail?uid=f9fd60621347c5620f0e6b21&output=html&source=placeapi_v2,,,0.0,,,,,,,7,,,,,,,,121.61568074957,31.041360206499,0
1a5390d4195e8699cb213dcc,158电子商务生态产业园,公司企业,园区,上海市,上海市,浦东新区,上海市浦东新区航川路52号8幢,1a5390d4195e8699cb213dcc,1,1,121.614373,31.037235,,enterprise,http://api.map.baidu.com/place/detail?uid=1a5390d4195e8699cb213dcc&output=html&source=placeapi_v2,,,,,,,,,,,,,,,,,,,,1
3be122e194bde62f1ef74d21,森普工业园,公司企业,园区,上海市,上海市,浦东新区,上海市浦东新区航都路25号2号厂1号楼,3be122e194bde62f1ef74d21,1,0,121.616421,31.044187,,life,http://api.map.baidu.com/place/detail?uid=3be122e194bde62f1ef74d21&output=html&source=placeapi_v2,,,0,,,,,,,7,1,,,,,,,121.61730704187,31.044724469754,0
8fde79ccab1774be94ca0783,南汇工业园区惠南工业园,公司企业,园区,上海市,上海市,浦东新区,上海市浦东新区沪南公路9826-9628号,8fde79ccab1774be94ca0783,1,0,121.735471,31.043132,(021)60387971,life,http://api.map.baidu.com/place/detail?uid=8fde79ccab1774be94ca0783&output=html&source=placeapi_v2,,,0.0,,,,,,,1,,,,,,,,121.73541591076,31.044639840057,0
e1185dc6389e9d40f90cadd8,美迪西新药创新中心,公司企业,园区,上海市,上海市,浦东新区,上海市浦东新区宣黄公路2300号2号楼,e1185dc6389e9d40f90cadd8,1,1,121.735297,31.030981,,house,http://api.map.baidu.com/place/detail?uid=e1185dc6389e9d40f90cadd8&output=html&source=placeapi_v2,,,0.0,,,,,,,,,,,,,,,121.73564980975,31.031040496228,1
48eb0058552c53ac2ee67bbc,同济南汇科技产业园,公司企业,园区,上海市,上海市,浦东新区,上海市浦东新区城南路1366号a区b1座,48eb0058552c53ac2ee67bbc,1,2,121.785797,31.046716,(021)68003190,enterprise,http://api.map.baidu.com/place/detail?uid=48eb0058552c53ac2ee67bbc&output=html&source=placeapi_v2,,,0,,,,,,,,0,,,,,,,121.78591898609,31.047578592597,2
05584059b9c32f3ad0ff239f,松江电子商务园区,公司企业,园区,上海市,上海市,松江区,上海市松江区三新北路1800弄23号,05584059b9c32f3ad0ff239f,1,0,121.194455,31.057482,(021)67831111,enterprise,http://api.map.baidu.com/place/detail?uid=05584059b9c32f3ad0ff239f&output=html&source=placeapi_v2,,,0,,,,,,,,2,,,,,,,121.19446826664,31.057399132246,0
34c0d3ba83f8a7eb87154132,松再虹科创园,公司企业,园区,上海市,上海市,松江区,上海市松江区新格路868号1号楼,34c0d3ba83f8a7eb87154132,1,2,121.289626,31.065543,(021)37745223,house,http://api.map.baidu.com/place/detail?uid=34c0d3ba83f8a7eb87154132&output=html&source=placeapi_v2,,,,,,,,,,,,,,,,,,121.28820383523,31.065822825628,2
c96ca75ffa7e6ba0a20464bd,上海凯乐产业园,公司企业,园区,上海市,上海市,松江区,上海市松江区新润路388号2号楼,c96ca75ffa7e6ba0a20464bd,1,0,121.298123,31.066311,(021)57681665,life,http://api.map.baidu.com/place/detail?uid=c96ca75ffa7e6ba0a20464bd&output=html&source=placeapi_v2,,,,,,,,,,8,,,,,,,,121.29728570394,31.065536699185,0
56b8c7a8d451a8407c29bd10,松江经济技术开发区,公司企业,园区,上海市,上海市,松江区,上海市松江区茜蒲路晨星茜浦苑西北侧约60米,56b8c7a8d451a8407c29bd10,1,0,121.321423,31.057186,(021)67754208,life,http://api.map.baidu.com/place/detail?uid=56b8c7a8d451a8407c29bd10&output=html&source=placeapi_v2,,,,,,,,,,1,,,,,,,,121.32145965947,31.057134008627,0
b854eb40b95bc10d3210af1c,融和高新科技孵化园,公司企业,园区,上海市,上海市,松江区,上海市松江区南环路506号,b854eb40b95bc10d3210af1c,1,1,121.322803,31.053849,,enterprise,http://api.map.baidu.com/place/detail?uid=b854eb40b95bc10d3210af1c&output=html&source=placeapi_v2,,,4.0,,,,,,,,2,,,,,,,121.32291431792,31.0531244125,1
8a50e15a75f0923e6e20b9f8,上海1560电子商务产业园,公司企业,园区,上海市,上海市,松江区,上海市松江区新蟠路1号a栋,8a50e15a75f0923e6e20b9f8,1,1,121.303943,31.065878,(021)60527000,enterprise,http://api.map.baidu.com/place/detail?uid=8a50e15a75f0923e6e20b9f8&output=html&source=placeapi_v2,,,3.8,,,,,,,,5,,,,,,,121.30469898892,31.066300225052,1
f86ce0f9ad9ffc56d13ce3cc,松港工业园,公司企业,园区,上海市,上海市,松江区,上海市松江区银都西路368号,f86ce0f9ad9ffc56d13ce3cc,1,1,121.36728,31.086377,15000233910,house,http://api.map.baidu.com/place/detail?uid=f86ce0f9ad9ffc56d13ce3cc&output=html&source=placeapi_v2,,,,,,,,,,,,,,,,,,121.36720979495,31.086252259505,1
c3b9aaa9d8a0d64172455b57,东港股份上海产业园,公司企业,园区,上海市,上海市,闵行区,上海市闵行区马桥镇元电路597号,c3b9aaa9d8a0d64172455b57,1,3,121.374214,31.054254,(021)51591718,enterprise,http://api.map.baidu.com/place/detail?uid=c3b9aaa9d8a0d64172455b57&output=html&source=placeapi_v2,,,1,,,,,,,,2,,,,,,,121.37502486604,31.053495862832,3
f85a12d91cf38da23686f44c,上海喜乐嘉工业园,公司企业,园区,上海市,上海市,松江区,上海市松江区金都西路688号5号楼,f85a12d91cf38da23686f44c,1,0,121.35674,31.072869,,life,http://api.map.baidu.com/place/detail?uid=f85a12d91cf38da23686f44c&output=html&source=placeapi_v2,,,,,,,,,,17,0,,,,,,,121.35715776618,31.072040061205,0
f3b4e5f59882181926e0a0af,松港商务园,公司企业,园区,上海市,上海市,松江区,上海市松江区新桥镇金都西路833号,f3b4e5f59882181926e0a0af,1,2,121.353603,31.069563,13761138687,enterprise,http://api.map.baidu.com/place/detail?uid=f3b4e5f59882181926e0a0af&output=html&source=placeapi_v2,,,5,,,,,,,,1,,,,,,,121.35421142651,31.068752983113,2
148662ccdd8ff212c72ba156,上海市莘庄工业区,公司企业,园区,上海市,上海市,闵行区,上海市闵行区光华路1111弄,148662ccdd8ff212c72ba156,1,1,121.380488,31.070214,,house,http://api.map.baidu.com/place/detail?uid=148662ccdd8ff212c72ba156&output=html&source=placeapi_v2,,,,,,,,,,,,,,,,,,121.38052282634,31.070455213246,1
5211d2198a1939597cc8769c,上海邦普园,公司企业,园区,上海市,上海市,松江区,上海市松江区新桥镇金都西路800号,5211d2198a1939597cc8769c,1,2,121.352668,31.071482,18916933201,house,http://api.map.baidu.com/place/detail?uid=5211d2198a1939597cc8769c&output=html&source=placeapi_v2,,,,,,,,,,,,,,,,,,121.35468742603,31.071174003248,2
14076deeea8128f502294f1b,上海莘闵留学人员科技创业园,公司企业,园区,上海市,上海市,闵行区,上海市闵行区金都路4299号三号厂房2号楼3楼,14076deeea8128f502294f1b,1,2,121.37851,31.078716,,house,http://api.map.baidu.com/place/detail?uid=14076deeea8128f502294f1b&output=html&source=placeapi_v2,,,,,,,,,,,,,,,,,,121.3773606571,31.078658955324,2
7dffa965921cf49c8bdb733f,裕居商务园(申港路),公司企业,园区,上海市,上海市,松江区,上海市松江区申港路215号,7dffa965921cf49c8bdb733f,1,0,121.359654,31.074746,,enterprise,http://api.map.baidu.com/place/detail?uid=7dffa965921cf49c8bdb733f&output=html&source=placeapi_v2,,,,,,,,,,,,,,,,,,121.35960025886,31.074727712863,0
d24e48ebabefeac9afee7a24,亘达投资向阳企业园,公司企业,园区,上海市,上海市,闵行区,上海市闵行区颛兴东路1528号9号楼3楼,d24e48ebabefeac9afee7a24,1,0,121.418836,31.078668,,enterprise,http://api.map.baidu.com/place/detail?uid=d24e48ebabefeac9afee7a24&output=html&source=placeapi_v2,,,4,,,,,,,,2,,,,,,,121.41878140199,31.08012820102,0
e9bd81430382cfc2deee8b7d,福克斯创新园,公司企业,园区,上海市,上海市,闵行区,元江路3599号,e9bd81430382cfc2deee8b7d,1,2,121.4059,31.052916,(021)33883399,house,http://api.map.baidu.com/place/detail?uid=e9bd81430382cfc2deee8b7d&output=html&source=placeapi_v2,,,,,,,,,,,,,,,,,,121.40494761931,31.052513159332,2
a6f4fc6e887599b5ae31e55f,久创科技园,公司企业,园区,上海市,上海市,闵行区,上海市闵行区瓶安路1358号东区3号楼,a6f4fc6e887599b5ae31e55f,1,0,121.40781,31.058116,(021)64905505,life,http://api.map.baidu.com/place/detail?uid=a6f4fc6e887599b5ae31e55f&output=html&source=placeapi_v2,,,3.7,,,,,,,8,,,,,,,,121.40706802814,31.058103867481,0
41638f0f4d227710b5f42f21,亨诺创投园,公司企业,园区,上海市,上海市,闵行区,上海市闵行区光中路355号,41638f0f4d227710b5f42f21,1,0,121.395562,31.078222,,life,http://api.map.baidu.com/place/detail?uid=41638f0f4d227710b5f42f21&output=html&source=placeapi_v2,,,,,,,,,,8,1,,,,,,,121.39581185227,31.078311011031,0
28b361ec44c17f014107c15e,致永工业园,公司企业,园区,上海市,上海市,闵行区,上海市闵行区都会路1951号d区10号楼,28b361ec44c17f014107c15e,1,0,121.425772,31.070258,13321911082,life,http://api.map.baidu.com/place/detail?uid=28b361ec44c17f014107c15e&output=html&source=placeapi_v2,,,3.0,,,,,,,4,,,,,,,,121.4259097582,31.070398410739,0
ef0c8fe0c228c625f7eafca6,上海晶碧科技园,公司企业,园区,上海市,上海市,闵行区,上海市闵行区都会路1999-2059号e栋,ef0c8fe0c228c625f7eafca6,1,2,121.424365,31.071848,(021)24282087,house,http://api.map.baidu.com/place/detail?uid=ef0c8fe0c228c625f7eafca6&output=html&source=placeapi_v2,,,3,,,,,,,,,,,,,,,121.42431896499,31.071970196219,2
72937ac41f712674631c6714,总部1号,公司企业,园区,上海市,上海市,闵行区,上海市闵行区都会路2338号一号8号楼,72937ac41f712674631c6714,1,0,121.423327,31.077786,,enterprise,http://api.map.baidu.com/place/detail?uid=72937ac41f712674631c6714&output=html&source=placeapi_v2,,,,,,,,,,,,,,,,,,121.42331601954,31.077749730876,0
7806821e86f7926ac7f02539,上海市军民融合产业基地,公司企业,园区,上海市,上海市,闵行区,上海市闵行区申南路515号a栋,7806821e86f7926ac7f02539,1,0,121.393039,31.080134,,life,http://api.map.baidu.com/place/detail?uid=7806821e86f7926ac7f02539&output=html&source=placeapi_v2,,,,,,,,,,1,,,,,,,,121.39247960146,31.080382646504,0
44207646485df416deee8b24,凯龙莘庄商务园,公司企业,园区,上海市,上海市,闵行区,上海市闵行区申南路59号1号楼,44207646485df416deee8b24,1,3,121.401356,31.083252,,enterprise,http://api.map.baidu.com/place/detail?uid=44207646485df416deee8b24&output=html&source=placeapi_v2,,,4.5,,,,,,,,2,,,,,,,121.40103999034,31.083676942186,3
3c0ea7c5eb6f109dfbf0cb11,上海喜讯科技园,公司企业,园区,上海市,上海市,闵行区,上海市闵行区都会路1835号,3c0ea7c5eb6f109dfbf0cb11,1,1,121.425667,31.066503,,enterprise,http://api.map.baidu.com/place/detail?uid=3c0ea7c5eb6f109dfbf0cb11&output=html&source=placeapi_v2,,,1,,,,,,,,3,,,,,,,121.42720762985,31.067106517349,1
a4216e37d80636024c6d4602,亘达投资向阳企业园13,公司企业,园区,上海市,上海市,闵行区,上海市闵行区颛兴东路1528号亘达投资向阳企业园,a4216e37d80636024c6d4602,1,0,121.41813,31.079975,,enterprise,http://api.map.baidu.com/place/detail?uid=a4216e37d80636024c6d4602&output=html&source=placeapi_v2,,,,,,,,,,,,,,,,,,121.41817965947,31.079996595849,0
9784c19186c3fb3845e27437,颛桥元谷文创园,公司企业,园区,上海市,上海市,闵行区,上海市闵行区颛桥镇光华路689号,9784c19186c3fb3845e27437,1,0,121.391679,31.073742,(021)52270392,enterprise,http://api.map.baidu.com/place/detail?uid=9784c19186c3fb3845e27437&output=html&source=placeapi_v2,,,0,,,,,,,,0,,,,,,,121.39163018623,31.073843142874,0
ef02709982e7d2efa01de9b7,莘庄工业区天为经济城,公司企业,园区,上海市,上海市,闵行区,上海市闵行区申南路505号103室,ef02709982e7d2efa01de9b7,1,3,121.394624,31.080355,,house,http://api.map.baidu.com/place/detail?uid=ef02709982e7d2efa01de9b7&output=html&source=placeapi_v2,,,0,,,,,,,,,,,,,,,121.39517454314,31.080498453412,3
5fa374205fc8b9b22b06cecc,晶碧金天地,公司企业,园区,上海市,上海市,闵行区,上海市闵行区都会路1999-2059号g座,5fa374205fc8b9b22b06cecc,1,0,121.424314,31.071792,(021)24282087,enterprise,http://api.map.baidu.com/place/detail?uid=5fa374205fc8b9b22b06cecc&output=html&source=placeapi_v2,,,4,,,,,,,,2,,,,,,,121.42509542509,31.0723779523,0
90037f33506165524c6d465f,晶碧金天地b座,公司企业,园区,上海市,上海市,闵行区,上海市闵行区都会路1999~2059号,90037f33506165524c6d465f,1,0,121.425412,31.071201,,life,http://api.map.baidu.com/place/detail?uid=90037f33506165524c6d465f&output=html&source=placeapi_v2,,,,,,,,,,2,,,,,,,,121.42545422364,31.071218659277,0
8b7165f0e952ecaf2bb97cc1,晶碧金天地D座,公司企业,园区,上海市,上海市,闵行区,上海市闵行区都会路1999号～2059号,8b7165f0e952ecaf2bb97cc1,1,0,121.424681,31.071867,,life,http://api.map.baidu.com/place/detail?uid=8b7165f0e952ecaf2bb97cc1&output=html&source=placeapi_v2,,,,,,,,,,1,1,,,,,,,121.42502044637,31.072159343672,0
ad5b038be99f08e7c03644b6,晶碧金天地E座,公司企业,园区,上海市,上海市,闵行区,上海市闵行区都会路2059号,ad5b038be99f08e7c03644b6,1,0,121.424448,31.072431,,life,http://api.map.baidu.com/place/detail?uid=ad5b038be99f08e7c03644b6&output=html&source=placeapi_v2,,,,,,,,,,1,,,,,,,,121.42459471154,31.072208357921,0
79dcca169ac2c25c028972f9,上海金领谷科技产业园,公司企业,园区,上海市,上海市,闵行区,元江路525号,79dcca169ac2c25c028972f9,1,3,121.456956,31.067909,(021)33888899,enterprise,http://api.map.baidu.com/place/detail?uid=79dcca169ac2c25c028972f9&output=html&source=placeapi_v2,,,5,,,,,,,,6,,,,,,,121.4559174955,31.069255193076,3
0f8b7b98c79f434dd8ecedf5,梅莲食品园区,公司企业,园区,上海市,上海市,闵行区,上海市闵行区莲花南路2399号2号楼,0f8b7b98c79f434dd8ecedf5,1,2,121.436288,31.075214,,enterprise,http://api.map.baidu.com/place/detail?uid=0f8b7b98c79f434dd8ecedf5&output=html&source=placeapi_v2,,,,,,,,,,,,,,,,,,121.43627305956,31.075256778156,2
cf85a68a30b8dc736ca3cc0a,龙吴工业园区,公司企业,园区,上海市,上海市,闵行区,上海市闵行区虹梅南路5201号3幢,cf85a68a30b8dc736ca3cc0a,1,2,121.457554,31.054929,,enterprise,http://api.map.baidu.com/place/detail?uid=cf85a68a30b8dc736ca3cc0a&output=html&source=placeapi_v2,,,4,,,,,,,,1,,,,,,,121.45787577996,31.055165962224,2
12efd8c3cf2de055ad080f82,中国梦谷-南上海文化创意产业园,公司企业,园区,上海市,上海市,闵行区,上海市闵行区曲吴路589号南区9号楼,12efd8c3cf2de055ad080f82,1,5,121.460408,31.05981,(021)34675917,enterprise,http://api.map.baidu.com/place/detail?uid=12efd8c3cf2de055ad080f82&output=html&source=placeapi_v2,,,3.7,,,,,,,,3,,,,,,,121.45995113518,31.060307623999,5
468e671b98e1d489922ca38c,浦江人力资源中介园区,公司企业,园区,上海市,上海市,闵行区,上海市闵行区兴达路58号,468e671b98e1d489922ca38c,1,1,121.52356,31.067772,,enterprise,http://api.map.baidu.com/place/detail?uid=468e671b98e1d489922ca38c&output=html&source=placeapi_v2,,,0,,,,,,,,0,,,,,,,121.52341040979,31.067663440863,1
5b8ef2a0d39ba36efea77821,兴天工贸科创园,公司企业,园区,上海市,上海市,闵行区,上海市闵行区三达路85号,5b8ef2a0d39ba36efea77821,1,0,121.52646,31.069678,(021)54313683,life,http://api.map.baidu.com/place/detail?uid=5b8ef2a0d39ba36efea77821&output=html&source=placeapi_v2,,,,,,,,,,17,,,,,,,,121.52685666007,31.070400730482,0
599d6fb3c65a5136c7f50dc2,588创意园,公司企业,园区,上海市,上海市,闵行区,上海市闵行区竹园路588号,599d6fb3c65a5136c7f50dc2,1,0,121.52014,31.076262,13818978447,life,http://api.map.baidu.com/place/detail?uid=599d6fb3c65a5136c7f50dc2&output=html&source=placeapi_v2,,,1,,,,,,,2,1,,,,,,,121.51966286156,31.076189385143,0
1143c5e36ffe74e3aeb22a42,上海市科技创业中心闵行基地,公司企业,园区,上海市,上海市,闵行区,上海市闵行区三鲁公路3279号2号楼,1143c5e36ffe74e3aeb22a42,1,0,121.528207,31.085538,,enterprise,http://api.map.baidu.com/place/detail?uid=1143c5e36ffe74e3aeb22a42&output=html&source=placeapi_v2,,,,,,,,,,,,,,,,,,121.52819513528,31.085625302568,0
5e53af1a65faf55e4151c013,浦江科学园,公司企业,园区,上海市,上海市,闵行区,上海市闵行区恒南路689号,5e53af1a65faf55e4151c013,1,1,121.522267,31.079669,,scope,http://api.map.baidu.com/place/detail?uid=5e53af1a65faf55e4151c013&output=html&source=placeapi_v2,,,0,,,,,,,,0,,,,,,,121.52253649814,31.079504325934,1
626b9ff58213da3521026255,林州工业园,公司企业,园区,上海市,上海市,浦东新区,上海市浦东新区沪南公路89号,626b9ff58213da3521026255,1,0,121.591002,31.068797,,life,http://api.map.baidu.com/place/detail?uid=626b9ff58213da3521026255&output=html&source=placeapi_v2,,,,,,,,,,5,,,,,,,,121.59065431739,31.069627451365,0
e3e2cd9d4fc27ce2c6f50d81,金千工贸园,公司企业,园区,上海市,上海市,浦东新区,上海市浦东新区鹤立西路巨峰66号,e3e2cd9d4fc27ce2c6f50d81,1,0,121.590624,31.063094,,life,http://api.map.baidu.com/place/detail?uid=e3e2cd9d4fc27ce2c6f50d81&output=html&source=placeapi_v2,,,0.0,,,,,,,11,,,,,,,,121.59055550378,31.063394589821,0
3c0ea7c505bc0a9ffbf0cb46,松江工业区佘山分区,公司企业,园区,上海市,上海市,松江区,上海市松江区陶干路东地科技园东南侧约70米,3c0ea7c505bc0a9ffbf0cb46,1,0,121.197664,31.115946,,life,http://api.map.baidu.com/place/detail?uid=3c0ea7c505bc0a9ffbf0cb46&output=html&source=placeapi_v2,,,,,,,,,,1,,,,,,,,121.19760130621,31.115686797627,0
34e48508dbe7e9e3d9d8919e,东地科技园,公司企业,园区,上海市,上海市,松江区,上海市松江区泗陈公路3666号,34e48508dbe7e9e3d9d8919e,1,0,121.197163,31.11637,,life,http://api.map.baidu.com/place/detail?uid=34e48508dbe7e9e3d9d8919e&output=html&source=placeapi_v2,,,0.0,,,,,,,2,,,,,,,,121.1971605718,31.116237095544,0
e9760a8f211e9a598bdb7353,和汇集团伟凯产业园,公司企业,园区,上海市,上海市,松江区,上海市松江区沈砖公路5599号,e9760a8f211e9a598bdb7353,1,1,121.257428,31.098976,,enterprise,http://api.map.baidu.com/place/detail?uid=e9760a8f211e9a598bdb7353&output=html&source=placeapi_v2,,,5,,,,,,,,1,,,,,,,121.2580118634,31.096905600029,1
d75daf1cf6649a91c1f1cf82,和汇集团伟凯工业园8,公司企业,园区,上海市,上海市,松江区,上海市松江区沈砖公路5599号,,1,0,121.257955,31.100961,,enterprise,http://api.map.baidu.com/place/detail?uid=d75daf1cf6649a91c1f1cf82&output=html&source=placeapi_v2,,,,,,,,,,,,,,,,,,,,0
d1469ee775be041f843304d5,上海佳利特企业园,公司企业,园区,上海市,上海市,松江区,上海市松江区沈砖公路6000号c4号,d1469ee775be041f843304d5,1,1,121.266546,31.097575,(021)67679106,enterprise,http://api.map.baidu.com/place/detail?uid=d1469ee775be041f843304d5&output=html&source=placeapi_v2,,,0,,,,,,,,0,,,,,,,121.26650010487,31.097905998167,1
680fb703745f6fe28ab988ab,励心创业园,公司企业,园区,上海市,上海市,松江区,上海市松江区振业路161号,680fb703745f6fe28ab988ab,1,0,121.284483,31.094878,,life,http://api.map.baidu.com/place/detail?uid=680fb703745f6fe28ab988ab&output=html&source=placeapi_v2,,,0.0,,,,,,,6,1,,,,,,,121.28447631023,31.094375893992,0
985aefd735fe093e5e0d0299,科大智能产业(西区),公司企业,园区,上海市,上海市,松江区,上海市松江区泗砖公路777号,985aefd735fe093e5e0d0299,1,2,121.294235,31.103267,(021)50809880,enterprise,http://api.map.baidu.com/place/detail?uid=985aefd735fe093e5e0d0299&output=html&source=placeapi_v2,,,5,,,,,,,,1,,,,,,,121.29362977209,31.102122221172,2
946b593992b87cc51b94c610,网巨创业园区,公司企业,园区,上海市,上海市,松江区,上海市松江区洞舟路99号a栋,946b593992b87cc51b94c610,1,1,121.267334,31.092031,(021)33551120,enterprise,http://api.map.baidu.com/place/detail?uid=946b593992b87cc51b94c610&output=html&source=placeapi_v2,,,5,,,,,,,,2,,,,,,,121.26725535074,31.091508796797,1
925c550fb8a127b15a3ac84a,清华科教园,公司企业,园区,上海市,上海市,松江区,上海市松江区洞业路388号6号楼3楼,925c550fb8a127b15a3ac84a,1,0,121.263095,31.092137,,life,http://api.map.baidu.com/place/detail?uid=925c550fb8a127b15a3ac84a&output=html&source=placeapi_v2,,,0.0,,,,,,,11,,,,,,,,121.26218890766,31.092637519724,0
28fe8d7ae0a0010988b98803,兄妹猫园区,公司企业,园区,上海市,上海市,松江区,上海市松江区九新公路868-1号园区6号楼4楼,28fe8d7ae0a0010988b98803,1,0,121.322162,31.102896,13671940639,life,http://api.map.baidu.com/place/detail?uid=28fe8d7ae0a0010988b98803&output=html&source=placeapi_v2,,,,,,,,,,13,,,,,,,,121.32236105694,31.102812152267,0
332611803d02d880ae080f7d,积旺工业园,公司企业,园区,上海市,上海市,松江区,上海市松江区康鸣路11号,332611803d02d880ae080f7d,1,0,121.321094,31.103622,,life,http://api.map.baidu.com/place/detail?uid=332611803d02d880ae080f7d&output=html&source=placeapi_v2,,,0,,,,,,,1,0,,,,,,,121.32135130855,31.104704731347,0
4ea3f2f1c83d93d7aecb66d5,上海市纺织原料公司九亭工业园,公司企业,园区,上海市,上海市,松江区,上海市松江区九新公路3号,4ea3f2f1c83d93d7aecb66d5,1,0,121.325877,31.118286,,enterprise,http://api.map.baidu.com/place/detail?uid=4ea3f2f1c83d93d7aecb66d5&output=html&source=placeapi_v2,,,0.0,,,,,,,,,,,,,,,121.32605845727,31.11799918219,0
0dc3d82d979c746d74e5b695,上海雷宸工业园区,公司企业,园区,上海市,上海市,松江区,上海市松江区同利路41号,0dc3d82d979c746d74e5b695,1,0,121.323465,31.117919,,life,http://api.map.baidu.com/place/detail?uid=0dc3d82d979c746d74e5b695&output=html&source=placeapi_v2,,,,,,,,,,0,,,,,,,,121.32336351279,31.118129222698,0
f95a55b185ed741b0f0a703c,上海越江工业园区,公司企业,园区,上海市,上海市,松江区,上海市松江区同利路551号2号楼210室,f95a55b185ed741b0f0a703c,1,0,121.3112,31.111043,(021)67750035,life,http://api.map.baidu.com/place/detail?uid=f95a55b185ed741b0f0a703c&output=html&source=placeapi_v2,,,,,,,,,,3,,,,,,,,121.31107469352,31.111081716168,0
b388f9fd456f8840b25c6a97,久富工业基地,公司企业,园区,上海市,上海市,松江区,上海市松江区姚北路128号5号楼,b388f9fd456f8840b25c6a97,1,0,121.316872,31.105032,,life,http://api.map.baidu.com/place/detail?uid=b388f9fd456f8840b25c6a97&output=html&source=placeapi_v2,,,,,,,,,,1,,,,,,,,121.31733906023,31.104847397885,0
07d7fa021cd94499c26c14c4,福贵诚工业园(朱金公路),公司企业,园区,上海市,上海市,松江区,上海市松江区同利路2~4号3号楼,07d7fa021cd94499c26c14c4,1,2,121.325011,31.116939,,enterprise,http://api.map.baidu.com/place/detail?uid=07d7fa021cd94499c26c14c4&output=html&source=placeapi_v2,,,5,,,,,,,,1,,,,,,,121.32537569388,31.116066990622,2
71ee042b66d4a7ecf6e73b06,漕河泾・松江新兴产业园,公司企业,园区,上海市,上海市,松江区,上海市松江区莘砖公路518号34号楼,71ee042b66d4a7ecf6e73b06,1,9,121.330475,31.101379,,enterprise,http://api.map.baidu.com/place/detail?uid=71ee042b66d4a7ecf6e73b06&output=html&source=placeapi_v2,,,4,,,,,,,,1,,,,,,,121.32998373345,31.100534590105,9
5ce2637d8e5c3e2fae31e545,上海久富采丰工业园,公司企业,园区,上海市,上海市,松江区,上海市松江区盛富路699号,5ce2637d8e5c3e2fae31e545,1,0,121.312132,31.107324,,life,http://api.map.baidu.com/place/detail?uid=5ce2637d8e5c3e2fae31e545&output=html&source=placeapi_v2,,,5,,,,,,,5,1,,,,,,,121.31224221041,31.1081449719,0
be54cde9559d2f5b78f79644,上海玉刚工贸园,公司企业,园区,上海市,上海市,松江区,上海市松江区同利路519号4栋,be54cde9559d2f5b78f79644,1,0,121.312087,31.110915,,life,http://api.map.baidu.com/place/detail?uid=be54cde9559d2f5b78f79644&output=html&source=placeapi_v2,,,5.0,,,,,,,9,1,,,,,,,121.31179975632,31.111426863659,0
ec2fbdfe4f15fee6c909f0d5,佳钢科技园,公司企业,园区,上海市,上海市,松江区,上海市松江区盛富路189号,ec2fbdfe4f15fee6c909f0d5,1,2,121.316096,31.109969,,enterprise,http://api.map.baidu.com/place/detail?uid=ec2fbdfe4f15fee6c909f0d5&output=html&source=placeapi_v2,,,0,,,,,,,,0,,,,,,,121.31616898855,31.109840794538,2
b2cb7f3130fe67e503ec0160,518商务园区,公司企业,园区,上海市,上海市,闵行区,上海市闵行区莘北路518号,b2cb7f3130fe67e503ec0160,1,0,121.368881,31.117373,,enterprise,http://api.map.baidu.com/place/detail?uid=b2cb7f3130fe67e503ec0160&output=html&source=placeapi_v2,,,5,,,,,,,,2,,,,,,,121.36919506001,31.116430320157,0
f86ce0f9ad9ffc56d13ce3cc,松港工业园,公司企业,园区,上海市,上海市,松江区,上海市松江区银都西路368号,f86ce0f9ad9ffc56d13ce3cc,1,1,121.36728,31.086377,15000233910,house,http://api.map.baidu.com/place/detail?uid=f86ce0f9ad9ffc56d13ce3cc&output=html&source=placeapi_v2,,,,,,,,,,,,,,,,,,121.36720979495,31.086252259505,1
692d268c66c2ee5eb05c6a06,青春工业园商务区,公司企业,园区,上海市,上海市,闵行区,上海市闵行区青春路熙景国柜生活园区南侧约220米,692d268c66c2ee5eb05c6a06,1,0,121.375265,31.102564,,enterprise,http://api.map.baidu.com/place/detail?uid=692d268c66c2ee5eb05c6a06&output=html&source=placeapi_v2,,,0.0,,,,,,,,1,,,,,,,121.37535439692,31.102343274574,0
c45e508cdacb51e82b11d1d6,黎安展示产业园,公司企业,园区,上海市,上海市,闵行区,上海市闵行区莘福路396号1号楼,c45e508cdacb51e82b11d1d6,1,2,121.36757,31.113892,,enterprise,http://api.map.baidu.com/place/detail?uid=c45e508cdacb51e82b11d1d6&output=html&source=placeapi_v2,,,5,,,,,,,,1,,,,,,,121.36694004728,31.114135749282,2
2bad9f74576781c08e7727cf,上海宇神工业园,公司企业,园区,上海市,上海市,松江区,上海市松江区申北一路6号厂7号,2bad9f74576781c08e7727cf,1,0,121.373346,31.090717,,life,http://api.map.baidu.com/place/detail?uid=2bad9f74576781c08e7727cf&output=html&source=placeapi_v2,,,,,,,,,,9,,,,,,,,121.37440739599,31.091154632217,0
a8d163e44f45171d0482c2ce,518商务园区-3号楼,公司企业,园区,上海市,上海市,闵行区,上海市闵行区莘北路518号,a8d163e44f45171d0482c2ce,1,0,121.369378,31.117452,,enterprise,http://api.map.baidu.com/place/detail?uid=a8d163e44f45171d0482c2ce&output=html&source=placeapi_v2,,,,,,,,,,,,,,,,,,121.36893013714,31.117050549238,0
f0a7a91480718c2939221cee,都园创意园,公司企业,园区,上海市,上海市,闵行区,上海市闵行区都园路4288号,f0a7a91480718c2939221cee,1,4,121.408342,31.103472,(021)37013355,enterprise,http://api.map.baidu.com/place/detail?uid=f0a7a91480718c2939221cee&output=html&source=placeapi_v2,,,5,,,,,,,,4,,,,,,,121.408025432,31.102517310008,4
80f077730dcc11d60f0a70fa,集心工业园区,公司企业,园区,上海市,上海市,闵行区,上海市闵行区集心路168号5号楼,80f077730dcc11d60f0a70fa,1,0,121.424293,31.110916,,life,http://api.map.baidu.com/place/detail?uid=80f077730dcc11d60f0a70fa&output=html&source=placeapi_v2,,,,,,,,,,0,,,,,,,,121.42426395725,31.111013674709,0
c83dba5f0fe0324e2806cebd,上海梅美资产经营管理有限公司(商务园区),公司企业,园区,上海市,上海市,闵行区,上海市闵行区集心路168号商务园区5号楼,c83dba5f0fe0324e2806cebd,1,6,121.421945,31.112937,(021)54998088,enterprise,http://api.map.baidu.com/place/detail?uid=c83dba5f0fe0324e2806cebd&output=html&source=placeapi_v2,,,,,,,,,,,,,,,,,,121.42054220296,31.11246511694,6
9fbfeef2533e6c44ece4a58e,莘庄工业园区,公司企业,园区,上海市,上海市,闵行区,春东路479号,9fbfeef2533e6c44ece4a58e,1,0,121.396714,31.091775,,life,http://api.map.baidu.com/place/detail?uid=9fbfeef2533e6c44ece4a58e&output=html&source=placeapi_v2,,,4.8,,,,,,,1,5,,,,,,,121.39636911879,31.091519906358,0
bd62ecfbaf7701c52fb96d4e,春申文化创意园,公司企业,园区,上海市,上海市,闵行区,上海市闵行区申北路8号,bd62ecfbaf7701c52fb96d4e,1,4,121.392549,31.097883,(021)34900322,house,http://api.map.baidu.com/place/detail?uid=bd62ecfbaf7701c52fb96d4e&output=html&source=placeapi_v2,,,,,,,,,,,,,,,,,,121.3928654102,31.097677952714,4
e57922991029ab22cc06a4ee,前瞻科技Lab,公司企业,园区,上海市,上海市,闵行区,上海市闵行区集心路268号,e57922991029ab22cc06a4ee,1,1,121.41946,31.114962,(021)62145922,enterprise,http://api.map.baidu.com/place/detail?uid=e57922991029ab22cc06a4ee&output=html&source=placeapi_v2,,,,,,,,,,,,,,,,,,121.41933556037,31.114901583549,1
01694e9246c986933062120e,莘工坊智慧科技创新产业基地,公司企业,园区,上海市,上海市,闵行区,上海市闵行区春东路689号1栋,,1,0,121.39307,31.092709,,life,http://api.map.baidu.com/place/detail?uid=01694e9246c986933062120e&output=html&source=placeapi_v2,,,,,,,,,,3,1,,,,,,,121.39412371793,31.092529479493,0
56548fe6d93db0c05bbbbcb4,上海电子物联产业园,公司企业,园区,上海市,上海市,闵行区,上海市闵行区景联路439号,56548fe6d93db0c05bbbbcb4,1,5,121.450363,31.105461,,enterprise,http://api.map.baidu.com/place/detail?uid=56548fe6d93db0c05bbbbcb4&output=html&source=placeapi_v2,,,5,,,,,,,,3,,,,,,,121.45018628479,31.106451681719,5
0552a780cb79d98db817e706,大量科创园,公司企业,园区,上海市,上海市,闵行区,上海市闵行区金都路618号2幢,0552a780cb79d98db817e706,1,0,121.447301,31.100549,(021)64976276,life,http://api.map.baidu.com/place/detail?uid=0552a780cb79d98db817e706&output=html&source=placeapi_v2,,,,,,,,,,4,,,,,,,,121.44735333128,31.099864938932,0
e4a6ff32f94a3bbdeb1e97f5,上海关港工业园区,公司企业,园区,上海市,上海市,徐汇区,上海市徐汇区银都路218号,e4a6ff32f94a3bbdeb1e97f5,1,5,121.459054,31.113298,,enterprise,http://api.map.baidu.com/place/detail?uid=e4a6ff32f94a3bbdeb1e97f5&output=html&source=placeapi_v2,,,5,,,,,,,,1,,,,,,,121.45930076094,31.112782119439,5
d0223ca873adf1c8c9291542,莲城工业园,公司企业,园区,上海市,上海市,闵行区,上海市闵行区虹建路99号1号楼,d0223ca873adf1c8c9291542,1,5,121.448883,31.092162,(021)34697605,enterprise,http://api.map.baidu.com/place/detail?uid=d0223ca873adf1c8c9291542&output=html&source=placeapi_v2,,,0,,,,,,,,0,,,,,,,121.44883853098,31.092706657119,5
8d96925c3b7cce46c1f1cf6f,陇西工业园区,公司企业,园区,上海市,上海市,闵行区,上海市闵行区双柏路688号东区6号楼,8d96925c3b7cce46c1f1cf6f,1,0,121.450539,31.096372,,life,http://api.map.baidu.com/place/detail?uid=8d96925c3b7cce46c1f1cf6f&output=html&source=placeapi_v2,,,0.0,,,,,,,14,,,,,,,,121.4505723253,31.096092622482,0
435d7aeabf14e8345abbbc3d,迅豪科技产业园,公司企业,园区,上海市,上海市,闵行区,上海市闵行区景联路258号2号楼,435d7aeabf14e8345abbbc3d,1,0,121.454658,31.107737,,enterprise,http://api.map.baidu.com/place/detail?uid=435d7aeabf14e8345abbbc3d&output=html&source=placeapi_v2,,,,,,,,,,,,,,,,,,121.45515738442,31.107028228511,0
bff8fa7dd84b34a1c8213d3d,上海双柏工业园,公司企业,园区,上海市,上海市,闵行区,上海市闵行区双柏路518号1号楼,bff8fa7dd84b34a1c8213d3d,1,3,121.457075,31.09889,,enterprise,http://api.map.baidu.com/place/detail?uid=bff8fa7dd84b34a1c8213d3d&output=html&source=placeapi_v2,,,3.5,,,,,,,,2,,,,,,,121.456743818,31.096865345489,3
6d0127b22eefbea5b23c8128,4221工业园,公司企业,园区,上海市,上海市,闵行区,上海市闵行区龙吴路9号楼,6d0127b22eefbea5b23c8128,1,0,121.463709,31.093281,,life,http://api.map.baidu.com/place/detail?uid=6d0127b22eefbea5b23c8128&output=html&source=placeapi_v2,,,,,,,,,,,,,,,,,,121.46448375032,31.093451725494,0
501d4a4ee59cae1e88fc0632,上海菲豪都市园,公司企业,园区,上海市,上海市,闵行区,上海市闵行区双柏路888号辅助楼5号楼3楼,501d4a4ee59cae1e88fc0632,1,0,121.448672,31.097058,,life,http://api.map.baidu.com/place/detail?uid=501d4a4ee59cae1e88fc0632&output=html&source=placeapi_v2,,,0.0,,,,,,,11,1,,,,,,,121.44854238571,31.098157243628,0
f3c2373c65f4e653d22dd63d,欣梅都市工业园,公司企业,园区,上海市,上海市,闵行区,上海市闵行区虹梅南路绿亮科创园,f3c2373c65f4e653d22dd63d,1,0,121.441576,31.103213,,life,http://api.map.baidu.com/place/detail?uid=f3c2373c65f4e653d22dd63d&output=html&source=placeapi_v2,,,,,,,,,,,,,,,,,,121.44082969001,31.103115646412,0
aa40108ba9481514c5effb02,上海爱华工业园,公司企业,园区,上海市,上海市,闵行区,上海市闵行区澄建路178号6号楼,aa40108ba9481514c5effb02,1,0,121.450572,31.091024,,enterprise,http://api.map.baidu.com/place/detail?uid=aa40108ba9481514c5effb02&output=html&source=placeapi_v2,,,0.0,,,,,,,,,,,,,,,121.44990781008,31.090410984796,0
3e1a0aee7c6545f1a11de91c,绿亮科创园,公司企业,园区,上海市,上海市,闵行区,上海市闵行区虹梅南路2588号(绿亮电动车旁),3e1a0aee7c6545f1a11de91c,1,2,121.441138,31.102909,,life,http://api.map.baidu.com/place/detail?uid=3e1a0aee7c6545f1a11de91c&output=html&source=placeapi_v2,,,5.0,,,,,,,6,14,,,,,,,121.4406822125,31.103011859093,2
6d841927ec0ca66d3be4a6af,聚科生物园区(关港基地),公司企业,园区,上海市,上海市,徐汇区,上海市徐汇区银都路466号二期2号楼,6d841927ec0ca66d3be4a6af,1,0,121.453878,31.11272,(021)34621793,enterprise,http://api.map.baidu.com/place/detail?uid=6d841927ec0ca66d3be4a6af&output=html&source=placeapi_v2,,,0,,,,,,,,0,,,,,,,121.45379853833,31.11251407974,0
b292b3aaa0296155be484269,上海欣梅工业,公司企业,园区,上海市,上海市,闵行区,上海市闵行区澄建路351号1号楼,b292b3aaa0296155be484269,1,0,121.448892,31.094368,(021)64346278,enterprise,http://api.map.baidu.com/place/detail?uid=b292b3aaa0296155be484269&output=html&source=placeapi_v2,,,0.0,,,,,,,,,,,,,,,121.44950330221,31.094183204867,0
21d578cae913a9c1c51e517b,4191工业园,公司企业,园区,上海市,上海市,闵行区,上海市闵行区龙吴路4191号,21d578cae913a9c1c51e517b,1,0,121.463476,31.09592,,life,http://api.map.baidu.com/place/detail?uid=21d578cae913a9c1c51e517b&output=html&source=placeapi_v2,,,,,,,,,,,,,,,,,,121.46445793392,31.096317448956,0
108b1cea8cda23af3586f46f,南方都市园,公司企业,园区,上海市,上海市,闵行区,上海市闵行区金都路1128弄6号楼3楼,108b1cea8cda23af3586f46f,1,1,121.435604,31.094671,,house,http://api.map.baidu.com/place/detail?uid=108b1cea8cda23af3586f46f&output=html&source=placeapi_v2,,,,,,,,,,,,,,,,,,121.43669327251,31.095026801505,1
609629128d9c8ac79868b4dc,东杰创意园,公司企业,园区,上海市,上海市,闵行区,梅陇镇虹梅南路3509弄55号,609629128d9c8ac79868b4dc,1,0,121.44253,31.088198,13818850676,enterprise,http://api.map.baidu.com/place/detail?uid=609629128d9c8ac79868b4dc&output=html&source=placeapi_v2,,,0,,,,,,,,0,,,,,,,121.44318848487,31.089436859195,0
f473f72e4ac3c3a48a36ee2d,南方都市园综合楼,公司企业,园区,上海市,上海市,闵行区,上海市闵行区金都路1165弄123号,f473f72e4ac3c3a48a36ee2d,1,0,121.436381,31.095259,,life,http://api.map.baidu.com/place/detail?uid=f473f72e4ac3c3a48a36ee2d&output=html&source=placeapi_v2,,,,,,,,,,,,,,,,,,121.4363027782,31.095419714193,0
7c5e480b1fa27ecaadb22a69,浦江创意产业中心,公司企业,园区,上海市,上海市,闵行区,上海市闵行区浦星公路800号c栋,7c5e480b1fa27ecaadb22a69,1,1,121.506798,31.111424,,enterprise,http://api.map.baidu.com/place/detail?uid=7c5e480b1fa27ecaadb22a69&output=html&source=placeapi_v2,,,5,,,,,,,,1,,,,,,,121.5077047866,31.111615044388,1
14b1204fc185e8b28bfc0674,浦江高科技园区,公司企业,园区,上海市,上海市,闵行区,上海市闵行区浦江高科技园区(立跃路南),14b1204fc185e8b28bfc0674,1,1,121.521972,31.096551,(021)64290000,enterprise,http://api.map.baidu.com/place/detail?uid=14b1204fc185e8b28bfc0674&output=html&source=placeapi_v2,,,0,,,,,,,,1,,,,,,,121.52197009009,31.096705155106,1
e53332ead5b2a1169122e0b9,漕河泾浦江高科技园F区,公司企业,园区,上海市,上海市,闵行区,漕河泾开发区浦江,e53332ead5b2a1169122e0b9,1,0,121.529438,31.097967,,life,http://api.map.baidu.com/place/detail?uid=e53332ead5b2a1169122e0b9&output=html&source=placeapi_v2,,,5,,,,,,,3,1,,,,,,,121.52977615298,31.097940789969,0
7efb99e9bd9c5efaf82d61d0,创新创业园,公司企业,园区,上海市,上海市,闵行区,上海市闵行区新骏环路245号D幢,7efb99e9bd9c5efaf82d61d0,1,1,121.528988,31.096143,(021)34637000,house,http://api.map.baidu.com/place/detail?uid=7efb99e9bd9c5efaf82d61d0&output=html&source=placeapi_v2,,,,,,,,,,,,,,,,,,121.5289703891,31.096668618282,1
6284f002953622524bcc4aea,奇士科技产业园,公司企业,园区,上海市,上海市,闵行区,上海市闵行区苏召路1628号,6284f002953622524bcc4aea,1,0,121.544733,31.10649,,life,http://api.map.baidu.com/place/detail?uid=6284f002953622524bcc4aea&output=html&source=placeapi_v2,,,1.0,,,,,,,2,2,,,,,,,121.54374258364,31.106133241854,0
c0c89a5db26f85f31b94c63c,上海爱登堡科技产业园,公司企业,园区,上海市,上海市,闵行区,上海市闵行区恒西路88号,c0c89a5db26f85f31b94c63c,1,4,121.516967,31.092675,,enterprise,http://api.map.baidu.com/place/detail?uid=c0c89a5db26f85f31b94c63c&output=html&source=placeapi_v2,,,5,,,,,,,,1,,,,,,,121.5178466558,31.092544748487,4
78bd50f797e39e5a31870a3f,奇士科技园,公司企业,园区,上海市,上海市,闵行区,上海市闵行区万芳路1688号,78bd50f797e39e5a31870a3f,1,0,121.537376,31.10409,,enterprise,http://api.map.baidu.com/place/detail?uid=78bd50f797e39e5a31870a3f&output=html&source=placeapi_v2,,,0.0,,,,,,,,,,,,,,,121.53695810553,31.103703698696,0
1143c5e36ffe74e3aeb22a42,上海市科技创业中心闵行基地,公司企业,园区,上海市,上海市,闵行区,上海市闵行区三鲁公路3279号2号楼,1143c5e36ffe74e3aeb22a42,1,0,121.528207,31.085538,,enterprise,http://api.map.baidu.com/place/detail?uid=1143c5e36ffe74e3aeb22a42&output=html&source=placeapi_v2,,,,,,,,,,,,,,,,,,121.52819513528,31.085625302568,0
32a84c51413a2fb0c7f025f0,派拉蒙中心,公司企业,园区,上海市,上海市,闵行区,上海市闵行区恒南路1328号1号楼,32a84c51413a2fb0c7f025f0,1,3,121.52068,31.091701,"(021)62206928,(021)62206929",house,http://api.map.baidu.com/place/detail?uid=32a84c51413a2fb0c7f025f0&output=html&source=placeapi_v2,,,5,,,,,,,,,,,,,,,121.52017326707,31.091099051563,3
7eeb81dbf975ddeefda7784f,航天机电新材料产业基地,公司企业,园区,上海市,上海市,闵行区,上海市闵行区召楼路3636号,7eeb81dbf975ddeefda7784f,1,0,121.535804,31.08908,,enterprise,http://api.map.baidu.com/place/detail?uid=7eeb81dbf975ddeefda7784f&output=html&source=placeapi_v2,,,5,,,,,,,,1,,,,,,,121.5354459151,31.088907459604,0
aa3c5bad4708afd14e2fdf61,上海勤劳箱体制造有限公司,公司企业,园区,上海市,上海市,闵行区,上海市闵行区勤劳路18号,aa3c5bad4708afd14e2fdf61,1,1,121.536588,31.108759,(021)64291498,enterprise,http://api.map.baidu.com/place/detail?uid=aa3c5bad4708afd14e2fdf61&output=html&source=placeapi_v2,,,,,,,,,,,,,,,,,,121.53563864116,31.107129437238,1
9213f37654cdd3426268589f,圣太企业园,公司企业,园区,上海市,上海市,浦东新区,上海市浦东新区建豪路91~99号,9213f37654cdd3426268589f,1,0,121.57873,31.100841,(021)68131318,life,http://api.map.baidu.com/place/detail?uid=9213f37654cdd3426268589f&output=html&source=placeapi_v2,,,0.0,,,,,,,5,1,,,,,,,121.57872478698,31.101186643675,0
a0d181b96e40d2ef9ff779d9,环宇集团上海智能产业园,公司企业,园区,上海市,上海市,浦东新区,上海市浦东新区沈梅路600号a栋,a0d181b96e40d2ef9ff779d9,1,3,121.575135,31.098242,,enterprise,http://api.map.baidu.com/place/detail?uid=a0d181b96e40d2ef9ff779d9&output=html&source=placeapi_v2,,,0,,,,,,,,0,,,,,,,121.5755268526,31.097314617651,3
3be122e11e2f6c531ff74db8,上海天纳工业园,公司企业,园区,上海市,上海市,浦东新区,上海市浦东新区建韵路500号4号楼,3be122e11e2f6c531ff74db8,1,0,121.57442,31.102529,(021)38000075,enterprise,http://api.map.baidu.com/place/detail?uid=3be122e11e2f6c531ff74db8&output=html&source=placeapi_v2,,,3.7,,,,,,,,6,,,,,,,121.57522480096,31.102292251763,0
c21db9e5ba90938201ff2db8,中发集团智能产业园,公司企业,园区,上海市,上海市,浦东新区,上海市浦东新区沪南公路3758号,c21db9e5ba90938201ff2db8,1,0,121.577384,31.104228,,life,http://api.map.baidu.com/place/detail?uid=c21db9e5ba90938201ff2db8&output=html&source=placeapi_v2,,,0.0,,,,,,,5,,,,,,,,121.5780870233,31.104449642958,0
1020060f094b84d81994c687,上海周浦智慧产业园,公司企业,园区,上海市,上海市,浦东新区,上海市浦东新区沈梅路b区7号楼,1020060f094b84d81994c687,1,1,121.583724,31.098157,(021)68189898,enterprise,http://api.map.baidu.com/place/detail?uid=1020060f094b84d81994c687&output=html&source=placeapi_v2,,,0,,,,,,,,0,,,,,,,121.58362955752,31.098225925352,1
613c3d9798f255cf7c29bda0,上海第七棉纺厂园区,公司企业,园区,上海市,上海市,浦东新区,上海市浦东新区康沈路2001号,613c3d9798f255cf7c29bda0,1,2,121.587437,31.113989,17301872315,enterprise,http://api.map.baidu.com/place/detail?uid=613c3d9798f255cf7c29bda0&output=html&source=placeapi_v2,,,,,,,,,,,,,,,,,,121.58786957031,31.112248850802,2
8c98f9a43c41e80857bfff90,星月智汇湾,公司企业,园区,上海市,上海市,浦东新区,上海市浦东新区沈梅路123弄1-59号,8c98f9a43c41e80857bfff90,1,4,121.581691,31.096494,(021)58116789,house,http://api.map.baidu.com/place/detail?uid=8c98f9a43c41e80857bfff90&output=html&source=placeapi_v2,,,3.7,,,,,,,,,,,,,,,121.5826683814,31.097917598476,4
ef773a0fe4807235230220b8,上海国际医学园区医谷现代商务园,公司企业,园区,上海市,上海市,浦东新区,上海市浦东新区广丹路222弄,ef773a0fe4807235230220b8,1,9,121.620204,31.110911,(021)68119996,house,http://api.map.baidu.com/place/detail?uid=ef773a0fe4807235230220b8&output=html&source=placeapi_v2,,,4,,,,,,,,,,,,,,,121.62065159857,31.110924413214,9
ba59cd78ff4ee28bb6f42f11,时代医创园,公司企业,园区,上海市,上海市,浦东新区,上海市浦东新区康新公路3399弄,ba59cd78ff4ee28bb6f42f11,1,0,121.632939,31.10869,(021)20785808,enterprise,http://api.map.baidu.com/place/detail?uid=ba59cd78ff4ee28bb6f42f11&output=html&source=placeapi_v2,,,4,,,,,,,,1,,,,,,,121.63106908228,31.108878806678,0
83386194ab41959b42d63e38,上海国际医学园区医谷现代商务园26,公司企业,园区,上海市,上海市,浦东新区,上海市浦东新区天雄路588弄,83386194ab41959b42d63e38,1,1,121.621766,31.110372,,enterprise,http://api.map.baidu.com/place/detail?uid=83386194ab41959b42d63e38&output=html&source=placeapi_v2,,,,,,,,,,,,,,,,,,,,1
bd0d09858784c8aeb05c6a65,医谷现代商务园-南区,公司企业,园区,上海市,上海市,浦东新区,上海市浦东新区广丹路,bd0d09858784c8aeb05c6a65,1,0,121.619593,31.110151,,enterprise,http://api.map.baidu.com/place/detail?uid=bd0d09858784c8aeb05c6a65&output=html&source=placeapi_v2,,,,,,,,,,,,,,,,,,121.61965161925,31.11011553415,0
e0addca9c2c1ed865fd4fe2f,上海国际医学园区医谷现代商务园3,公司企业,园区,上海市,上海市,浦东新区,上海市浦东新区天雄路588弄3号,e0addca9c2c1ed865fd4fe2f,1,1,121.619183,31.110725,,enterprise,http://api.map.baidu.com/place/detail?uid=e0addca9c2c1ed865fd4fe2f&output=html&source=placeapi_v2,,,,,,,,,,,,,,,,,,121.61913958511,31.110594761672,1
92ee0a506da93b943be4a629,上海国际医学园区医谷现代商务园24,公司企业,园区,上海市,上海市,浦东新区,上海市浦东新区天雄路588弄24号,92ee0a506da93b943be4a629,1,0,121.621281,31.110863,,enterprise,http://api.map.baidu.com/place/detail?uid=92ee0a506da93b943be4a629&output=html&source=placeapi_v2,,,,,,,,,,,,,,,,,,,,0
1bf945e82525f4594e776ebb,医谷现代商务园-21,公司企业,园区,上海市,上海市,浦东新区,广丹路222弄,1bf945e82525f4594e776ebb,1,0,121.620122,31.112087,,enterprise,http://api.map.baidu.com/place/detail?uid=1bf945e82525f4594e776ebb&output=html&source=placeapi_v2,,,,,,,,,,,,,,,,,,,,0
74c933fb81bf77209f82eaa3,上海南汇留学人员创业园,公司企业,园区,上海市,上海市,浦东新区,上海市浦东新区康新公路3377号2号楼,74c933fb81bf77209f82eaa3,1,0,121.634208,31.105621,,life,http://api.map.baidu.com/place/detail?uid=74c933fb81bf77209f82eaa3&output=html&source=placeapi_v2,,,0.0,,,,,,,4,,,,,,,,121.63503470765,31.106868400804,0
fd63e29bb46ef6f3c9fa5fb7,上海国际医学园区医谷现代商务园25,公司企业,园区,上海市,上海市,浦东新区,上海市浦东新区周祝公路337号,fd63e29bb46ef6f3c9fa5fb7,1,1,121.621505,31.110598,,enterprise,http://api.map.baidu.com/place/detail?uid=fd63e29bb46ef6f3c9fa5fb7&output=html&source=placeapi_v2,,,,,,,,,,,,,,,,,,121.62125060306,31.110471090288,1
ee5756f55dca851cb13c8138,医谷现代商务园6,公司企业,园区,上海市,上海市,浦东新区,上海市浦东新区广丹路222弄,ee5756f55dca851cb13c8138,1,0,121.619366,31.111189,,enterprise,http://api.map.baidu.com/place/detail?uid=ee5756f55dca851cb13c8138&output=html&source=placeapi_v2,,,0,,,,,,,,0,,,,,,,121.61934804499,31.110988264308,0
05dcb59b23887cc9ebe5825d,医谷现代商务园-15,公司企业,园区,上海市,上海市,浦东新区,广丹路222弄,05dcb59b23887cc9ebe5825d,1,1,121.62145,31.111638,,enterprise,http://api.map.baidu.com/place/detail?uid=05dcb59b23887cc9ebe5825d&output=html&source=placeapi_v2,,,,,,,,,,,,,,,,,,121.62125060306,31.111723255542,1
a45c6026dda5e7179ee321a7,新场工业区,公司企业,园区,上海市,上海市,浦东新区,上海市浦东新区古博路城市便捷酒店(新场工业园店)北侧约50米,a45c6026dda5e7179ee321a7,1,0,121.652988,31.088246,,life,http://api.map.baidu.com/place/detail?uid=a45c6026dda5e7179ee321a7&output=html&source=placeapi_v2,,,,,,,,,,3,,,,,,,,121.65319182185,31.088257502912,0
78bd50f7fd19845831870a43,鹿园工业区,公司企业,园区,上海市,上海市,浦东新区,上海市浦东新区鹿溪路518号,78bd50f7fd19845831870a43,1,0,121.707161,31.111372,,life,http://api.map.baidu.com/place/detail?uid=78bd50f7fd19845831870a43&output=html&source=placeapi_v2,,,0.0,,,,,,,3,,,,,,,,121.70749697346,31.111127532041,0
b5829871b7ce9ad19fec2bd2,峭迪创新产业园,公司企业,园区,上海市,上海市,浦东新区,上海市浦东新区金闻路84号,b5829871b7ce9ad19fec2bd2,1,1,121.78117,31.117722,18516782888,enterprise,http://api.map.baidu.com/place/detail?uid=b5829871b7ce9ad19fec2bd2&output=html&source=placeapi_v2,,,4,,,,,,,,1,,,,,,,121.78144604358,31.117946975974,1
39d43f82deb323f8a8059d7f,上海新城经济区一区,公司企业,园区,上海市,上海市,青浦区,上海市青浦区沪青平公路3798号,39d43f82deb323f8a8059d7f,1,0,121.19004,31.152024,,life,http://api.map.baidu.com/place/detail?uid=39d43f82deb323f8a8059d7f&output=html&source=placeapi_v2,,,,,,,,,,2,,,,,,,,121.18988429717,31.15177600888,0
750ec165d84fb4554c3a5950,新业鸿园区,公司企业,园区,上海市,上海市,松江区,涞坊路2185号,750ec165d84fb4554c3a5950,1,1,121.291961,31.141113,(021)67867674,enterprise,http://api.map.baidu.com/place/detail?uid=750ec165d84fb4554c3a5950&output=html&source=placeapi_v2,,,4.3,,,,,,,,3,,,,,,,121.29193184712,31.141182306993,1
96b672aa8d197574cf04ef9a,东方教具工业园,公司企业,园区,上海市,上海市,松江区,上海市松江区方泗路88号4号楼,96b672aa8d197574cf04ef9a,1,0,121.280947,31.131797,(021)57626599,life,http://api.map.baidu.com/place/detail?uid=96b672aa8d197574cf04ef9a&output=html&source=placeapi_v2,,,0.0,,,,,,,2,,,,,,,,121.28075903927,31.131772250668,0
be54cde933cd355979f7969a,上海核威滑动轴承制造有限公司,公司企业,园区,上海市,上海市,松江区,上海市松江区涞坊路2039-2049号,be54cde933cd355979f7969a,1,0,121.2964,31.143361,(021)67697230,life,http://api.map.baidu.com/place/detail?uid=be54cde933cd355979f7969a&output=html&source=placeapi_v2,,,0.0,,,,,,,7,,,,,,,,121.29494112656,31.14379464086,0
9ca6ae4bed8a5f30f8dc85c2,丽德创业园,公司企业,园区,上海市,上海市,松江区,九干路168号,9ca6ae4bed8a5f30f8dc85c2,1,6,121.295587,31.135289,(021)60402888,life,http://api.map.baidu.com/place/detail?uid=9ca6ae4bed8a5f30f8dc85c2&output=html&source=placeapi_v2,,,0,,,,,,,9,1,,,,,,,121.29445604158,31.133486623407,6
e96b4420dd1c695a82288a44,上海永谊工业基地,公司企业,园区,上海市,上海市,松江区,上海市松江区沧泾路398号13幢,e96b4420dd1c695a82288a44,1,0,121.287158,31.151966,,life,http://api.map.baidu.com/place/detail?uid=e96b4420dd1c695a82288a44&output=html&source=placeapi_v2,,,0.0,,,,,,,1,0,,,,,,,121.28716042284,31.152016158499,0
163520474f4933a7c9c3dbbd,荣欣装潢工业园区(寅青路),公司企业,园区,上海市,上海市,松江区,上海市松江区寅青路619号,163520474f4933a7c9c3dbbd,1,4,121.290707,31.148497,,enterprise,http://api.map.baidu.com/place/detail?uid=163520474f4933a7c9c3dbbd&output=html&source=placeapi_v2,,,0.0,,,,,,,,,,,,,,,121.2907392127,31.149037000392,4
f7dd54084d4b210258f6be8d,绿萝工业园,公司企业,园区,上海市,上海市,松江区,上海市松江区连富路1589号3栋,f7dd54084d4b210258f6be8d,1,0,121.314231,31.121113,,life,http://api.map.baidu.com/place/detail?uid=f7dd54084d4b210258f6be8d&output=html&source=placeapi_v2,,,,,,,,,,8,1,,,,,,,121.31420973663,31.121236445133,0
50f7d146b5bad6c772210b41,上海泗泾工业区,公司企业,园区,上海市,上海市,松江区,上海市松江区九干路上海彩涛旅馆东北侧约300米,50f7d146b5bad6c772210b41,1,0,121.303148,31.131962,,life,http://api.map.baidu.com/place/detail?uid=50f7d146b5bad6c772210b41&output=html&source=placeapi_v2,,,0.0,,,,,,,,1,,,,,,,121.30311116936,31.131823349999,0
764672e5bcdb22ac95ec8494,上海上虹实业公司工业小区,公司企业,园区,上海市,上海市,松江区,上海市松江区潮富路69号工业小区2号楼,764672e5bcdb22ac95ec8494,1,0,121.306626,31.12538,,life,http://api.map.baidu.com/place/detail?uid=764672e5bcdb22ac95ec8494&output=html&source=placeapi_v2,,,,,,,,,,5,,,,,,,,121.30759282363,31.125549055329,0
0b0d36e9aa628e5cad31e5c0,华芮产业园,公司企业,园区,上海市,上海市,松江区,上海市松江区蒲汇路189号,0b0d36e9aa628e5cad31e5c0,1,0,121.332774,31.145148,,life,http://api.map.baidu.com/place/detail?uid=0b0d36e9aa628e5cad31e5c0&output=html&source=placeapi_v2,,,0,,,,,,,13,0,,,,,,,121.33264572735,31.145147934164,0
b292b3aabe577b57bf484295,上海久富开发区,公司企业,园区,上海市,上海市,松江区,上海市松江区九新公路339号5楼,b292b3aabe577b57bf484295,1,0,121.329048,31.1294,(021)57632678,life,http://api.map.baidu.com/place/detail?uid=b292b3aabe577b57bf484295&output=html&source=placeapi_v2,,,0,,,,,,,11,1,,,,,,,121.32870843068,31.129089531099,0
f374c473a96eaacb04fef5f7,松江高科技园区,公司企业,园区,上海市,上海市,松江区,上海市松江区九新公路339号,f374c473a96eaacb04fef5f7,1,0,121.306545,31.137565,(021)57632678,life,http://api.map.baidu.com/place/detail?uid=f374c473a96eaacb04fef5f7&output=html&source=placeapi_v2,,,0.0,,,,,,,5,,,,,,,,121.30926713754,31.137864258679,0
3c1cfc621f00eb0aa8f72962,九里工坊-I区,公司企业,园区,上海市,上海市,松江区,上海市松江区沪亭北路88号A3九里工坊,,1,0,121.32865,31.149249,,enterprise,http://api.map.baidu.com/place/detail?uid=3c1cfc621f00eb0aa8f72962&output=html&source=placeapi_v2,,,,,,,,,,,,,,,,,,,,0
fff968238fe96fb7d1ff237b,佳钢科创园,公司企业,园区,上海市,上海市,松江区,上海市松江区金马路与久富路交叉路口往东南约80米,fff968238fe96fb7d1ff237b,1,2,121.321707,31.126315,,enterprise,http://api.map.baidu.com/place/detail?uid=fff968238fe96fb7d1ff237b&output=html&source=placeapi_v2,,,2,,,,,,,,1,,,,,,,121.32171072957,31.126632265666,2
877dd69aa2c2dff2de1e52a4,九里工坊-G区,公司企业,园区,上海市,上海市,松江区,上海市松江区沪亭北路88号A3九里工坊,,1,0,121.327628,31.148867,,enterprise,http://api.map.baidu.com/place/detail?uid=877dd69aa2c2dff2de1e52a4&output=html&source=placeapi_v2,,,,,,,,,,,,,,,,,,,,0
a72db66c95d8d3aa2afc4868,银石科技商务园区,公司企业,园区,上海市,上海市,闵行区,上海市闵行区顾戴路2568号3号楼,a72db66c95d8d3aa2afc4868,1,4,121.366318,31.137038,(021)64208811,enterprise,http://api.map.baidu.com/place/detail?uid=a72db66c95d8d3aa2afc4868&output=html&source=placeapi_v2,,,5,,,,,,,,2,,,,,,,121.36717387261,31.136593056627,4
d8988ec4932ec2b902294fbe,上海黎安实业公司工业园区,公司企业,园区,上海市,上海市,闵行区,上海市闵行区七莘路1366号6号楼,d8988ec4932ec2b902294fbe,1,1,121.356192,31.125454,,enterprise,http://api.map.baidu.com/place/detail?uid=d8988ec4932ec2b902294fbe&output=html&source=placeapi_v2,,,0,,,,,,,,0,,,,,,,121.35607973489,31.126346207448,1
b9e5d0b8f8a8fdbd81a12e09,上海莘天工业园区,公司企业,园区,上海市,上海市,闵行区,上海市闵行区黎安路1588号b区11栋,b9e5d0b8f8a8fdbd81a12e09,1,2,121.355096,31.127307,(021)54881310,enterprise,http://api.map.baidu.com/place/detail?uid=b9e5d0b8f8a8fdbd81a12e09&output=html&source=placeapi_v2,,,4,,,,,,,,2,,,,,,,121.35552280434,31.126392525319,2
72e57fd71bd7e2d2f8dc85da,北场工业园区,公司企业,园区,上海市,上海市,松江区,上海市松江区淀南路9号1号楼,72e57fd71bd7e2d2f8dc85da,1,3,121.359334,31.122533,,enterprise,http://api.map.baidu.com/place/detail?uid=72e57fd71bd7e2d2f8dc85da&output=html&source=placeapi_v2,,,0,,,,,,,,0,,,,,,,121.35832542141,31.123030997937,3
0d1153608f729c605d17c334,上海莘吴产业园,公司企业,园区,上海市,上海市,闵行区,上海市闵行区黎安路1187号7号楼,0d1153608f729c605d17c334,1,0,121.363292,31.128575,(021)54884286,enterprise,http://api.map.baidu.com/place/detail?uid=0d1153608f729c605d17c334&output=html&source=placeapi_v2,,,5,,,,,,,,1,,,,,,,121.36280810784,31.129228633832,0
17c6e6ce541d24a2ae31e563,上海华天工业园区,公司企业,园区,上海市,上海市,闵行区,上海市闵行区黎安路1588号11号2楼,17c6e6ce541d24a2ae31e563,1,0,121.355608,31.126477,(021)54881310,enterprise,http://api.map.baidu.com/place/detail?uid=17c6e6ce541d24a2ae31e563&output=html&source=placeapi_v2,,,0,,,,,,,,0,,,,,,,,,0
c327e227c2ff868f1ce9993f,明谷科技园,公司企业,园区,上海市,上海市,闵行区,中春路7001号(靠近中谊路),c327e227c2ff868f1ce9993f,1,7,121.35212,31.142661,13817618604,house,http://api.map.baidu.com/place/detail?uid=c327e227c2ff868f1ce9993f&output=html&source=placeapi_v2,,,3,,,,,,,,,,,,,,,121.35368132385,31.143717373575,7
1b1b23455c2b99572cb96d67,闵行区华中路6号德必易园,公司企业,园区,上海市,上海市,闵行区,上海市闵行区华中路6号a座,1b1b23455c2b99572cb96d67,1,0,121.366584,31.140896,,enterprise,http://api.map.baidu.com/place/detail?uid=1b1b23455c2b99572cb96d67&output=html&source=placeapi_v2,,,0,,,,,,,,0,,,,,,,121.36705263551,31.140992880782,0
72761d934a1d893ab8bd6305,上海紫贝文化创意港有限公司,公司企业,园区,上海市,上海市,闵行区,上海市闵行区七莘路1588号,72761d934a1d893ab8bd6305,1,4,121.371605,31.139521,,enterprise,http://api.map.baidu.com/place/detail?uid=72761d934a1d893ab8bd6305&output=html&source=placeapi_v2,,,3.3,,,,,,,,4,,,,,,,121.37071271124,31.139074274395,4
83a3647921eca50652e5c58b,上海七宝经济城二区,公司企业,园区,上海市,上海市,闵行区,上海市闵行区中春路6889弄经济城二区11号,83a3647921eca50652e5c58b,1,0,121.352203,31.140633,,life,http://api.map.baidu.com/place/detail?uid=83a3647921eca50652e5c58b&output=html&source=placeapi_v2,,,0.0,,,,,,,3,,,,,,,,121.3524927956,31.140904742985,0
96fe0ab7abc967097adbd233,明谷科技园G栋(7号楼),公司企业,园区,上海市,上海市,闵行区,上海市闵行区明谷科技园G栋(7号楼),96fe0ab7abc967097adbd233,1,0,121.35092,31.142298,,life,http://api.map.baidu.com/place/detail?uid=96fe0ab7abc967097adbd233&output=html&source=placeapi_v2,,,,,,,,,,1,,,,,,,,121.35059811836,31.14240003121,0
bf465b1ae7224e6fa8f0cd92,明谷科技园E栋(5号楼),公司企业,园区,上海市,上海市,闵行区,上海市闵行区明谷科技园E栋(5号楼),bf465b1ae7224e6fa8f0cd92,1,0,121.35157,31.143137,,life,http://api.map.baidu.com/place/detail?uid=bf465b1ae7224e6fa8f0cd92&output=html&source=placeapi_v2,,,,,,,,,,1,,,,,,,,121.35146864647,31.143254996077,0
e13c0a8cf7b43bb154bfff27,上海梅夏实业有限公司商务园区,公司企业,园区,上海市,上海市,闵行区,上海市闵行区罗阳路168号商务园区a座,e13c0a8cf7b43bb154bfff27,1,3,121.419681,31.130583,(021)54302309,enterprise,http://api.map.baidu.com/place/detail?uid=e13c0a8cf7b43bb154bfff27&output=html&source=placeapi_v2,,,5,,,,,,,,1,,,,,,,121.41941932107,31.130982856184,3
f38cdc093e80721d30169b9c,古美现代服务企业中心,公司企业,园区,上海市,上海市,闵行区,上海市闵行区平阳路1501号,f38cdc093e80721d30169b9c,1,0,121.390135,31.139745,,enterprise,http://api.map.baidu.com/place/detail?uid=f38cdc093e80721d30169b9c&output=html&source=placeapi_v2,,,4,,,,,,,,2,,,,,,,121.38999981562,31.139969833888,0
1b66c32e9dedaa883010aff4,锦宏产业园,公司企业,园区,上海市,上海市,闵行区,上海市闵行区罗锦路55号c座,1b66c32e9dedaa883010aff4,1,3,121.427193,31.131651,(021)64767969,enterprise,http://api.map.baidu.com/place/detail?uid=1b66c32e9dedaa883010aff4&output=html&source=placeapi_v2,,,2.6,,,,,,,,6,,,,,,,121.42740525706,31.130581010785,3
3ee517da28ed5bd8b1077d9c,麦腾未来城,公司企业,园区,上海市,上海市,闵行区,上海市闵行区罗锦路218号5号楼,,1,0,121.420769,31.127806,"(021)61265888,18516598121",enterprise,http://api.map.baidu.com/place/detail?uid=3ee517da28ed5bd8b1077d9c&output=html&source=placeapi_v2,,,5,,,,,,,,2,,,,,,,121.420757154,31.1278425196,0
ca7da859786cfff628d7abad,锦宏产业园-B座,公司企业,园区,上海市,上海市,闵行区,上海市闵行区罗锦路55号,90c37f9edd2acd56c036447e,1,0,121.427498,31.131693,,life,http://api.map.baidu.com/place/detail?uid=ca7da859786cfff628d7abad&output=html&source=placeapi_v2,,,,,,,,,,,,,,,,,,121.42751304833,31.131663393984,0
c2d6c71c16de81a859bbbc51,锦宏产业园-G座,公司企业,园区,上海市,上海市,闵行区,上海市闵行区罗锦路55号,c2d6c71c16de81a859bbbc51,1,0,121.426612,31.131531,,life,http://api.map.baidu.com/place/detail?uid=c2d6c71c16de81a859bbbc51&output=html&source=placeapi_v2,,,,,,,,,,,,,,,,,,121.42655032623,31.131640798118,0
264f38554a24d634f8dc85d4,锦宏产业园-H座,公司企业,园区,上海市,上海市,闵行区,上海市闵行区罗锦路55号,264f38554a24d634f8dc85d4,1,0,121.426555,31.131254,,life,http://api.map.baidu.com/place/detail?uid=264f38554a24d634f8dc85d4&output=html&source=placeapi_v2,,,,,,,,,,,,,,,,,,121.42655032623,31.131640798118,0
a2c855144af15470e8e58270,锦宏产业园-C座,公司企业,园区,上海市,上海市,闵行区,上海市闵行区罗锦路55号,a2c855144af15470e8e58270,1,0,121.427465,31.132,,life,http://api.map.baidu.com/place/detail?uid=a2c855144af15470e8e58270&output=html&source=placeapi_v2,,,,,,,,,,1,2,,,,,,,121.42735315534,31.131819770987,0
e489db7f1d13cacc6f47606e,锦宏产业园-F座,公司企业,园区,上海市,上海市,闵行区,上海市闵行区罗锦路55号,e489db7f1d13cacc6f47606e,1,0,121.426362,31.131692,,life,http://api.map.baidu.com/place/detail?uid=e489db7f1d13cacc6f47606e&output=html&source=placeapi_v2,,,,,,,,,,1,,,,,,,,121.42653614738,31.131693154216,0
2d60b885356365e4eb12e405,花园二期物业服务中心,,,上海市,上海市,闵行区,上海市闵行区沪闵路7886号,,1,0,121.410012,31.140977,,life,http://api.map.baidu.com/place/detail?uid=2d60b885356365e4eb12e405&output=html&source=placeapi_v2,,,,,,,,,,,,,,,,,,,,0
4ce10ce60f5cd9a2441a326d,春申创业园区,公司企业,园区,上海市,上海市,徐汇区,上海市徐汇区喜泰路255号,4ce10ce60f5cd9a2441a326d,1,1,121.458206,31.149755,,enterprise,http://api.map.baidu.com/place/detail?uid=4ce10ce60f5cd9a2441a326d&output=html&source=placeapi_v2,,,2,,,,,,,,1,,,,,,,121.45820006211,31.149867977676,1
7983948acadee7ea0ab93a74,漕河泾聚鑫园,公司企业,园区,上海市,上海市,徐汇区,上海市徐汇区平福路188号4号楼,7983948acadee7ea0ab93a74,1,3,121.45543,31.14383,,scope,http://api.map.baidu.com/place/detail?uid=7983948acadee7ea0ab93a74&output=html&source=placeapi_v2,,,5,,,,,,,,3,,,,,,,121.45448018513,31.143647832963,3
0c5ded0f14d1c0545b109310,龙吴路1500号交大科技园,公司企业,园区,上海市,上海市,徐汇区,上海市徐汇区龙吴路1500号a栋,0c5ded0f14d1c0545b109310,1,0,121.460108,31.141898,(021)54358018,enterprise,http://api.map.baidu.com/place/detail?uid=0c5ded0f14d1c0545b109310&output=html&source=placeapi_v2,,,,,,,,,,,,,,,,,,121.46002881076,31.141864437653,0
2c2d37d258cd32905cd4fed1,汇达商务园区,公司企业,园区,上海市,上海市,徐汇区,上海市徐汇区上中路495号b座,2c2d37d258cd32905cd4fed1,1,3,121.455095,31.147708,(021)34092530,enterprise,http://api.map.baidu.com/place/detail?uid=2c2d37d258cd32905cd4fed1&output=html&source=placeapi_v2,,,2.5,,,,,,,,2,,,,,,,121.45471374456,31.147943800702,3
90f7845531a6c8ad8c1a89f9,卡登文化产业园,公司企业,园区,上海市,上海市,闵行区,上海市闵行区朱行路15号2栋,90f7845531a6c8ad8c1a89f9,1,2,121.431167,31.133166,,enterprise,http://api.map.baidu.com/place/detail?uid=90f7845531a6c8ad8c1a89f9&output=html&source=placeapi_v2,,,5,,,,,,,,2,,,,,,,121.43221119154,31.133239340726,2
702a4a110c8eb28ebda2404c,尚博创意园区,公司企业,园区,上海市,上海市,浦东新区,上海市浦东新区三林路128号1号楼,702a4a110c8eb28ebda2404c,1,4,121.5018,31.141768,(021)50792697,enterprise,http://api.map.baidu.com/place/detail?uid=702a4a110c8eb28ebda2404c&output=html&source=placeapi_v2,,,4,,,,,,,,3,,,,,,,121.50204546188,31.142303371017,4
1781abe95f7466f91ff74dae,浦东新区林博创意园,公司企业,园区,上海市,上海市,浦东新区,上海市浦东新区林浦路1240号,1781abe95f7466f91ff74dae,1,0,121.482612,31.132485,,life,http://api.map.baidu.com/place/detail?uid=1781abe95f7466f91ff74dae&output=html&source=placeapi_v2,,,,,,,,,,4,,,,,,,,121.48300138507,31.132427939855,0
69819158ed65ad0f5a3ac88e,明通文化创意产业园,公司企业,园区,上海市,上海市,浦东新区,上海市浦东新区三林路88弄a区1号楼,69819158ed65ad0f5a3ac88e,1,3,121.500606,31.141248,,enterprise,http://api.map.baidu.com/place/detail?uid=69819158ed65ad0f5a3ac88e&output=html&source=placeapi_v2,,,5,,,,,,,,1,,,,,,,121.5005812239,31.141136609702,3
eefce26d8563a8ca02897253,星工厂三林金融众创空间,公司企业,园区,上海市,上海市,浦东新区,上海市浦东新区三林路418临,eefce26d8563a8ca02897253,1,2,121.506861,31.144579,13120631018,enterprise,http://api.map.baidu.com/place/detail?uid=eefce26d8563a8ca02897253&output=html&source=placeapi_v2,,,2,,,,,,,,2,,,,,,,121.50672563359,31.144930462621,2
c5ddcc081e9f2bc7d91318a1,三林明珠工业区,公司企业,园区,上海市,上海市,浦东新区,上海市浦东新区陈行公路88号,c5ddcc081e9f2bc7d91318a1,1,0,121.531548,31.130853,,life,http://api.map.baidu.com/place/detail?uid=c5ddcc081e9f2bc7d91318a1&output=html&source=placeapi_v2,,,0.0,,,,,,,1,,,,,,,,121.53170903514,31.13090082229,0
ba34055716c0f80cc9fa5f91,上海浦东软件园三林园,公司企业,园区,上海市,上海市,浦东新区,懿德路519号,ba34055716c0f80cc9fa5f91,1,2,121.530059,31.125521,(021)58831818,house,http://api.map.baidu.com/place/detail?uid=ba34055716c0f80cc9fa5f91&output=html&source=placeapi_v2,,,5,,,,,,,,,,,,,,,121.53001869546,31.125279581704,2
ba4fcb93d2fc4b86bbdf8f74,三林高端产业区,公司企业,园区,上海市,上海市,浦东新区,三林镇规划一路三林高端产业园,ba4fcb93d2fc4b86bbdf8f74,1,0,121.522996,31.122975,,enterprise,http://api.map.baidu.com/place/detail?uid=ba4fcb93d2fc4b86bbdf8f74&output=html&source=placeapi_v2,,,4.5,,,,,,,,2,,,,,,,121.52312839217,31.12300837279,0
d1d217cc106b879fda2f28d9,开格科技园区,公司企业,园区,上海市,上海市,浦东新区,上海市浦东新区沪南路2655号1号楼3楼,d1d217cc106b879fda2f28d9,1,0,121.57607,31.152107,,enterprise,http://api.map.baidu.com/place/detail?uid=d1d217cc106b879fda2f28d9&output=html&source=placeapi_v2,,,3.7,,,,,,,,3,,,,,,,121.57528896878,31.152479583091,0
bd5046e8f2fad640d62ce2b9,三枪工业城,公司企业,园区,上海市,上海市,浦东新区,浦东新区康梧路555号,bd5046e8f2fad640d62ce2b9,1,0,121.560644,31.137129,,enterprise,http://api.map.baidu.com/place/detail?uid=bd5046e8f2fad640d62ce2b9&output=html&source=placeapi_v2,,,4,,,,,,,,2,,,,,,,121.55977057395,31.135858958546,0
58b7ea5234cc0432250bd009,沿南工业园区,公司企业,园区,上海市,上海市,浦东新区,上海市浦东新区川周公路3239号,58b7ea5234cc0432250bd009,1,0,121.604535,31.136189,,life,http://api.map.baidu.com/place/detail?uid=58b7ea5234cc0432250bd009&output=html&source=placeapi_v2,,,0,,,,,,,2,0,,,,,,,121.60393989656,31.136825494065,0
693a916cf27e1bb92bd7abcb,上海烟草集团有限责任公司(浦东科技创新园区),公司企业,园区,上海市,上海市,浦东新区,上海市浦东新区秀浦路3733号,7fabbee5b21bc43e3586f44c,1,0,121.632383,31.143819,,enterprise,http://api.map.baidu.com/place/detail?uid=693a916cf27e1bb92bd7abcb&output=html&source=placeapi_v2,,,0,,,,,,,,1,,,,,,,121.62961382735,31.142790161187,0
5a6bd3f35beeac071811d50c,上海浦东康桥工业区,公司企业,园区,上海市,上海市,浦东新区,上海市浦东新区康桥东路11号楼,5a6bd3f35beeac071811d50c,1,0,121.614106,31.1367,,life,http://api.map.baidu.com/place/detail?uid=5a6bd3f35beeac071811d50c&output=html&source=placeapi_v2,,,,,,,,,,6,,,,,,,,121.61440953678,31.136741645185,0
49d95938a5777e40c61e5111,星月・总部湾,公司企业,园区,上海市,上海市,浦东新区,上海市浦东新区秀浦路2500弄六期6号楼,49d95938a5777e40c61e5111,1,7,121.614312,31.134371,(021)68063663,house,http://api.map.baidu.com/place/detail?uid=49d95938a5777e40c61e5111&output=html&source=placeapi_v2,,,3,,,,,,,,,,,,,,,121.61352804396,31.133405991319,7
7236ddd6528c91aefbf0cb1b,上海漕河泾康桥商务绿洲,公司企业,园区,上海市,上海市,浦东新区,上海市浦东新区秀浦路2555号a区a8栋,7236ddd6528c91aefbf0cb1b,1,1,121.6134,31.138122,(021)38298688,enterprise,http://api.map.baidu.com/place/detail?uid=7236ddd6528c91aefbf0cb1b&output=html&source=placeapi_v2,,,3,,,,,,,,1,,,,,,,121.61255525038,31.136417737032,1
56f2f6969aef1cfe0ba8d4b2,康桥先进制造技术创业园,公司企业,园区,上海市,上海市,浦东新区,上海市浦东新区秀浦路2388号,56f2f6969aef1cfe0ba8d4b2,1,6,121.61158,31.134078,(021)61181111,enterprise,http://api.map.baidu.com/place/detail?uid=56f2f6969aef1cfe0ba8d4b2&output=html&source=placeapi_v2,,,3,,,,,,,,3,,,,,,,121.61277909162,31.134461114455,6
efcb2e38bb29b7adb020a851,创研智造,公司企业,园区,上海市,上海市,浦东新区,上海市浦东新区叠桥路456弄,efcb2e38bb29b7adb020a851,1,0,121.629816,31.134286,,enterprise,http://api.map.baidu.com/place/detail?uid=efcb2e38bb29b7adb020a851&output=html&source=placeapi_v2,,,3.3,,,,,,,,4,,,,,,,121.62859874213,31.136129416401,0
c3f9985b6cd0c56403ec018d,上海漕河泾康桥商务绿洲A区,公司企业,园区,上海市,上海市,浦东新区,上海市浦东新区秀浦路2555号,c3f9985b6cd0c56403ec018d,1,0,121.612461,31.136524,,enterprise,http://api.map.baidu.com/place/detail?uid=c3f9985b6cd0c56403ec018d&output=html&source=placeapi_v2,,,,,,,,,,,,,,,,,,121.61240229378,31.136407600811,0
08d923c84df2db99abf0cd13,上海浦东康桥工业区,公司企业,园区,上海市,上海市,浦东新区,上海市浦东新区创业路383号,08d923c84df2db99abf0cd13,1,1,121.626577,31.12459,,house,http://api.map.baidu.com/place/detail?uid=08d923c84df2db99abf0cd13&output=html&source=placeapi_v2,,,,,,,,,,,,,,,,,,121.62634285715,31.124086511503,1
bada58995bc81e1aca1b95c4,浦东新区六灶砖桥工业园区8号8号商务园,公司企业,园区,上海市,上海市,浦东新区,上海市浦东新区六灶砖桥工业园8号,bada58995bc81e1aca1b95c4,1,0,121.718281,31.126727,,enterprise,http://api.map.baidu.com/place/detail?uid=bada58995bc81e1aca1b95c4&output=html&source=placeapi_v2,,,,,,,,,,,,,,,,,,,,0
c8b5cdef85578400130daa1a,上海祝桥空港工业区,公司企业,园区,上海市,上海市,浦东新区,上海市浦东新区祝潘路66号,c8b5cdef85578400130daa1a,1,0,121.781906,31.133127,,life,http://api.map.baidu.com/place/detail?uid=c8b5cdef85578400130daa1a&output=html&source=placeapi_v2,,,0.0,,,,,,,9,,,,,,,,121.78246052335,31.133030874351,0
669775d06731295afc0eb0b5,上海东景工业园,公司企业,园区,上海市,上海市,浦东新区,上海市浦东新区金顺路16号,669775d06731295afc0eb0b5,1,1,121.783844,31.125414,,house,http://api.map.baidu.com/place/detail?uid=669775d06731295afc0eb0b5&output=html&source=placeapi_v2,,,,,,,,,,,,,,,,,,121.78529915529,31.125874654975,1
d305db1f8bbe1440932ca371,华飞工业园,公司企业,园区,上海市,上海市,浦东新区,上海市浦东新区施湾七路1001号,d305db1f8bbe1440932ca371,1,0,121.77686,31.145369,,life,http://api.map.baidu.com/place/detail?uid=d305db1f8bbe1440932ca371&output=html&source=placeapi_v2,,,0,,,,,,,6,0,,,,,,,121.77564237106,31.144930462621,0
