uid,name,cat_L1,cat_L2,province,city,area,address,street_id,detail,child_num,loc_lng,loc_lat,telephone,type,detail_url,price,shop_hours,overall_rating,taste_rating,service_rating,environment_rating,facility_rating,hygiene_rating,technology_rating,image_num,comment_num,groupon_num,discount_num,favorite_num,checkin_num,brand,content_tag,naviloc_lng,naviloc_lat,child_num
41f27804fbecc2294bfd3f3b,上海持灏水产养殖专业合作社,公司企业,农林园艺,上海市,上海市,金山区,廊下镇廊华路66号,,1,0,121.152862,30.801599,,enterprise,http://api.map.baidu.com/place/detail?uid=41f27804fbecc2294bfd3f3b&output=html&source=placeapi_v2,,,0.0,,,,,,,,1,,,,,,,,,0
a1d333e88fee5efbe4e965c4,上海益林水产养殖专业合作社,公司企业,农林园艺,上海市,上海市,金山区,上海市金山区漕廊公路9198号,a1d333e88fee5efbe4e965c4,1,0,121.157806,30.793652,,enterprise,http://api.map.baidu.com/place/detail?uid=a1d333e88fee5efbe4e965c4&output=html&source=placeapi_v2,,,,,,,,,,,,,,,,,,,,0
0e9c6b433011c41f5fd4fe53,上海持灏果蔬专业合作社,公司企业,农林园艺,上海市,上海市,金山区,上海市金山区Y601(景邱路),,1,0,121.16232,30.801127,,enterprise,http://api.map.baidu.com/place/detail?uid=0e9c6b433011c41f5fd4fe53&output=html&source=placeapi_v2,,,,,,,,,,,,,,,,,,,,0
eccb969012a517761ef74d8a,上海夯裕农业发展有限公司,公司企业,农林园艺,上海市,上海市,金山区,上海市金山区中丰路6300号,,1,0,121.139822,30.806004,,enterprise,http://api.map.baidu.com/place/detail?uid=eccb969012a517761ef74d8a&output=html&source=placeapi_v2,,00:00-24:00,,,,,,,,,,,,,,,,,,0
58979042b4e62a874e5547c7,现代农业种源示范区,公司企业,农林园艺,上海市,上海市,金山区,上海市金山区漕廊公路,,1,0,121.160973,30.793994,,enterprise,http://api.map.baidu.com/place/detail?uid=58979042b4e62a874e5547c7&output=html&source=placeapi_v2,,,,,,,,,,,,,,,,,,,,0
e3383ff551a112a8940319f8,赛佩福农业科技有限公司,公司企业,农林园艺,上海市,上海市,金山区,上海市金山区漕廊公路9166号,,1,0,121.161103,30.793991,,enterprise,http://api.map.baidu.com/place/detail?uid=e3383ff551a112a8940319f8&output=html&source=placeapi_v2,,,,,,,,,,,,,,,,,,,,0
6d25adc46cc364546d47603d,上海康友食用菌专业合作社,公司企业,农林园艺,上海市,上海市,金山区,上海市金山区廊下镇号4047,,1,0,121.16277,30.805716,13671943545,enterprise,http://api.map.baidu.com/place/detail?uid=6d25adc46cc364546d47603d&output=html&source=placeapi_v2,0.0,,,,,,,,,,,,,,,,,,,0
78207ed2eedf149614948ebf,廊安园林园艺,公司企业,农林园艺,上海市,上海市,金山区,上海市金山区廊下新风路上海金山廊下廊苑商务宾馆西南侧约270米,,1,0,121.196135,30.792213,,enterprise,http://api.map.baidu.com/place/detail?uid=78207ed2eedf149614948ebf&output=html&source=placeapi_v2,,,,,,,,,,,,,,,,,,,,0
9b5a0a3e9e531eaac356ac34,德诚金农业科技有限公司六十七分公司,公司企业,农林园艺,上海市,上海市,金山区,上海市金山区益民路廊下镇政府西南侧约80米,,1,0,121.197698,30.79533,"13651708112,13764071266",enterprise,http://api.map.baidu.com/place/detail?uid=9b5a0a3e9e531eaac356ac34&output=html&source=placeapi_v2,,09:00-18:30,,,,,,,,,,,,,,,,,,0
15a938104f10d1c314c8f676,爱索特植物园艺(上海)有限公司,公司企业,农林园艺,上海市,上海市,金山区,上海市金山区廊下镇漕廊公路8622号,15a938104f10d1c314c8f676,1,0,121.178473,30.793456,(021)57393300,enterprise,http://api.map.baidu.com/place/detail?uid=15a938104f10d1c314c8f676&output=html&source=placeapi_v2,,,0,,,,,,,,1,,,,,,,121.17844205977,30.793284330679,0
af85ecf92df2aaa7b23c81f6,上海金育果蔬种植专业合作社,公司企业,农林园艺,上海市,上海市,金山区,上海市金山区金廊公路295弄-159号,,1,0,121.192302,30.797218,,enterprise,http://api.map.baidu.com/place/detail?uid=af85ecf92df2aaa7b23c81f6&output=html&source=placeapi_v2,,,0.0,,,,,,,,1,,,,,,,,,0
89a0cdebd3f88b7e2b3a9fe0,廊下食用菌专业合作社,公司企业,农林园艺,上海市,上海市,金山区,上海市金山区廊华路110号,,1,0,121.189869,30.786642,,enterprise,http://api.map.baidu.com/place/detail?uid=89a0cdebd3f88b7e2b3a9fe0&output=html&source=placeapi_v2,,09:00-20:00,0,,,,,,,,0,,,,,,,121.18996355646,30.786503477249,0
9688a3195c7861583c9a5e07,上海明云食用菌专业合作社,公司企业,农林园艺,上海市,上海市,金山区,上海市金山区永光路1285弄,9688a3195c7861583c9a5e07,1,0,121.205696,30.814119,18001969561,enterprise,http://api.map.baidu.com/place/detail?uid=9688a3195c7861583c9a5e07&output=html&source=placeapi_v2,,,,,,,,,,,,,,,,,,,,0
458d19dde4bc2ae949fd3f17,廊下种鸡场,公司企业,农林园艺,上海市,上海市,金山区,上海市金山区大街305弄25号,,1,0,121.190604,30.786996,,enterprise,http://api.map.baidu.com/place/detail?uid=458d19dde4bc2ae949fd3f17&output=html&source=placeapi_v2,,,,,,,,,,,,,,,,,,,,0
25eddb51a499b32cc7f50dc9,上海华梅果蔬种植专业合作社,公司企业,农林园艺,上海市,上海市,金山区,上海市金山区金廊公路与永光路交叉路口往西北约50米,,1,0,121.192275,30.814724,13918540600,enterprise,http://api.map.baidu.com/place/detail?uid=25eddb51a499b32cc7f50dc9&output=html&source=placeapi_v2,,,5.0,,,,,,,,6,,,,,,,121.19257651519,30.814754068525,0
8e88e6a1a6700538c0364409,上海景红林果业种植专业合作社,公司企业,农林园艺,上海市,上海市,金山区,上海市金山区廊下镇景丰路(景阳村新建丰1107号),,1,0,121.189308,30.789435,(021)57390283,enterprise,http://api.map.baidu.com/place/detail?uid=8e88e6a1a6700538c0364409&output=html&source=placeapi_v2,,09:00-18:00,0,,,,,,,,1,,,,,,,121.18926060724,30.789546950584,0
b68339c70780071c5e17c3f9,上海玛勋珑食用菌专业合作社,公司企业,农林园艺,上海市,上海市,金山区,上海市金山区廊下镇景阳村4组,,1,0,121.203092,30.790417,,enterprise,http://api.map.baidu.com/place/detail?uid=b68339c70780071c5e17c3f9&output=html&source=placeapi_v2,,,,,,,,,,,,,,,,,,,,0
10be35b8555a2176c51e514f,上海上云鸽业养殖专业合作社,公司企业,农林园艺,上海市,上海市,金山区,上海市金山区现代农业园区南陆村1000号,,1,0,121.173768,30.801778,"(021)37909008,18217353321",enterprise,http://api.map.baidu.com/place/detail?uid=10be35b8555a2176c51e514f&output=html&source=placeapi_v2,,,5.0,,,,,,,,3,,,,,,,,,0
c7fb04bd34b3166bfb0cad8f,光明牧业有限公司金山种奶牛场,公司企业,农林园艺,上海市,上海市,金山区,上海市光明金山区永光路1588号,c7fb04bd34b3166bfb0cad8f,1,0,121.201227,30.816296,,enterprise,http://api.map.baidu.com/place/detail?uid=c7fb04bd34b3166bfb0cad8f&output=html&source=placeapi_v2,,,0,,,,,,,,0,,,,,,,121.20122657203,30.816296262209,0
e7449baeebeab7e7471a32ed,碧绿苗圃,公司企业,农林园艺,上海市,上海市,金山区,上海市金山区益民路,,1,0,121.202166,30.789016,,enterprise,http://api.map.baidu.com/place/detail?uid=e7449baeebeab7e7471a32ed&output=html&source=placeapi_v2,,,,,,,,,,,,,,,,,,121.2022018695,30.789028210191,0
92a50a712664d2a9441a3284,上海松林农业发展有限公司,公司企业,农林园艺,上海市,上海市,金山区,上海市金山区景钱路688号,,1,0,121.223193,30.807811,,enterprise,http://api.map.baidu.com/place/detail?uid=92a50a712664d2a9441a3284&output=html&source=placeapi_v2,,,,,,,,,,,,,,,,,,121.22347200217,30.807755272405,0
3900195daf751fa5343a7179,浩丰绿行者果蔬生态园,公司企业,农林园艺,上海市,上海市,金山区,上海市金山区金石北路,,1,0,121.234485,30.813207,13668882303,enterprise,http://api.map.baidu.com/place/detail?uid=3900195daf751fa5343a7179&output=html&source=placeapi_v2,,,5.0,,,,,,,,1,,,,,,,,,0
fc5bcc962cb19f51ab175ad0,金山县张堰蔬菜种苗园,公司企业,农林园艺,上海市,上海市,金山区,上海市金山区金张支线与振堰路交叉路口往东北约160米,fc5bcc962cb19f51ab175ad0,1,1,121.280423,30.800751,,enterprise,http://api.map.baidu.com/place/detail?uid=fc5bcc962cb19f51ab175ad0&output=html&source=placeapi_v2,,,,,,,,,,,,,,,,,,121.28015501786,30.800823720543,1
70fb4303311f636bf02d831d,上海群英园林设计工程有限公司,公司企业,农林园艺,上海市,上海市,金山区,上海市金山区秦阳村7001号向北100米,,1,0,121.280164,30.789717,15821028107,enterprise,http://api.map.baidu.com/place/detail?uid=70fb4303311f636bf02d831d&output=html&source=placeapi_v2,,,,,,,,,,,,,,,,,,121.28009790629,30.789719174221,0
c67d4f1521cfa8d217948eb2,上海博文果蔬种植专业合作社,公司企业,农林园艺,上海市,上海市,金山区,上海市金山区界山路155号,,1,0,121.282225,30.807039,,enterprise,http://api.map.baidu.com/place/detail?uid=c67d4f1521cfa8d217948eb2&output=html&source=placeapi_v2,,,,,,,,,,,,,,,,,,,,0
3f15c256b0706c79d12dd65c,上海秦阳瓜果专业合作社,公司企业,农林园艺,上海市,上海市,金山区,上海市金山区秦建路与秦阳路交叉路口往东约240米,,1,0,121.28135,30.789454,13311758601,enterprise,http://api.map.baidu.com/place/detail?uid=3f15c256b0706c79d12dd65c&output=html&source=placeapi_v2,,07:30-17:30,,,,,,,,,,,,,,,,,,0
3895fba28e52dd203a13fd98,上海鼎豪瓜果专业合作社,公司企业,农林园艺,上海市,上海市,金山区,上海市金山区漕廊公路5183号,,1,0,121.290348,30.79303,,enterprise,http://api.map.baidu.com/place/detail?uid=3895fba28e52dd203a13fd98&output=html&source=placeapi_v2,,09:00-20:00,,,,,,,,,,,,,,,,,,0
bc5e6af978d7691baecb661d,上海又冉生态农业科技有限公司,公司企业,农林园艺,上海市,上海市,金山区,上海市金山区汇科路与振帆路交叉路口往西南约300米,,1,0,121.261084,30.797876,,enterprise,http://api.map.baidu.com/place/detail?uid=bc5e6af978d7691baecb661d&output=html&source=placeapi_v2,,,,,,,,,,,,,,,,,,,,0
da1cac91a9c02607f1193794,金山小皇冠振堰水稻种植基地,公司企业,农林园艺,上海市,上海市,金山区,上海市金山区张堰镇秦廊路6037号,,1,0,121.27382,30.788927,13817430963,enterprise,http://api.map.baidu.com/place/detail?uid=da1cac91a9c02607f1193794&output=html&source=placeapi_v2,,,,,,,,,,,,,,,,,,,,0
5d1c12dc304146cb51e5c583,上海秦望园果蔬专业合作社,公司企业,农林园艺,上海市,上海市,金山区,上海市金山区张堰镇秦望村界山四组2072-1号,,1,0,121.279818,30.815748,,enterprise,http://api.map.baidu.com/place/detail?uid=5d1c12dc304146cb51e5c583&output=html&source=placeapi_v2,,,0,,,,,,,,1,,,,,,,,,0
956f420661a3dbb3f5c59c99,上海金山慧清鸽子养殖专业合作社,公司企业,农林园艺,上海市,上海市,金山区,上海市金山区秦弯路365号,,1,0,121.264664,30.792073,,enterprise,http://api.map.baidu.com/place/detail?uid=956f420661a3dbb3f5c59c99&output=html&source=placeapi_v2,,,,,,,,,,,,,,,,,,121.26453480466,30.792092571511,0
2c5598028d7f2cd0882fb5b8,上海润静果蔬专业合作社,公司企业,农林园艺,上海市,上海市,金山区,上海市金山区秦廊路3组4033号,2c5598028d7f2cd0882fb5b8,1,0,121.272042,30.785474,13816979728,enterprise,http://api.map.baidu.com/place/detail?uid=2c5598028d7f2cd0882fb5b8&output=html&source=placeapi_v2,,,,,,,,,,,,,,,,,,,,0
e55f0ba2c1bb13b588b9880a,上海金贵枣油桃种植专业合作社,公司企业,农林园艺,上海市,上海市,金山区,上海市金山区杭州湾大道与机耕路交叉口向东100米,,1,0,121.326382,30.799875,,enterprise,http://api.map.baidu.com/place/detail?uid=e55f0ba2c1bb13b588b9880a&output=html&source=placeapi_v2,,,,,,,,,,,,,,,,,,,,0
76f033c65aef00ac48cc4a88,紫金园艺(鲁堰村基地),公司企业,农林园艺,上海市,上海市,金山区,上海市金山区松卫南路7054号,76f033c65aef00ac48cc4a88,1,0,121.308581,30.812919,(021)57962965,enterprise,http://api.map.baidu.com/place/detail?uid=76f033c65aef00ac48cc4a88&output=html&source=placeapi_v2,,,,,,,,,,,0,,,,,,,121.30861905773,30.812885055284,0
82f4550e7480b34609b93a9b,上海增艳园艺有限公司,公司企业,农林园艺,上海市,上海市,金山区,上海市金山区山阳镇体育场北环路2552号,82f4550e7480b34609b93a9b,1,0,121.333166,30.793678,,enterprise,http://api.map.baidu.com/place/detail?uid=82f4550e7480b34609b93a9b&output=html&source=placeapi_v2,,,,,,,,,,,,,,,,,,121.33316396036,30.793511239483,0
905955e9e79a9b541df74d47,上海文隐果林种植专业合作社,公司企业,农林园艺,上海市,上海市,金山区,上海市金山区旧港村路与卫零北路交叉路口往西北约220米,,1,0,121.31889,30.792098,,enterprise,http://api.map.baidu.com/place/detail?uid=905955e9e79a9b541df74d47&output=html&source=placeapi_v2,,,,,,,,,,,,,,,,,,121.31916103221,30.792345073774,0
5c80f11d55f5659b9a00507f,上海金耕源果蔬种植专业合作社,公司企业,农林园艺,上海市,上海市,金山区,上海市金山区张旧路与桑园村支路交叉路口南侧,,1,0,121.316132,30.799591,,enterprise,http://api.map.baidu.com/place/detail?uid=5c80f11d55f5659b9a00507f&output=html&source=placeapi_v2,,,,,,,,,,,,,,,,,,,,0
39a278df38c7aac244e274de,上海顾先生小皇冠种植基地,公司企业,农林园艺,上海市,上海市,金山区,张漕路与松卫南路交叉口东北150米,39a278df38c7aac244e274de,1,0,121.319781,30.807261,13816623922,enterprise,http://api.map.baidu.com/place/detail?uid=39a278df38c7aac244e274de&output=html&source=placeapi_v2,,,,,,,,,,,,,,,,,,121.31960851142,30.807230434254,0
5c648b4846033210c41b75b3,上海朱仁其果园合作社,公司企业,农林园艺,上海市,上海市,金山区,上海市金山区杭州湾大道4388号,5c648b4846033210c41b75b3,1,1,121.329876,30.795387,,enterprise,http://api.map.baidu.com/place/detail?uid=5c648b4846033210c41b75b3&output=html&source=placeapi_v2,,,,,,,,,,,,,,,,,,,,1
8c43bb05ad093beffd0eb098,上海枫苑果林种植专业合作社,公司企业,农林园艺,上海市,上海市,金山区,上海市金山区中心路支路东200米,,1,0,121.315243,30.792912,15214380899,enterprise,http://api.map.baidu.com/place/detail?uid=8c43bb05ad093beffd0eb098&output=html&source=placeapi_v2,,,,,,,,,,,,,,,,,,121.31536420384,30.793154406001,0
77d01e6817e641aa4151c090,上海兴甸水稻种植专业合作社,公司企业,农林园艺,上海市,上海市,金山区,上海市金山区东环路7105号,77d01e6817e641aa4151c090,1,0,121.336031,30.797034,,enterprise,http://api.map.baidu.com/place/detail?uid=77d01e6817e641aa4151c090&output=html&source=placeapi_v2,,,,,,,,,,,,,,,,,,,,0
6d10dd8c27411b78ed74f855,盛军苗圃,公司企业,农林园艺,上海市,上海市,金山区,上海市金山区杭州湾大道4085号,,1,1,121.33138,30.790834,,enterprise,http://api.map.baidu.com/place/detail?uid=6d10dd8c27411b78ed74f855&output=html&source=placeapi_v2,,,,,,,,,,,,,,,,,,121.33223699808,30.791174669759,1
4a98757150fc7c4c8b2fb5fb,上海美合蔬菜种植专业合作社,公司企业,农林园艺,上海市,上海市,金山区,上海市金山区鲁堰东路8033号,4a98757150fc7c4c8b2fb5fb,1,0,121.314536,30.817647,13061699322,enterprise,http://api.map.baidu.com/place/detail?uid=4a98757150fc7c4c8b2fb5fb&output=html&source=placeapi_v2,,,0.0,,,,,,,,1,,,,,,,,,0
46fe5082247aaf29c61b757c,上海联申果蔬种植专业合作社,公司企业,农林园艺,上海市,上海市,金山区,上海市金山区鲁堰北路与鲁堰东路交叉路口往东北约270米,46fe5082247aaf29c61b757c,1,1,121.312609,30.81606,,enterprise,http://api.map.baidu.com/place/detail?uid=46fe5082247aaf29c61b757c&output=html&source=placeapi_v2,,,,,,,,,,,,,,,,,,121.31244011789,30.816184766061,1
e328f347109a4bf640afe60c,上海永超水产养殖专业合作社,公司企业,农林园艺,上海市,上海市,金山区,工农路东50米,e328f347109a4bf640afe60c,1,1,121.370258,30.795541,,enterprise,http://api.map.baidu.com/place/detail?uid=e328f347109a4bf640afe60c&output=html&source=placeapi_v2,,,,,,,,,,,,,,,,,,121.37034489106,30.795449483008,1
3248bc9f8125f66eb35c6aa3,上海拓余果蔬种植专业合作社,公司企业,农林园艺,上海市,上海市,金山区,上海市金山区山阳镇长兴二组申康一路长兴村4009号,,1,0,121.354741,30.798559,,enterprise,http://api.map.baidu.com/place/detail?uid=3248bc9f8125f66eb35c6aa3&output=html&source=placeapi_v2,,,,,,,,,,,,,,,,,,,,0
64daece0a001362c4d554728,上海凝露果蔬专业合作社,公司企业,农林园艺,上海市,上海市,金山区,上海市金山区工农路华新工农村3065号,64daece0a001362c4d554728,1,0,121.374032,30.796305,13586629243,enterprise,http://api.map.baidu.com/place/detail?uid=64daece0a001362c4d554728&output=html&source=placeapi_v2,,,0.0,,,,,,,,1,,,,,,,,,0
f96a858dc2bc55d3b320a8da,上海新众水稻种植专业合作社,公司企业,农林园艺,上海市,上海市,金山区,上海市金山区漕廊公路与金流路交叉路口往南约120米,,1,0,121.344448,30.801866,,enterprise,http://api.map.baidu.com/place/detail?uid=f96a858dc2bc55d3b320a8da&output=html&source=placeapi_v2,,,,,,,,,,,,,,,,,,,,0
ddd31334bfd9fe584e776e37,上海漕泾农业有限公司,公司企业,农林园艺,上海市,上海市,金山区,上海市金山区漕廊公路938号,ddd31334bfd9fe584e776e37,1,0,121.397259,30.802541,(021)57252053,enterprise,http://api.map.baidu.com/place/detail?uid=ddd31334bfd9fe584e776e37&output=html&source=placeapi_v2,,,,,,,,,,,,,,,,,,,,0
40f375cb6a6172c06240a971,上海金山林业绿化有限公司,公司企业,农林园艺,上海市,上海市,金山区,上海市金山区漕廊公路912号,,1,0,121.398125,30.802635,,enterprise,http://api.map.baidu.com/place/detail?uid=40f375cb6a6172c06240a971&output=html&source=placeapi_v2,,,,,,,,,,,,,,,,,,,,0
011aaa6172e172d3a5da3946,上海春波绿化种植专业合作社,公司企业,农林园艺,上海市,上海市,金山区,上海市金山区漕泾镇营房村11组3015号,,1,0,121.408743,30.806685,"(021)57256816,13061608850",enterprise,http://api.map.baidu.com/place/detail?uid=011aaa6172e172d3a5da3946&output=html&source=placeapi_v2,0.0,,,,,,,,,,,,,,,,,,,0
7aa0e3fbec4fc41be81e9719,上海再东水稻种植专业合作社,公司企业,农林园艺,上海市,上海市,金山区,东海路与致富路交叉口东北150米,7aa0e3fbec4fc41be81e9719,1,0,121.415317,30.793261,,enterprise,http://api.map.baidu.com/place/detail?uid=7aa0e3fbec4fc41be81e9719&output=html&source=placeapi_v2,,,,,,,,,,,,,,,,,,,,0
dbd709e9491dababbe484256,上海友龙家禽养殖专业合作社,公司企业,农林园艺,上海市,上海市,金山区,上海市金山区金邓路与金光村路交叉路口往南约190米,,1,0,121.397912,30.789195,,enterprise,http://api.map.baidu.com/place/detail?uid=dbd709e9491dababbe484256&output=html&source=placeapi_v2,,,,,,,,,,,,,,,,,,,,0
6adc8c0487cc986e0af5ebac,上海金皖蔬果专业合作社,公司企业,农林园艺,上海市,上海市,金山区,上海市金山区金光村路与金光路交叉路口东北侧,,1,0,121.397657,30.787159,,enterprise,http://api.map.baidu.com/place/detail?uid=6adc8c0487cc986e0af5ebac&output=html&source=placeapi_v2,,,,,,,,,,,,,,,,,,121.39763211927,30.787096438478,0
476dfebc4b4cafa393114c1f,上海铭h水稻种植专业合作社,公司企业,农林园艺,上海市,上海市,金山区,上海市金山区漕泾镇金光村水库2011号,,1,0,121.407056,30.814006,17302118529,enterprise,http://api.map.baidu.com/place/detail?uid=476dfebc4b4cafa393114c1f&output=html&source=placeapi_v2,,08:00-17:00,,,,,,,,,,,,,,,,,,0
7f3e6ea49883426e2cb908ba,海漕光瓜果种植专业合作社,公司企业,农林园艺,上海市,上海市,金山区,上海市金山区金邓路与金光村路交叉路口往南约180米,,1,0,121.397897,30.789337,,enterprise,http://api.map.baidu.com/place/detail?uid=7f3e6ea49883426e2cb908ba&output=html&source=placeapi_v2,,,,,,,,,,,,,,,,,,121.39807016897,30.789293842852,0
041681a0a933c97d8f1a896d,上海博强果蔬专业合作社,公司企业,农林园艺,上海市,上海市,金山区,上海市金山区金邓路2133号,041681a0a933c97d8f1a896d,1,0,121.392792,30.790792,(021)57252053,enterprise,http://api.map.baidu.com/place/detail?uid=041681a0a933c97d8f1a896d&output=html&source=placeapi_v2,,,,,,,,,,,,,,,,,,121.39309022193,30.790752747057,0
03c9ab1c1413c9409a00507b,上海逸佳水产合作社,公司企业,农林园艺,上海市,上海市,金山区,上海市金山区富漕路4150号,03c9ab1c1413c9409a00507b,1,0,121.412377,30.810719,,enterprise,http://api.map.baidu.com/place/detail?uid=03c9ab1c1413c9409a00507b&output=html&source=placeapi_v2,,,,,,,,,,,,,,,,,,121.41262835557,30.810617208847,0
ea70ec5eb0af1fe9734b87b9,上海新贵农业发展专业合作社(马新村养殖农场),公司企业,农林园艺,上海市,上海市,金山区,上海市金山区溪联路8061号8063号,,1,0,121.161026,30.829842,"(021)67220507,15921192742",enterprise,http://api.map.baidu.com/place/detail?uid=ea70ec5eb0af1fe9734b87b9&output=html&source=placeapi_v2,,,,,,,,,,,,,,,,,,,,0
4d933a3c467c3f9eb6147f10,上海裕明食用菌专业合作社,公司企业,农林园艺,上海市,上海市,金山区,上海市金山区吕青路1001号3幢,,1,0,121.161099,30.84098,,enterprise,http://api.map.baidu.com/place/detail?uid=4d933a3c467c3f9eb6147f10&output=html&source=placeapi_v2,,,,,,,,,,,,,,,,,,,,0
ed3e08762e3361f98f7727e0,上海火金果蔬种植专业合作社,公司企业,农林园艺,上海市,上海市,金山区,上海市金山区,,1,0,121.141745,30.842096,,enterprise,http://api.map.baidu.com/place/detail?uid=ed3e08762e3361f98f7727e0&output=html&source=placeapi_v2,,,,,,,,,,,,,,,,,,,,0
b27bb341dbe107eb1d5800ad,上海小弟果蔬种植专业合作社,公司企业,农林园艺,上海市,上海市,金山区,上海市金山区朱吕公路与泖湾支路交叉路口往西北约300米,,1,0,121.140708,30.840909,,enterprise,http://api.map.baidu.com/place/detail?uid=b27bb341dbe107eb1d5800ad&output=html&source=placeapi_v2,,,4.0,,,,,,,,1,,,,,,,,,0
9990847e4e84e81c7069d335,上海德昕蔬果种植专业合作社,公司企业,农林园艺,上海市,上海市,金山区,上海市金山区廊下镇中联路4032-5号,9990847e4e84e81c7069d335,1,0,121.14398,30.821048,13671959719,enterprise,http://api.map.baidu.com/place/detail?uid=9990847e4e84e81c7069d335&output=html&source=placeapi_v2,,,0.0,,,,,,,,1,,,,,,,121.14427312595,30.820904325085,0
adf8ae94ba72588c902ca360,上海随蓝园林工程有限公司,公司企业,农林园艺,上海市,上海市,金山区,上海市金山区康兴路160号,,1,0,121.18743,30.836128,,enterprise,http://api.map.baidu.com/place/detail?uid=adf8ae94ba72588c902ca360&output=html&source=placeapi_v2,,,,,,,,,,,,,,,,,,,,0
973ace3a1107e395a21de972,上海善群园林景观设备有限公司,公司企业,农林园艺,上海市,上海市,金山区,上海市金山区建乐路691号,,1,0,121.189574,30.839871,,enterprise,http://api.map.baidu.com/place/detail?uid=973ace3a1107e395a21de972&output=html&source=placeapi_v2,,,0.0,,,,,,,,,,,,,,,121.18957286363,30.839898708429,0
881c740c71861045ae080fc4,上海荷之轩生态农业发展有限公司,公司企业,农林园艺,上海市,上海市,金山区,上海市金山区南戚路戚埭6088号,,1,0,121.202935,30.829216,,enterprise,http://api.map.baidu.com/place/detail?uid=881c740c71861045ae080fc4&output=html&source=placeapi_v2,,,,,,,,,,,,,,,,,,,,0
8afbf48e4f3ad3158505bf18,上海万泽水产养殖专业合作社,公司企业,农林园艺,上海市,上海市,金山区,上海市金山区廊下镇南塘村13组6001-1临,,1,0,121.195529,30.825452,13482478997,enterprise,http://api.map.baidu.com/place/detail?uid=8afbf48e4f3ad3158505bf18&output=html&source=placeapi_v2,,,,,,,,,,,,,,,,,,121.19595294736,30.825087998199,0
254e3424400868ba2811d1d4,上海博众蔬菜种植专业合作社,公司企业,农林园艺,上海市,上海市,金山区,上海市金山区金廊公路6088号,254e3424400868ba2811d1d4,1,0,121.189385,30.823312,(021)57376156,enterprise,http://api.map.baidu.com/place/detail?uid=254e3424400868ba2811d1d4&output=html&source=placeapi_v2,,08:00-21:00,,,,,,,,,,,,,,,,121.18955445375,30.823320902478,0
36afe1178abb0c4f8bfc06ce,上海戚埭农业发展专业合作社(芳芳源),公司企业,农林园艺,上海市,上海市,金山区,上海市金山区南戚路3054号,,1,0,121.202905,30.823749,,enterprise,http://api.map.baidu.com/place/detail?uid=36afe1178abb0c4f8bfc06ce&output=html&source=placeapi_v2,,,,,,,,,,,1,,,,,,,,,0
b84f376c9cc13d2f5abbbceb,海光奶牛场,公司企业,农林园艺,上海市,上海市,金山区,吕巷镇金张公路3616号附近,b84f376c9cc13d2f5abbbceb,1,0,121.212383,30.836491,,enterprise,http://api.map.baidu.com/place/detail?uid=b84f376c9cc13d2f5abbbceb&output=html&source=placeapi_v2,,,5.0,,,,,,,,1,,,,,,,121.21253874197,30.836445919132,0
dd1d1589404ab429f4eafc0f,廊下果蔬园,公司企业,农林园艺,上海市,上海市,金山区,上海市金山区金廊公路600号,dd1d1589404ab429f4eafc0f,1,0,121.192377,30.819091,,scope,http://api.map.baidu.com/place/detail?uid=dd1d1589404ab429f4eafc0f&output=html&source=placeapi_v2,,08:30-17:00,,,,,,,,,1,,,,,,,121.19209421047,30.819062802736,0
e7471b0fed3e38f304026fc5,上海金碑果蔬种植专业合作社,公司企业,农林园艺,上海市,上海市,金山区,上海市金山区吕巷镇荡田村29组,,1,0,121.208359,30.824741,,enterprise,http://api.map.baidu.com/place/detail?uid=e7471b0fed3e38f304026fc5&output=html&source=placeapi_v2,,,0,,,,,,,,1,,,,,,,,,0
19db7a748c3bece382288ad4,上海圣泉葡萄种植专业合作社,公司企业,农林园艺,上海市,上海市,金山区,上海市金山区汇丰大街390号,,1,0,121.240399,30.836654,13003127929,enterprise,http://api.map.baidu.com/place/detail?uid=19db7a748c3bece382288ad4&output=html&source=placeapi_v2,,,,,,,,,,,,,,,,,,,,0
95fa733fdc15d76d17b54b33,上海茗芝农林蔬果园专业合作社,公司企业,农林园艺,上海市,上海市,金山区,上海市金山区金石北路与干钱路交叉口,,1,0,121.231714,30.824988,13386058866,enterprise,http://api.map.baidu.com/place/detail?uid=95fa733fdc15d76d17b54b33&output=html&source=placeapi_v2,,,,,,,,,,,1,,,,,,,,,0
c7b6663f80de2fd3e0110356,金开(上海)农业科技有限公司,公司企业,农林园艺,上海市,上海市,金山区,上海市金山区永光路,,1,0,121.22285,30.822834,,enterprise,http://api.map.baidu.com/place/detail?uid=c7b6663f80de2fd3e0110356&output=html&source=placeapi_v2,,,,,,,,,,,,,,,,,,121.22303378359,30.822811679831,0
dffd631c707a05c239221cb2,超大现代农业上海金山基地,公司企业,农林园艺,上海市,上海市,金山区,上海市金山区光明村光辉5078临,dffd631c707a05c239221cb2,1,0,121.222896,30.823038,,enterprise,http://api.map.baidu.com/place/detail?uid=dffd631c707a05c239221cb2&output=html&source=placeapi_v2,,,4.0,,,,,,,,2,,,,,,,121.22305792305,30.822960784031,0
440def7aa174344994ec84bb,联兴养殖场,公司企业,农林园艺,上海市,上海市,金山区,上海市金山区吕巷镇前颜路张泾河附近,,1,1,121.27171,30.830739,(021)57200178,enterprise,http://api.map.baidu.com/place/detail?uid=440def7aa174344994ec84bb&output=html&source=placeapi_v2,,,,,,,,,,,,,,,,,,121.27191521266,30.830696706248,1
ffe702afa7dc6a3488b9883d,瑞尹果蔬种植专业合作社,公司企业,农林园艺,上海市,上海市,金山区,荡里路与高桥路交叉口北200米,,1,0,121.290303,30.828732,,enterprise,http://api.map.baidu.com/place/detail?uid=ffe702afa7dc6a3488b9883d&output=html&source=placeapi_v2,,,,,,,,,,,,,,,,,,121.29026384829,30.828541099976,0
59667c7a362f92f7246e986f,智伊生猪养殖专业合作社,公司企业,农林园艺,上海市,上海市,金山区,上海市金山区高桥路与荡里路交叉路口往北约160米,,1,0,121.290317,30.828719,,enterprise,http://api.map.baidu.com/place/detail?uid=59667c7a362f92f7246e986f&output=html&source=placeapi_v2,,,,,,,,,,,,,,,,,,121.29026384829,30.828541099976,0
6db3669104441e756849f30f,上海思瑶蔬菜种植专业合作社,公司企业,农林园艺,上海市,上海市,金山区,上海市金山区S124(松卫南路),,1,0,121.295539,30.83358,(021)67261162,enterprise,http://api.map.baidu.com/place/detail?uid=6db3669104441e756849f30f&output=html&source=placeapi_v2,,,,,,,,,,,0,,,,,,,,,0
5d1c12dc304146cb51e5c583,上海秦望园果蔬专业合作社,公司企业,农林园艺,上海市,上海市,金山区,上海市金山区张堰镇秦望村界山四组2072-1号,,1,0,121.279818,30.815748,,enterprise,http://api.map.baidu.com/place/detail?uid=5d1c12dc304146cb51e5c583&output=html&source=placeapi_v2,,,0,,,,,,,,1,,,,,,,,,0
fb835200716179a3d7851f93,上海金山文祥紫泾生猪养殖场,公司企业,农林园艺,上海市,上海市,金山区,上海市金山区百家村高桥3001-1号,fb835200716179a3d7851f93,1,1,121.28037,30.818309,,enterprise,http://api.map.baidu.com/place/detail?uid=fb835200716179a3d7851f93&output=html&source=placeapi_v2,,,,,,,,,,,,,,,,,,,,1
370cfeff63156454b6147ffe,上海航萱农业专业合作社,公司企业,农林园艺,上海市,上海市,金山区,上海市金山区朱林路428号,,1,0,121.331003,30.849343,18916498629,enterprise,http://api.map.baidu.com/place/detail?uid=370cfeff63156454b6147ffe&output=html&source=placeapi_v2,,,0,,,,,,,,2,,,,,,,121.33100354736,30.849261879796,0
34e9c25e686c5d4b715e80f8,上海鼎都树木种植专业合作社,公司企业,农林园艺,上海市,上海市,金山区,上海市金山区工业区高楼村东风9组4003-2号,,1,0,121.32437,30.849473,,enterprise,http://api.map.baidu.com/place/detail?uid=34e9c25e686c5d4b715e80f8&output=html&source=placeapi_v2,,,,,,,,,,,,,,,,,,,,0
0e5c781905d76e829b005048,上海诗云果蔬种植专业合作社,公司企业,农林园艺,上海市,上海市,金山区,上海市金山区漕泾镇蒋庄村金星十四组3134号,,1,0,121.369245,30.845028,18930037189,enterprise,http://api.map.baidu.com/place/detail?uid=0e5c781905d76e829b005048&output=html&source=placeapi_v2,,10:00-23:00,,,,,,,,,,,,,,,,,,0
6414589d765154a0f7eafc8c,上海裕田农业科技有限公司,公司企业,农林园艺,上海市,上海市,金山区,上海市金山区金舸路666号,6414589d765154a0f7eafc8c,1,0,121.350122,30.821956,(021)67323093,enterprise,http://api.map.baidu.com/place/detail?uid=6414589d765154a0f7eafc8c&output=html&source=placeapi_v2,,,,,,,,,,,,,,,,,,121.35011642179,30.82199670597,0
1f5187dd7509113b2fe67b36,金星示范场,公司企业,农林园艺,上海市,上海市,金山区,上海市金山区金蒋路,,1,0,121.370666,30.840017,,enterprise,http://api.map.baidu.com/place/detail?uid=1f5187dd7509113b2fe67b36&output=html&source=placeapi_v2,,,,,,,,,,,,,,,,,,,,0
9fc05ee4926db100c6effb7d,春蕾园艺,公司企业,农林园艺,上海市,上海市,奉贤区,上海市奉贤区胡阮路兴园社区东南侧约90米,9fc05ee4926db100c6effb7d,1,0,121.41964,30.838063,,enterprise,http://api.map.baidu.com/place/detail?uid=9fc05ee4926db100c6effb7d&output=html&source=placeapi_v2,,,,,,,,,,,,,,,,,,,,0
94ce6500af95464d6e20b91f,漕泾现代无公害名优水产养殖示范园区,公司企业,农林园艺,上海市,上海市,金山区,上海市金山区水建路与水泾中心路交叉路口往西南约70米,94ce6500af95464d6e20b91f,1,0,121.404488,30.82489,,enterprise,http://api.map.baidu.com/place/detail?uid=94ce6500af95464d6e20b91f&output=html&source=placeapi_v2,,,,,,,,,,,,,,,,,,121.40480536635,30.82490750809,0
066891a7c4aae3fc077ce8bf,上海财宇生态农业科技有限公司,公司企业,农林园艺,上海市,上海市,金山区,上海市金山区长堰路1055号,,1,1,121.404711,30.824905,13688076752,enterprise,http://api.map.baidu.com/place/detail?uid=066891a7c4aae3fc077ce8bf&output=html&source=placeapi_v2,,,,,,,,,,,,,,,,,,121.40470631828,30.824941460347,1
2264feec7c6fec65d2f49e47,上海市标准水产养殖项目区,公司企业,农林园艺,上海市,上海市,金山区,上海市金山区上海龙坤蔬菜专业合作社附近,,1,0,121.399762,30.824833,,enterprise,http://api.map.baidu.com/place/detail?uid=2264feec7c6fec65d2f49e47&output=html&source=placeapi_v2,,,,,,,,,,,,,,,,,,,,0
bd1c2c77311859702806ce80,上海龙坤蔬菜专业合作社,公司企业,农林园艺,上海市,上海市,金山区,上海市金山区长堰路3159号,bd1c2c77311859702806ce80,1,1,121.395028,30.826506,,enterprise,http://api.map.baidu.com/place/detail?uid=bd1c2c77311859702806ce80&output=html&source=placeapi_v2,,,,,,,,,,,,,,,,,,121.39503544862,30.82647540001,1
2a3d8b563a6151e9c9e33c3d,上海瀛华水蛭养殖专业合作社,公司企业,农林园艺,上海市,上海市,金山区,上海市金山区漕泾镇水库村3001号,2a3d8b563a6151e9c9e33c3d,1,0,121.406608,30.820603,13120899176,enterprise,http://api.map.baidu.com/place/detail?uid=2a3d8b563a6151e9c9e33c3d&output=html&source=placeapi_v2,,,0.0,,,,,,,,,,,,,,,,,0
f696f3c24edcede81b11d5c2,上海青上农业科技有限公司,公司企业,农林园艺,上海市,上海市,奉贤区,上海市奉贤区联合北路215号,f696f3c24edcede81b11d5c2,1,0,121.451001,30.820288,,enterprise,http://api.map.baidu.com/place/detail?uid=f696f3c24edcede81b11d5c2&output=html&source=placeapi_v2,,,,,,,,,,,,,,,,,,121.45113951001,30.820336561751,0
071ec9d13f7b39e516764378,上海麦克林生化科技有限公司,公司企业,农林园艺,上海市,上海市,奉贤区,上海市奉贤区楚工路169号,071ec9d13f7b39e516764378,1,1,121.455186,30.825388,(021)51328699,enterprise,http://api.map.baidu.com/place/detail?uid=071ec9d13f7b39e516764378&output=html&source=placeapi_v2,0.0,,0,,,,,,,,1,,,,,,,121.45507238944,30.825474662796,1
7863870cb7a07d1fc51e5176,上海市奉贤区林场,公司企业,农林园艺,上海市,上海市,奉贤区,上海市奉贤区万华路28号,7863870cb7a07d1fc51e5176,1,0,121.463464,30.8395,,enterprise,http://api.map.baidu.com/place/detail?uid=7863870cb7a07d1fc51e5176&output=html&source=placeapi_v2,,,,,,,,,,,,,,,,,,121.46346920408,30.839474946786,0
cc51d25c4b05a251d42ce267,奉贤畜牧水产总公司奉羽禽业标准化生态养殖基地,公司企业,农林园艺,上海市,上海市,奉贤区,上海市奉贤区奉柘公路柘林海韵馨苑西南侧约120米,cc51d25c4b05a251d42ce267,1,0,121.492655,30.838294,,enterprise,http://api.map.baidu.com/place/detail?uid=cc51d25c4b05a251d42ce267&output=html&source=placeapi_v2,,,,,,,,,,,,,,,,,,121.49256323907,30.83842938314,0
54ef407b257931c609a8d49d,东区养殖场,公司企业,农林园艺,上海市,上海市,奉贤区,上海市奉贤区海航路与海乾路交叉路口往北约170米,54ef407b257931c609a8d49d,1,0,121.503888,30.820463,,enterprise,http://api.map.baidu.com/place/detail?uid=54ef407b257931c609a8d49d&output=html&source=placeapi_v2,,,,,,,,,,,,,,,,,,,,0
2a7a25ec43a5fd1d6c3e1b46,上海骏腾水产育苗场,公司企业,农林园艺,上海市,上海市,奉贤区,上海市奉贤区冯桥村669-1临,2a7a25ec43a5fd1d6c3e1b46,1,0,121.480965,30.826561,,enterprise,http://api.map.baidu.com/place/detail?uid=2a7a25ec43a5fd1d6c3e1b46&output=html&source=placeapi_v2,,,,,,,,,,,,,,,,,,121.48114819102,30.826645614046,0
a35fb468c653fe0bfda778f5,上海地产农业奉贤基地,公司企业,农林园艺,上海市,上海市,奉贤区,上海市奉贤区塘东路799号,a35fb468c653fe0bfda778f5,1,0,121.569167,30.833063,,enterprise,http://api.map.baidu.com/place/detail?uid=a35fb468c653fe0bfda778f5&output=html&source=placeapi_v2,,,,,,,,,,,,,,,,,,,,0
9c104ae8bcd5c6a188b98816,上海瀛奥粮食种植专业合作社,公司企业,农林园艺,上海市,上海市,奉贤区,上海市奉贤区金汇塘东路与星火支路交叉路口往东约70米,,1,0,121.584396,30.835455,,enterprise,http://api.map.baidu.com/place/detail?uid=9c104ae8bcd5c6a188b98816&output=html&source=placeapi_v2,,,,,,,,,,,,,,,,,,,,0
669775d04d290325fc0eb0a8,上海星火奶牛二场,公司企业,农林园艺,上海市,上海市,奉贤区,上海市奉贤区海农公路606号,669775d04d290325fc0eb0a8,1,0,121.578508,30.850719,,enterprise,http://api.map.baidu.com/place/detail?uid=669775d04d290325fc0eb0a8&output=html&source=placeapi_v2,,,,,,,,,,,,,,,,,,121.57832132653,30.850747822478,0
9be6cee0db20ddbee60738a2,上海珠丰甜瓜专业合作社,公司企业,农林园艺,上海市,上海市,金山区,上海市金山区朱平公路4958号,9be6cee0db20ddbee60738a2,1,1,121.152581,30.873682,(021)57308622,enterprise,http://api.map.baidu.com/place/detail?uid=9be6cee0db20ddbee60738a2&output=html&source=placeapi_v2,,07:30-17:30,,,,,,,,,,,,,,,,121.15236207601,30.873760775383,1
c9965e50edc6e3fdf019379c,上海福满水稻种植专业合作社,公司企业,农林园艺,上海市,上海市,金山区,上海市金山区朱平公路5085号,,1,0,121.151419,30.875558,,enterprise,http://api.map.baidu.com/place/detail?uid=c9965e50edc6e3fdf019379c&output=html&source=placeapi_v2,,,,,,,,,,,,,,,,,,,,0
dbf4d6eef5c297296fa3ccf8,上海金山泉水园艺有限公司,公司企业,农林园艺,上海市,上海市,金山区,上海市金山区金张公路5988号,dbf4d6eef5c297296fa3ccf8,1,0,121.188175,30.861708,,enterprise,http://api.map.baidu.com/place/detail?uid=dbf4d6eef5c297296fa3ccf8&output=html&source=placeapi_v2,,,,,,,,,,,,,,,,,,121.18793366679,30.861731454232,0
0cdcf987a289369e16c905b9,上海君盛禽业养殖专业合作社,公司企业,农林园艺,上海市,上海市,金山区,上海市金山区朱泾镇五龙村6073-6号,,1,0,121.18937,30.871843,"13918551735,18121152589",enterprise,http://api.map.baidu.com/place/detail?uid=0cdcf987a289369e16c905b9&output=html&source=placeapi_v2,,,,,,,,,,,,,,,,,,,,0
3b3a9e2a03bbb65b9c09f7f9,爱轩园艺,公司企业,农林园艺,上海市,上海市,金山区,上海市金山区金石北路6001号,,1,0,121.199852,30.881843,13167063158,enterprise,http://api.map.baidu.com/place/detail?uid=3b3a9e2a03bbb65b9c09f7f9&output=html&source=placeapi_v2,,06:00-20:00,5.0,,,,,,,,2,,,,,,,121.19986336377,30.881828360645,0
e1f3416535fc3974bd48422c,上海鑫和果蔬种植专业合作社,公司企业,农林园艺,上海市,上海市,金山区,上海市金山区爱五路1组4001号,,1,0,121.203357,30.86573,,enterprise,http://api.map.baidu.com/place/detail?uid=e1f3416535fc3974bd48422c&output=html&source=placeapi_v2,,,,,,,,,,,,,,,,,,,,0
fd55737297b79eac28d7ab90,上海佳芸桃子种植专业合作社,公司企业,农林园艺,上海市,上海市,金山区,上海市金山区朱金镇爱国9组6025号,fd55737297b79eac28d7ab90,1,0,121.202891,30.871998,,enterprise,http://api.map.baidu.com/place/detail?uid=fd55737297b79eac28d7ab90&output=html&source=placeapi_v2,,,,,,,,,,,,,,,,,,121.20272913891,30.871913335515,0
efe10b07b3385e166e3e1b48,金山区新农水利农场,公司企业,农林园艺,上海市,上海市,金山区,上海市金山区吕新公路与吕新路交叉口东南50米,efe10b07b3385e166e3e1b48,1,1,121.211937,30.86708,,enterprise,http://api.map.baidu.com/place/detail?uid=efe10b07b3385e166e3e1b48&output=html&source=placeapi_v2,,,,,,,,,,,,,,,,,,121.21171312106,30.867042272924,1
d697b4b37b15aae0eb56fa05,上海蔓菜果蔬种植专业合作社,公司企业,农林园艺,上海市,上海市,金山区,上海市金山区朱泾镇牡丹村三浜3006-1号,d697b4b37b15aae0eb56fa05,1,0,121.191349,30.880456,,enterprise,http://api.map.baidu.com/place/detail?uid=d697b4b37b15aae0eb56fa05&output=html&source=placeapi_v2,,,,,,,,,,,,,,,,,,,,0
42347e3efd564fee1e1d11bb,上海市哲月葡萄种植专业合作社,公司企业,农林园艺,上海市,上海市,金山区,上海市金山区金石北路5699号,42347e3efd564fee1e1d11bb,1,1,121.200213,30.878737,,enterprise,http://api.map.baidu.com/place/detail?uid=42347e3efd564fee1e1d11bb&output=html&source=placeapi_v2,,09:00-20:00,,,,,,,,,,,,,,,,,,1
3eb34cce5d88b10316a1905f,上海绿田蔬果种植专业合作社,公司企业,农林园艺,上海市,上海市,金山区,上海市金山区吕新路1888号,,1,0,121.209198,30.858351,18960922568,enterprise,http://api.map.baidu.com/place/detail?uid=3eb34cce5d88b10316a1905f&output=html&source=placeapi_v2,,09:00-16:00,,,,,,,,,1,,,,,,,,,0
bed57fd868cff0ce17c905ba,上海火龙果种植基地,公司企业,农林园艺,上海市,上海市,金山区,上海市金山区吕新路1888号,,1,0,121.212141,30.858737,18916092568,enterprise,http://api.map.baidu.com/place/detail?uid=bed57fd868cff0ce17c905ba&output=html&source=placeapi_v2,,,,,,,,,,,,,,,,,,,,0
ff34a9d7235eae57aeb22a68,上海斌强果蔬种植合作社,公司企业,农林园艺,上海市,上海市,金山区,上海市金山区吕巷镇太平村3组,,1,0,121.20621,30.855299,13917301331,enterprise,http://api.map.baidu.com/place/detail?uid=ff34a9d7235eae57aeb22a68&output=html&source=placeapi_v2,,08:00-16:00,,,,,,,,,,,,,,,,,,0
537eb60350a4ceb09122e0f3,上海圣泉葡萄种植专业合作社,公司企业,农林园艺,上海市,上海市,金山区,上海市金山区红光路1111号,537eb60350a4ceb09122e0f3,1,0,121.244344,30.859636,(021)57207096,enterprise,http://api.map.baidu.com/place/detail?uid=537eb60350a4ceb09122e0f3&output=html&source=placeapi_v2,,07:00-19:00,0,,,,,,,,0,,,,,,,121.24454029726,30.859493316319,0
3de6e3f8d61e36c13517dc4d,上海漾叶果蔬种植专业合作社,公司企业,农林园艺,上海市,上海市,金山区,上海市金山区白漾路6168号,,1,0,121.234216,30.860928,13301635691,enterprise,http://api.map.baidu.com/place/detail?uid=3de6e3f8d61e36c13517dc4d&output=html&source=placeapi_v2,,,,,,,,,,,,,,,,,,,,0
096a0baeb954d3aa3ce2311b,上海翰益农业科技有限公司,公司企业,农林园艺,上海市,上海市,金山区,上海市金山区朱泾镇新农慧农村万年8045号,,1,0,121.224944,30.880631,18117195558,enterprise,http://api.map.baidu.com/place/detail?uid=096a0baeb954d3aa3ce2311b&output=html&source=placeapi_v2,,,,,,,,,,,,,,,,,,,,0
989c06928ba97b888605bfb1,上海保勤果蔬种植专业合作社,公司企业,农林园艺,上海市,上海市,金山区,上海市金山区吕巷镇白漾村6组,989c06928ba97b888605bfb1,1,0,121.240723,30.859266,15000966447,enterprise,http://api.map.baidu.com/place/detail?uid=989c06928ba97b888605bfb1&output=html&source=placeapi_v2,,07:00-18:00,3.5,,,,,,,,1,,,,,,,,,0
d11b8c2c0ea612099d82eae6,上海加家农业专业合作社,公司企业,农林园艺,上海市,上海市,金山区,上海市金山区朱泾镇新农慧农村万年8045号,,1,0,121.224983,30.880339,,enterprise,http://api.map.baidu.com/place/detail?uid=d11b8c2c0ea612099d82eae6&output=html&source=placeapi_v2,,,,,,,,,,,,,,,,,,,,0
b8ccbb678aefd86316c90576,上海金怡种植专业合作社,公司企业,农林园艺,上海市,上海市,金山区,上海市金山区漾平路6072号,,1,1,121.22239,30.859487,,enterprise,http://api.map.baidu.com/place/detail?uid=b8ccbb678aefd86316c90576&output=html&source=placeapi_v2,,,,,,,,,,,,,,,,,,121.22247482107,30.859269294355,1
f4c10fe1fd9d27793b221c20,伯亚农场,公司企业,农林园艺,上海市,上海市,金山区,上海市金山区Y552(红光路),,1,0,121.242341,30.857063,,enterprise,http://api.map.baidu.com/place/detail?uid=f4c10fe1fd9d27793b221c20&output=html&source=placeapi_v2,,,,,,,,,,,,,,,,,,,,0
65972c889c8ee8ff99005069,上海新禾花木生产基地,公司企业,农林园艺,上海市,上海市,金山区,上海市金山区慧农村万年,,1,0,121.222053,30.870853,18360079523,enterprise,http://api.map.baidu.com/place/detail?uid=65972c889c8ee8ff99005069&output=html&source=placeapi_v2,,,,,,,,,,,,,,,,,,,,0
0bef968286d39a4d2806ceec,上海亭林雪瓜基地,公司企业,农林园艺,上海市,上海市,金山区,上海市金山区松卫南路后池路588号,0bef968286d39a4d2806ceec,1,1,121.284832,30.866593,,enterprise,http://api.map.baidu.com/place/detail?uid=0bef968286d39a4d2806ceec&output=html&source=placeapi_v2,,,,,,,,,,,,,,,,,,121.2848082404,30.866546309255,1
988b49de04fdb00b990050a4,上海亭丰果蔬种植专业合作社(休闲采摘园),公司企业,农林园艺,上海市,上海市,金山区,上海市金山区九池路4105号,988b49de04fdb00b990050a4,1,0,121.291933,30.872227,15316934131,enterprise,http://api.map.baidu.com/place/detail?uid=988b49de04fdb00b990050a4&output=html&source=placeapi_v2,,,3.5,,,,,,,,4,,,,,,,121.29195105289,30.872180078531,0
25bfe8eeca72641ed42ce2d4,凤长军谷智慧农业园,公司企业,农林园艺,上海市,上海市,金山区,上海市金山区松卫南路6000号,,1,0,121.284227,30.879898,(021)37289009,enterprise,http://api.map.baidu.com/place/detail?uid=25bfe8eeca72641ed42ce2d4&output=html&source=placeapi_v2,,,,,,,,,,,,,,,,,,,,0
eaa7d43ff9bd5e8cf32d839b,上海基翔鸽业养殖专业合作社,公司企业,农林园艺,上海市,上海市,金山区,上海市金山区松牌路433号,,1,0,121.268571,30.877226,,enterprise,http://api.map.baidu.com/place/detail?uid=eaa7d43ff9bd5e8cf32d839b&output=html&source=placeapi_v2,,,0.0,,,,,,,,,,,,,,,121.26860143999,30.877062954284,0
b1e3222f23401992e8e5822d,上海荷之轩生态农业发展有限公司,公司企业,农林园艺,上海市,上海市,金山区,上海市金山区松前路,,1,0,121.261006,30.867406,,enterprise,http://api.map.baidu.com/place/detail?uid=b1e3222f23401992e8e5822d&output=html&source=placeapi_v2,,,,,,,,,,,,,,,,,,,,0
ce110747b81b1c03a8175a54,荷之轩农场,公司企业,农林园艺,上海市,上海市,金山区,上海市金山区驳岸村4025号,ce110747b81b1c03a8175a54,1,0,121.259982,30.866983,,enterprise,http://api.map.baidu.com/place/detail?uid=ce110747b81b1c03a8175a54&output=html&source=placeapi_v2,,,0,,,,,,,,0,,,,,,,121.25963519398,30.867060365087,0
fe1c168d0609217d1e580082,上海益欢草莓种植专业合作社,公司企业,农林园艺,上海市,上海市,金山区,上海市金山区新巷村东横泾桥西200米,,1,0,121.319192,30.865575,13002127059,enterprise,http://api.map.baidu.com/place/detail?uid=fe1c168d0609217d1e580082&output=html&source=placeapi_v2,,00:00-24:00,,,,,,,,,,,,,,,,,,0
2637ec4f5b277b47a6c75657,上海洪林养鸡专业合作社,公司企业,农林园艺,上海市,上海市,金山区,上海市金山区计家埭,,1,0,121.324209,30.862007,,enterprise,http://api.map.baidu.com/place/detail?uid=2637ec4f5b277b47a6c75657&output=html&source=placeapi_v2,,,,,,,,,,,,,,,,,,,,0
74b2d26cc8b1124116a1900a,金山区生猪总公司亭林钟猪场,公司企业,农林园艺,上海市,上海市,金山区,上海市金山区南亭公路上海体育学院附属金山亭林中学东南侧约160米,74b2d26cc8b1124116a1900a,1,0,121.325413,30.884755,,enterprise,http://api.map.baidu.com/place/detail?uid=74b2d26cc8b1124116a1900a&output=html&source=placeapi_v2,,,,,,,,,,,,,,,,,,,,0
e73c264b3e876e225af6be5b,莉莉开心小农场,公司企业,农林园艺,上海市,上海市,金山区,上海市金山区新巷路,,1,0,121.311473,30.85496,15800486385,enterprise,http://api.map.baidu.com/place/detail?uid=e73c264b3e876e225af6be5b&output=html&source=placeapi_v2,,06:00-18:00,0,,,,,,,,0,,,,,,,,,0
7700e99a36c50969c91b959d,上海良亮果蔬种植专业合作社,公司企业,农林园艺,上海市,上海市,金山区,上海市金山区新巷村十五组,,1,0,121.311623,30.853131,18117399505,enterprise,http://api.map.baidu.com/place/detail?uid=7700e99a36c50969c91b959d&output=html&source=placeapi_v2,,10:00-15:00,5.0,,,,,,,,4,,,,,,,,,0
21f0af5df2de7d475bf6be1a,上海恩祈家禽养殖专业合作社,公司企业,农林园艺,上海市,上海市,金山区,上海市金山区六红路4115号,,1,0,121.362412,30.879265,,enterprise,http://api.map.baidu.com/place/detail?uid=21f0af5df2de7d475bf6be1a&output=html&source=placeapi_v2,,,,,,,,,,,,,,,,,,,,0
c3e1b9da0e011ac0c909f0bd,上海金光蔬菜专业合作社,公司企业,农林园艺,上海市,上海市,金山区,上海市金山区朱行镇中心路4115号,,1,1,121.366772,30.877966,,enterprise,http://api.map.baidu.com/place/detail?uid=c3e1b9da0e011ac0c909f0bd&output=html&source=placeapi_v2,,,,,,,,,,,,,,,,,,121.36685946569,30.877976063476,1
74857cc3ff4ceb7c59bbbcac,朱行鸡场,公司企业,农林园艺,上海市,上海市,金山区,上海市金山区红光中心路3086号,,1,0,121.375388,30.867642,,enterprise,http://api.map.baidu.com/place/detail?uid=74857cc3ff4ceb7c59bbbcac&output=html&source=placeapi_v2,,,,,,,,,,,,,,,,,,,,0
21d869f103ab42726c3e1b99,上海闽俊蔬果专业合作社,公司企业,农林园艺,上海市,上海市,金山区,上海市金山区奉朱公路888号,,1,0,121.368503,30.85293,18116240290,enterprise,http://api.map.baidu.com/place/detail?uid=21d869f103ab42726c3e1b99&output=html&source=placeapi_v2,,,,,,,,,,,,,,,,,,,,0
cb581a1ab4964bbefa2d61a4,上海欢兴果蔬种植专业合作社,公司企业,农林园艺,上海市,上海市,金山区,上海市金山区金山工业区费家埭,,1,0,121.382391,30.864237,,enterprise,http://api.map.baidu.com/place/detail?uid=cb581a1ab4964bbefa2d61a4&output=html&source=placeapi_v2,,,,,,,,,,,,,,,,,,,,0
165eb1f5631705498c55ec9d,上海集贤虾业养殖专业合作社,公司企业,农林园艺,上海市,上海市,奉贤区,丰收路与庄良路交叉口东南50米,165eb1f5631705498c55ec9d,1,1,121.3926,30.872183,,enterprise,http://api.map.baidu.com/place/detail?uid=165eb1f5631705498c55ec9d&output=html&source=placeapi_v2,,,,,,,,,,,,,,,,,,,,1
a1a1701b92591c705d0d026e,庄行种子场,公司企业,农林园艺,上海市,上海市,奉贤区,庄良公路与潘垫南路交叉口西北150米,a1a1701b92591c705d0d026e,1,0,121.403045,30.873588,,enterprise,http://api.map.baidu.com/place/detail?uid=a1a1701b92591c705d0d026e&output=html&source=placeapi_v2,,,,,,,,,,,,,,,,,,121.40369792723,30.873527574523,0
39640d342abd5d324251c053,开心农场,公司企业,农林园艺,上海市,上海市,奉贤区,上海市奉贤区潘垫东路,39640d342abd5d324251c053,1,0,121.408285,30.876426,,enterprise,http://api.map.baidu.com/place/detail?uid=39640d342abd5d324251c053&output=html&source=placeapi_v2,,,,,,,,,,,,,,,,,,121.40855704768,30.876226638671,0
6e0c791bd639ab07b23c81e0,奉贤县良种场,公司企业,农林园艺,上海市,上海市,奉贤区,上海市奉贤区31号,6e0c791bd639ab07b23c81e0,1,0,121.395176,30.868448,,enterprise,http://api.map.baidu.com/place/detail?uid=6e0c791bd639ab07b23c81e0&output=html&source=placeapi_v2,,,,,,,,,,,,,,,,,,,,0
7a8195676598e5281ce999a3,上海思阳水产养殖专业合作社,公司企业,农林园艺,上海市,上海市,奉贤区,上海市奉贤区庄良公路与庄良路交叉路口往西约120米,,1,0,121.39509,30.872236,,enterprise,http://api.map.baidu.com/place/detail?uid=7a8195676598e5281ce999a3&output=html&source=placeapi_v2,,,,,,,,,,,,,,,,,,,,0
5b4f3a11ba4857549e95de2b,上海玉章禽蛋专业合作社,公司企业,农林园艺,上海市,上海市,奉贤区,上海市奉贤区庄良路1515号,,1,1,121.404212,30.879749,,enterprise,http://api.map.baidu.com/place/detail?uid=5b4f3a11ba4857549e95de2b&output=html&source=placeapi_v2,,,,,,,,,,,,,,,,,,121.40423500792,30.879709359156,1
e756a633db3c50f0471a32d1,上海锭顺水产养殖专业合作社,公司企业,农林园艺,上海市,上海市,奉贤区,庄良路与潘柴路交叉口东北50米,,1,1,121.391588,30.872626,,enterprise,http://api.map.baidu.com/place/detail?uid=e756a633db3c50f0471a32d1&output=html&source=placeapi_v2,,,,,,,,,,,,,,,,,,121.39138320611,30.872567442904,1
b3cb771accfc136ef32d83b3,奉贤区庄行镇潘垫村花果蔬繁育基地,公司企业,农林园艺,上海市,上海市,奉贤区,上海市奉贤区欣达路与庄良公路交叉路口往北约160米,,1,0,121.40376,30.876989,,enterprise,http://api.map.baidu.com/place/detail?uid=b3cb771accfc136ef32d83b3&output=html&source=placeapi_v2,,,,,,,,,,,,,,,,,,,,0
2518555ef16fda4ab35c6aa4,上海立群粮食种植合作社,公司企业,农林园艺,上海市,上海市,奉贤区,上海市奉贤区浦卫公路,,1,0,121.431537,30.875182,,enterprise,http://api.map.baidu.com/place/detail?uid=2518555ef16fda4ab35c6aa4&output=html&source=placeapi_v2,,,,,,,,,,,,,,,,,,,,0
cb5e9618431620abf8f0cbf2,上海营营对虾养殖场,公司企业,农林园艺,上海市,上海市,奉贤区,上海市奉贤区寺胡路,,1,0,121.440658,30.871379,,enterprise,http://api.map.baidu.com/place/detail?uid=cb5e9618431620abf8f0cbf2&output=html&source=placeapi_v2,,,,,,,,,,,,,,,,,,,,0
198c42b8ee63bbbfe31103cb,胡桥良种场,公司企业,农林园艺,上海市,上海市,奉贤区,上海市奉贤区观工路与寺胡路交叉路口往西约210米,198c42b8ee63bbbfe31103cb,1,0,121.439182,30.854743,,enterprise,http://api.map.baidu.com/place/detail?uid=198c42b8ee63bbbfe31103cb&output=html&source=placeapi_v2,,,,,,,,,,,,,,,,,,121.43918723181,30.854374399754,0
6ad334870acc22f907fef599,上海博麒花卉种植合作社,公司企业,农林园艺,上海市,上海市,奉贤区,上海市奉贤区浦卫公路,,1,0,121.429889,30.869658,,enterprise,http://api.map.baidu.com/place/detail?uid=6ad334870acc22f907fef599&output=html&source=placeapi_v2,,,,,,,,,,,,,,,,,,,,0
00f152bbaa30bcb322f01768,上海余静农业机械有限公司,公司企业,农林园艺,上海市,上海市,奉贤区,上海市奉贤区平林支路3号b座,00f152bbaa30bcb322f01768,1,0,121.489837,30.882842,18616660399,enterprise,http://api.map.baidu.com/place/detail?uid=00f152bbaa30bcb322f01768&output=html&source=placeapi_v2,,,5.0,,,,,,,,2,,,,,,,121.48988856226,30.882714285985,0
1636bc1064cb0c293a04b1a9,自由鱼塘,公司企业,农林园艺,上海市,上海市,奉贤区,兴裕路北50米,1636bc1064cb0c293a04b1a9,1,1,121.505759,30.866844,,enterprise,http://api.map.baidu.com/place/detail?uid=1636bc1064cb0c293a04b1a9&output=html&source=placeapi_v2,,,,,,,,,,,,,,,,,,,,1
1ede17309e400d0841d63ef2,上海莲道农业发展有限公司(东方美谷莲花基地),公司企业,农林园艺,上海市,上海市,奉贤区,上海市奉贤区前胜路689号,,1,0,121.475422,30.865214,18521094189,enterprise,http://api.map.baidu.com/place/detail?uid=1ede17309e400d0841d63ef2&output=html&source=placeapi_v2,,,,,,,,,,,,,,,,,,,,0
bc0e8772b4ed796d88db7396,上海巢杰粮食种植专业合作社,公司企业,农林园艺,上海市,上海市,奉贤区,上海市奉贤区钱桥路与钱桥一支路交叉路口往西约220米,,1,0,121.539422,30.869035,13801644753,enterprise,http://api.map.baidu.com/place/detail?uid=bc0e8772b4ed796d88db7396&output=html&source=placeapi_v2,,,,,,,,,,,,,,,,,,,,0
20aa572721e98b72e812e4a6,上海梁森景观绿化有限公司,公司企业,农林园艺,上海市,上海市,奉贤区,上海市奉贤区钱桥一支路96号,,1,0,121.541196,30.870243,,enterprise,http://api.map.baidu.com/place/detail?uid=20aa572721e98b72e812e4a6&output=html&source=placeapi_v2,,,,,,,,,,,,,,,,,,121.54125534127,30.870267671207,0
6b1bfbd682797a30f82d614e,上海农得利农业生产资料有限公司,公司企业,农林园艺,上海市,上海市,奉贤区,上海市奉贤区振水路文化新村(长丰路),,1,0,121.548366,30.879444,,enterprise,http://api.map.baidu.com/place/detail?uid=6b1bfbd682797a30f82d614e&output=html&source=placeapi_v2,,,,,,,,,,,,,,,,,,,,0
0624e5662605eaf97bb55c5b,上海海驰虾业养殖专业合作社,公司企业,农林园艺,上海市,上海市,奉贤区,上海市奉贤区奉柘公路3800号,0624e5662605eaf97bb55c5b,1,1,121.521523,30.856377,,enterprise,http://api.map.baidu.com/place/detail?uid=0624e5662605eaf97bb55c5b&output=html&source=placeapi_v2,,,,,,,,,,,,,,,,,,121.52169885663,30.85631460354,1
0069e4b4ac280659bb17e7f3,上海温瑞果蔬种植专业合作社,公司企业,农林园艺,上海市,上海市,奉贤区,上海市奉贤区西湾中心路799号西湾,0069e4b4ac280659bb17e7f3,1,0,121.515355,30.863321,,enterprise,http://api.map.baidu.com/place/detail?uid=0069e4b4ac280659bb17e7f3&output=html&source=placeapi_v2,,,,,,,,,,,,,,,,,,,,0
17b9aa5b30f865421576437f,安食尚农场,公司企业,农林园艺,上海市,上海市,奉贤区,上海市奉贤区金海支路与金海公路交叉路口往南约120米,17b9aa5b30f865421576437f,1,0,121.515616,30.866641,15901774658,enterprise,http://api.map.baidu.com/place/detail?uid=17b9aa5b30f865421576437f&output=html&source=placeapi_v2,,,,,,,,,,,,,,,,,,121.51595403209,30.866712922184,0
0cd416a170b1728bca29156d,上海佰跃农场,公司企业,农林园艺,上海市,上海市,奉贤区,上海市奉贤区西湾中心路与张奉路交叉路口往东约80米,,1,0,121.515536,30.863261,,enterprise,http://api.map.baidu.com/place/detail?uid=0cd416a170b1728bca29156d&output=html&source=placeapi_v2,,,,,,,,,,,,,,,,,,,,0
8f640e56f2edaf9a4f5547bb,上海鹏观演艺设备有限公司,公司企业,农林园艺,上海市,上海市,奉贤区,上海市奉贤区海兴路1593号,8f640e56f2edaf9a4f5547bb,1,0,121.583371,30.863978,18857286287,enterprise,http://api.map.baidu.com/place/detail?uid=8f640e56f2edaf9a4f5547bb&output=html&source=placeapi_v2,,,0.0,,,,,,,,0,,,,,,,121.58297417358,30.86417174685,0
eef2d528f9b70aa43be4a650,上海市星火奶牛一场,公司企业,农林园艺,上海市,上海市,奉贤区,上海市奉贤区海兴路1458号,eef2d528f9b70aa43be4a650,1,1,121.584622,30.865516,,enterprise,http://api.map.baidu.com/place/detail?uid=eef2d528f9b70aa43be4a650&output=html&source=placeapi_v2,,,,,,,,,,,,,,,,,,121.58512021916,30.865669931474,1
b8690f0ee32d7c76dc1e52ec,上海乐贤农产品种植专业合作社,公司企业,农林园艺,上海市,上海市,奉贤区,上海市奉贤区南横河路417号,,1,0,121.576185,30.879672,13681932245,enterprise,http://api.map.baidu.com/place/detail?uid=b8690f0ee32d7c76dc1e52ec&output=html&source=placeapi_v2,,07:00-17:00,0.0,,,,,,,,1,,,,,,,,,0
7165c71242df0e9722f0175c,光明食品集团食用菌生产基地,公司企业,农林园艺,上海市,上海市,奉贤区,上海市奉贤区海振路1719号,7165c71242df0e9722f0175c,1,0,121.579119,30.876874,,enterprise,http://api.map.baidu.com/place/detail?uid=7165c71242df0e9722f0175c&output=html&source=placeapi_v2,,,,,,,,,,,,,,,,,,,,0
d4c23481f3d881282ce67b50,星辉奶油草莓基地,公司企业,农林园艺,上海市,上海市,奉贤区,上海市奉贤区海兴路1015号1013号,,1,0,121.595946,30.86686,15221605766,enterprise,http://api.map.baidu.com/place/detail?uid=d4c23481f3d881282ce67b50&output=html&source=placeapi_v2,,,,,,,,,,,,,,,,,,121.59622658013,30.866916389686,0
cedda556cb6aaaf788b9885d,上海凌昌园林绿化有限公司,公司企业,农林园艺,上海市,上海市,奉贤区,上海市奉贤区青村镇桃园村1007号,,1,0,121.576688,30.885243,13585558018,enterprise,http://api.map.baidu.com/place/detail?uid=cedda556cb6aaaf788b9885d&output=html&source=placeapi_v2,0.0,,,,,,,,,,,,,,,,,,,0
e96b4420ed09592782288a4c,海客乐星辉有机田园,公司企业,农林园艺,上海市,上海市,奉贤区,上海市奉贤区海振路1465号,e96b4420ed09592782288a4c,1,0,121.582563,30.87887,,enterprise,http://api.map.baidu.com/place/detail?uid=e96b4420ed09592782288a4c&output=html&source=placeapi_v2,,,0,,,,,,,,0,,,,,,,121.58246593388,30.879049903988,0
669775d04d290325fc0eb0a8,上海星火奶牛二场,公司企业,农林园艺,上海市,上海市,奉贤区,上海市奉贤区海农公路606号,669775d04d290325fc0eb0a8,1,0,121.578508,30.850719,,enterprise,http://api.map.baidu.com/place/detail?uid=669775d04d290325fc0eb0a8&output=html&source=placeapi_v2,,,,,,,,,,,,,,,,,,121.57832132653,30.850747822478,0
54ba21417d9af8843be4a6e8,上海巧丰莲藕种植场,公司企业,农林园艺,上海市,上海市,奉贤区,上海市奉贤区海华路15连4号,,1,0,121.608602,30.852309,,enterprise,http://api.map.baidu.com/place/detail?uid=54ba21417d9af8843be4a6e8&output=html&source=placeapi_v2,,,,,,,,,,,,,,,,,,,,0
d233d2e1e4b311517c29bd22,上海崎儒水产专业合作社,公司企业,农林园艺,上海市,上海市,奉贤区,上海市奉贤区奉城镇护民村护海201号,,1,0,121.651339,30.870526,,enterprise,http://api.map.baidu.com/place/detail?uid=d233d2e1e4b311517c29bd22&output=html&source=placeapi_v2,,,,,,,,,,,,,,,,,,121.6511785638,30.870467879552,0
f3181f751f62340014c8f669,星火特种水产养殖场,公司企业,农林园艺,上海市,上海市,奉贤区,上海市奉贤区海湾镇海中路376号(驾驶员第一培训中心西边),f3181f751f62340014c8f669,1,1,121.648587,30.85582,,enterprise,http://api.map.baidu.com/place/detail?uid=f3181f751f62340014c8f669&output=html&source=placeapi_v2,,,,,,,,,,,,,,,,,,121.64857705667,30.855944466121,1
7b12ded1ad8f46af2902e16a,上海奉贤海水养殖场,公司企业,农林园艺,上海市,上海市,奉贤区,上海市奉贤区海马路北150米,7b12ded1ad8f46af2902e16a,1,0,121.708359,30.856941,,enterprise,http://api.map.baidu.com/place/detail?uid=7b12ded1ad8f46af2902e16a&output=html&source=placeapi_v2,,,5,,,,,,,,1,,,,,,,121.70886252719,30.857012192063,0
01783f5f2090d5f9316212ab,上海市农工商现代农业园区开发有限公司,公司企业,农林园艺,上海市,上海市,奉贤区,上海市奉贤区五四公路2600号,01783f5f2090d5f9316212ab,1,0,121.718625,30.879315,(021)57162593,enterprise,http://api.map.baidu.com/place/detail?uid=01783f5f2090d5f9316212ab&output=html&source=placeapi_v2,,,0,,,,,,,,0,,,,,,,121.71854494906,30.87919555556,0
6dcdd0c1ef4624682a02e1a5,上海桑磊蔬果种植专业合作社,公司企业,农林园艺,上海市,上海市,奉贤区,上海市奉贤区五四农场九连,,1,0,121.722549,30.873804,15900793982,enterprise,http://api.map.baidu.com/place/detail?uid=6dcdd0c1ef4624682a02e1a5&output=html&source=placeapi_v2,,08:00-18:00,,,,,,,,,,,,,,,,,,0
10004aa09e0fde5c047ce891,五四八队园艺场,公司企业,农林园艺,上海市,上海市,奉贤区,上海市奉贤区五四公路上海奉贤民办福星小学西北侧约80米,,1,0,121.710687,30.880261,,enterprise,http://api.map.baidu.com/place/detail?uid=10004aa09e0fde5c047ce891&output=html&source=placeapi_v2,,,,,,,,,,,,,,,,,,121.71061768051,30.880267424574,0
5a13dd73587c9e1d940319ba,海四象培兴农业科技发展有限公司仙人掌种植基地,公司企业,农林园艺,上海市,上海市,奉贤区,五四公路南50米,5a13dd73587c9e1d940319ba,1,0,121.704807,30.879419,,enterprise,http://api.map.baidu.com/place/detail?uid=5a13dd73587c9e1d940319ba&output=html&source=placeapi_v2,,,,,,,,,,,,,,,,,,,,0
9113f57d69cf8a940782c2b9,申洁奶牛场,公司企业,农林园艺,上海市,上海市,奉贤区,海湾镇五四农场6队,,1,0,121.707196,30.885453,,enterprise,http://api.map.baidu.com/place/detail?uid=9113f57d69cf8a940782c2b9&output=html&source=placeapi_v2,,,,,,,,,,,,,,,,,,121.70720499991,30.885573961706,0
ed36abb6f9a4f4203010affc,上海光明荷斯坦五四奶牛场,公司企业,农林园艺,上海市,上海市,奉贤区,上海市奉贤区五四公路3701号,,1,1,121.696145,30.878424,,enterprise,http://api.map.baidu.com/place/detail?uid=ed36abb6f9a4f4203010affc&output=html&source=placeapi_v2,,,,,,,,,,,,,,,,,,,,1
6ee0102084ab5fee52e5c53c,上海博露农业有限公司,公司企业,农林园艺,上海市,上海市,奉贤区,上海市奉贤区场中路333号,6ee0102084ab5fee52e5c53c,1,2,121.736874,30.862996,(021)57160448,enterprise,http://api.map.baidu.com/place/detail?uid=6ee0102084ab5fee52e5c53c&output=html&source=placeapi_v2,,,,,,,,,,,,,,,,,,121.73691640166,30.862571542888,2
8fde79cccc796fbc95ca0753,上海市五四农场,公司企业,农林园艺,上海市,上海市,奉贤区,上海市奉贤区五四公路五四农场,8fde79cccc796fbc95ca0753,1,0,121.739027,30.872284,(021)57162900,enterprise,http://api.map.baidu.com/place/detail?uid=8fde79cccc796fbc95ca0753&output=html&source=placeapi_v2,,09:00-21:00,3.6,,,,,,,,5,,,,,,,121.738964337,30.872098312289,0
8d9517e7bce5796ab320a87b,上海佳农奇异果实业有限公司,公司企业,农林园艺,上海市,上海市,奉贤区,上海市奉贤区正博路1881号,,1,0,121.756362,30.882304,,enterprise,http://api.map.baidu.com/place/detail?uid=8d9517e7bce5796ab320a87b&output=html&source=placeapi_v2,,,,,,,,,,,,,,,,,,,,0
974b58bbe05dbfc281a12e8b,芦潮港农场,公司企业,农林园艺,上海市,上海市,浦东新区,上海市浦东新区潮乐路f区46号,,1,0,121.807251,30.86509,,enterprise,http://api.map.baidu.com/place/detail?uid=974b58bbe05dbfc281a12e8b&output=html&source=placeapi_v2,,,,,,,,,,,,,,,,,,,,0
e2d93e43b3a34a7f52e5c528,金枫园艺,公司企业,农林园艺,上海市,上海市,金山区,万新路与朱泾万安街交叉口北200米,,1,0,121.153545,30.904078,13162964235,enterprise,http://api.map.baidu.com/place/detail?uid=e2d93e43b3a34a7f52e5c528&output=html&source=placeapi_v2,,,,,,,,,,,,,,,,,,,,0
6ed3083afbba07c92b3a9f5f,上海建宇水稻种植专业合作社,公司企业,农林园艺,上海市,上海市,金山区,上海市金山区朱平公路7939号,,1,0,121.150971,30.894902,(021)57308622,enterprise,http://api.map.baidu.com/place/detail?uid=6ed3083afbba07c92b3a9f5f&output=html&source=placeapi_v2,,,,,,,,,,,,,,,,,,121.15097319868,30.894179686102,0
a76f9f39ea7a3eda16764375,上海康丰水稻种植专业合作社,公司企业,农林园艺,上海市,上海市,金山区,上海市金山区朱平公路5666号,,1,0,121.151703,30.88993,13061795025,enterprise,http://api.map.baidu.com/place/detail?uid=a76f9f39ea7a3eda16764375&output=html&source=placeapi_v2,,,,,,,,,,,,,,,,,,121.15169548392,30.890085847539,0
a174c54ea951b4792806cef1,上海市松江区泖丰瓜果专业合作社,公司企业,农林园艺,上海市,上海市,松江区,上海市松江区,,1,0,121.144442,30.914265,,enterprise,http://api.map.baidu.com/place/detail?uid=a174c54ea951b4792806cef1&output=html&source=placeapi_v2,,,,,,,,,,,,,,,,,,121.14452037645,30.914580367573,0
bd2d52bcffc46b9658f6becc,幸福村堆场,公司企业,农林园艺,上海市,上海市,金山区,上海市金山区金廊公路与中发路交叉路口往西北约110米,,1,0,121.189588,30.90496,,enterprise,http://api.map.baidu.com/place/detail?uid=bd2d52bcffc46b9658f6becc&output=html&source=placeapi_v2,,,,,,,,,,,,,,,,,,121.19043104992,30.904848111551,0
a5d84d9f552a7691c27da285,上海伟业园艺,公司企业,农林园艺,上海市,上海市,金山区,上海市金山区松金公路5790号,,1,0,121.247569,30.911649,17730060093,enterprise,http://api.map.baidu.com/place/detail?uid=a5d84d9f552a7691c27da285&output=html&source=placeapi_v2,,00:00-23:55,,,,,,,,,,,,,,,,,,0
c0395d263d046ccff42310c3,上海高宏园艺有限公司,公司企业,农林园艺,上海市,上海市,金山区,上海市金山区松金公路5790号,,1,0,121.245358,30.912149,"13918780850,18939776318",enterprise,http://api.map.baidu.com/place/detail?uid=c0395d263d046ccff42310c3&output=html&source=placeapi_v2,,,,,,,,,,,,,,,,,,121.24504939214,30.912088560104,0
e0393c770aafe33b51e5c564,淑梦园艺,公司企业,农林园艺,上海市,上海市,金山区,上海市金山区松金公路5790号,e0393c770aafe33b51e5c564,1,0,121.24384,30.913858,13671670661,enterprise,http://api.map.baidu.com/place/detail?uid=e0393c770aafe33b51e5c564&output=html&source=placeapi_v2,,00:00-24:00,5.0,,,,,,,,1,,,,,,,,,0
bd95b9e80cfccceb9b68b4f8,上海德诚金农业有限公司,公司企业,农林园艺,上海市,上海市,金山区,上海市金山区中心路22~26号3楼,bd95b9e80cfccceb9b68b4f8,1,0,121.244401,30.894414,13524943382,enterprise,http://api.map.baidu.com/place/detail?uid=bd95b9e80cfccceb9b68b4f8&output=html&source=placeapi_v2,,,,,,,,,,,,,,,,,,121.24423249377,30.894421980028,0
95f25242b40ef9bc3c9a5e5b,上海欣豪园艺花木有限公司,公司企业,农林园艺,上海市,上海市,金山区,上海市金山区X019(松金公路),,1,0,121.246914,30.911889,"13817205116,18701879208",enterprise,http://api.map.baidu.com/place/detail?uid=95f25242b40ef9bc3c9a5e5b&output=html&source=placeapi_v2,,,,,,,,,,,,,,,,,,,,0
c6abea63e291d3ce704b8730,上海君珍园林绿化有限公司,公司企业,农林园艺,上海市,上海市,金山区,上海市金山区松金公路5790号,,1,0,121.249627,30.910744,,enterprise,http://api.map.baidu.com/place/detail?uid=c6abea63e291d3ce704b8730&output=html&source=placeapi_v2,,,5,,,,,,,,2,,,,,,,,,0
dcc4796f940163f1441a3295,上海飞隆水产养殖专业合作社,公司企业,农林园艺,上海市,上海市,金山区,上海市金山区亭林镇竹亭南路128号(金明村6组),,1,0,121.279486,30.903072,13601899600,enterprise,http://api.map.baidu.com/place/detail?uid=dcc4796f940163f1441a3295&output=html&source=placeapi_v2,,,,,,,,,,,,,,,,,,,,0
55d33d9cbba85b4eb21e36ec,亭轩园艺,公司企业,农林园艺,上海市,上海市,金山区,上海市金山区车亭公路3228号,,1,0,121.328163,30.911381,,enterprise,http://api.map.baidu.com/place/detail?uid=55d33d9cbba85b4eb21e36ec&output=html&source=placeapi_v2,,,,,,,,,,,,,,,,,,,,0
502facc18d0e7120d1f49e93,江苏如皋意亮花木园艺场,公司企业,农林园艺,上海市,上海市,金山区,上海市金山区车亭公路康宁嘉园南侧约220米,502facc18d0e7120d1f49e93,1,0,121.329363,30.907033,"13681966951,13813640485",enterprise,http://api.map.baidu.com/place/detail?uid=502facc18d0e7120d1f49e93&output=html&source=placeapi_v2,,,,,,,,,,,,,,,,,,121.3295455517,30.907051611266,0
d77f9e32eb5d2f27a0acc46e,上海显梁园艺工程有限公司,公司企业,农林园艺,上海市,上海市,金山区,上海市金山区南亭公路6232弄99号1幢,d77f9e32eb5d2f27a0acc46e,1,0,121.33051,30.890416,,enterprise,http://api.map.baidu.com/place/detail?uid=d77f9e32eb5d2f27a0acc46e&output=html&source=placeapi_v2,,,,,,,,,,,,,,,,,,,,0
eb15a37468f7e05cf4eafcb5,传兵葡萄种植基地,公司企业,农林园艺,上海市,上海市,金山区,上海市金山区亭枫公路与松金公路交叉路口往北约200米,,1,0,121.3143,30.895928,13764771089,enterprise,http://api.map.baidu.com/place/detail?uid=eb15a37468f7e05cf4eafcb5&output=html&source=placeapi_v2,,,,,,,,,,,1,,,,,,,,,0
74b2d26cc8b1124116a1900a,金山区生猪总公司亭林钟猪场,公司企业,农林园艺,上海市,上海市,金山区,上海市金山区南亭公路上海体育学院附属金山亭林中学东南侧约160米,74b2d26cc8b1124116a1900a,1,0,121.325413,30.884755,,enterprise,http://api.map.baidu.com/place/detail?uid=74b2d26cc8b1124116a1900a&output=html&source=placeapi_v2,,,,,,,,,,,,,,,,,,,,0
e79a5780d1e395424e3a596b,孵化基地,公司企业,农林园艺,上海市,上海市,金山区,上海市金山区大亭公路上海电器城,,1,0,121.339772,30.89954,,enterprise,http://api.map.baidu.com/place/detail?uid=e79a5780d1e395424e3a596b&output=html&source=placeapi_v2,,,,,,,,,,,,,,,,,,,,0
72ad0ca102ae67b5631c67ad,上海市农业科学院畜牧试验场,公司企业,农林园艺,上海市,上海市,奉贤区,上海市奉贤区南亭公路与杨韭方徊媛房谕西约200米,,1,1,121.380469,30.901064,,enterprise,http://api.map.baidu.com/place/detail?uid=72ad0ca102ae67b5631c67ad&output=html&source=placeapi_v2,,,,,,,,,,,,,,,,,,,,1
8b8e61083558e6734d2fdfee,上海金门种子有限公司繁种基地,公司企业,农林园艺,上海市,上海市,奉贤区,上海市奉贤区南亭公路与杨存路交叉路口往东约200米,,1,0,121.379626,30.900612,,enterprise,http://api.map.baidu.com/place/detail?uid=8b8e61083558e6734d2fdfee&output=html&source=placeapi_v2,,,,,,,,,,,,,,,,,,,,0
1ef2fa54aed9201994ec8421,绿廊园艺,公司企业,农林园艺,上海市,上海市,奉贤区,上海市奉贤区步韵路庄行商贸广场,,1,0,121.405954,30.9062,,enterprise,http://api.map.baidu.com/place/detail?uid=1ef2fa54aed9201994ec8421&output=html&source=placeapi_v2,,,,,,,,,,,,,,,,,,,,0
9452bb6d544c70d3c4f50de3,简艺景观园林,公司企业,农林园艺,上海市,上海市,奉贤区,庄北路350号附近,9452bb6d544c70d3c4f50de3,1,1,121.397584,30.914226,,enterprise,http://api.map.baidu.com/place/detail?uid=9452bb6d544c70d3c4f50de3&output=html&source=placeapi_v2,,,,,,,,,,,,,,,,,,121.39753659885,30.914023071089,1
787b9897aae62a8642d63e85,上海市农业园区庄行生态蜜梨种植基地,公司企业,农林园艺,上海市,上海市,奉贤区,上海市奉贤区庄良路781号g1501,787b9897aae62a8642d63e85,1,1,121.404818,30.89351,"15001846501,15821192195",enterprise,http://api.map.baidu.com/place/detail?uid=787b9897aae62a8642d63e85&output=html&source=placeapi_v2,,,,,,,,,,,,,,,,,,121.40478426967,30.893601559477,1
eb3675037c1bc86501ec01ad,景瑞农业奉贤蔬菜园艺场,公司企业,农林园艺,上海市,上海市,奉贤区,上海市奉贤区大亭公路,eb3675037c1bc86501ec01ad,1,1,121.387933,30.897109,,enterprise,http://api.map.baidu.com/place/detail?uid=eb3675037c1bc86501ec01ad&output=html&source=placeapi_v2,,,4.0,,,,,,,,1,,,,,,,121.38689106142,30.895966139314,1
885124602d24bcf1f12d8324,慢生活农场,公司企业,农林园艺,上海市,上海市,奉贤区,上海市奉贤区庄良公路花米庄行景区,,1,0,121.40431,30.891721,18916134067,enterprise,http://api.map.baidu.com/place/detail?uid=885124602d24bcf1f12d8324&output=html&source=placeapi_v2,,,,,,,,,,,,,,,,,,,,0
3aaf7d2d9122af3428b97caf,乐田家庭农场,公司企业,农林园艺,上海市,上海市,奉贤区,上海市奉贤区庄行镇大亭公路999号,3aaf7d2d9122af3428b97caf,1,1,121.396712,30.89682,,enterprise,http://api.map.baidu.com/place/detail?uid=3aaf7d2d9122af3428b97caf&output=html&source=placeapi_v2,,10:00-20:00,0,,,,,,,,0,,,,,,,121.39538956065,30.896345011035,1
d249104097e50e136fc02c33,上海明骏虾业养殖专业合作社,公司企业,农林园艺,上海市,上海市,奉贤区,上海市奉贤区庄行镇潘南村,d249104097e50e136fc02c33,1,0,121.397531,30.88711,,enterprise,http://api.map.baidu.com/place/detail?uid=d249104097e50e136fc02c33&output=html&source=placeapi_v2,,,,,,,,,,,,,,,,,,,,0
6e790a9b89c3fe8e16c905bf,上海明娣绿化发展有限公司,公司企业,农林园艺,上海市,上海市,奉贤区,上海市奉贤区三民路丽水湾东门西南侧约30米,,1,0,121.397136,30.906024,,enterprise,http://api.map.baidu.com/place/detail?uid=6e790a9b89c3fe8e16c905bf&output=html&source=placeapi_v2,,,,,,,,,,,,,,,,,,,,0
beae23a6a017ef8d4107c1c4,上海群平果蔬种植专业合作社,公司企业,农林园艺,上海市,上海市,奉贤区,上海市奉贤区南庄路与东穗路交叉路口南侧,,1,0,121.418569,30.893176,,enterprise,http://api.map.baidu.com/place/detail?uid=beae23a6a017ef8d4107c1c4&output=html&source=placeapi_v2,,,,,,,,,,,,,,,,,,121.4185356822,30.893312229352,0
d219bb1d9b4c0e8af50e773b,上海奉贤金冠蜜梨种植园,公司企业,农林园艺,上海市,上海市,奉贤区,上海市奉贤区潘垫路245号524号,d219bb1d9b4c0e8af50e773b,1,1,121.411251,30.888033,,enterprise,http://api.map.baidu.com/place/detail?uid=d219bb1d9b4c0e8af50e773b&output=html&source=placeapi_v2,,,0,,,,,,,,0,,,,,,,121.41118185955,30.888126080592,1
b17dbcc95e1c841eabf0cd10,上海盛垂蔬种植专业合作社,公司企业,农林园艺,上海市,上海市,奉贤区,上海市奉贤区潘垫北路花米庄行景区,,1,1,121.403933,30.891096,,enterprise,http://api.map.baidu.com/place/detail?uid=b17dbcc95e1c841eabf0cd10&output=html&source=placeapi_v2,,,,,,,,,,,,,,,,,,121.40411767126,30.891133288749,1
b96cea0c2a1610f9932ca3e4,上海丰瑞蔬菜种植专业合作社,公司企业,农林园艺,上海市,上海市,奉贤区,上海市奉贤区浦卫公路5166号,,1,0,121.421439,30.901448,,enterprise,http://api.map.baidu.com/place/detail?uid=b96cea0c2a1610f9932ca3e4&output=html&source=placeapi_v2,,,,,,,,,,,,,,,,,,,,0
bfb3ecd09baa2658f82d61e9,上海秋淞园艺场,公司企业,农林园艺,上海市,上海市,奉贤区,上海市奉贤区南桥镇江海村1138号,,1,0,121.44883,30.907227,,enterprise,http://api.map.baidu.com/place/detail?uid=bfb3ecd09baa2658f82d61e9&output=html&source=placeapi_v2,,,,,,,,,,,,,,,,,,,,0
19053a01ce078c8fc41b7593,上海江氏园林景观工程有限公司,公司企业,农林园艺,上海市,上海市,奉贤区,上海市奉贤区八一路与江海南路交叉路口往西南约70米,,1,0,121.468306,30.899215,,enterprise,http://api.map.baidu.com/place/detail?uid=19053a01ce078c8fc41b7593&output=html&source=placeapi_v2,,,5.0,,,,,,,,2,,,,,,,,,0
132f930414926a453be4a68e,江南美谷养殖基地,公司企业,农林园艺,上海市,上海市,奉贤区,上海市奉贤区五星中心路8号,,1,0,121.441598,30.888459,13816283222,enterprise,http://api.map.baidu.com/place/detail?uid=132f930414926a453be4a68e&output=html&source=placeapi_v2,,,,,,,,,,,,,,,,,,121.44161384155,30.888399340376,0
ab9dd77f6746f5a8ede4a532,上海玺爱农产品专业合作社,公司企业,农林园艺,上海市,上海市,奉贤区,上海市奉贤区沪杭公路延安中心路1245号,ab9dd77f6746f5a8ede4a532,1,0,121.455785,30.888142,,enterprise,http://api.map.baidu.com/place/detail?uid=ab9dd77f6746f5a8ede4a532&output=html&source=placeapi_v2,,,,,,,,,,,,,,,,,,121.45562103313,30.888203557462,0
809623e812f2ee29c51e515d,上海华御农业种植专业合作社,公司企业,农林园艺,上海市,上海市,奉贤区,上海市奉贤区杨王二路与杨王一路交叉路口南侧,809623e812f2ee29c51e515d,1,1,121.493694,30.902118,,enterprise,http://api.map.baidu.com/place/detail?uid=809623e812f2ee29c51e515d&output=html&source=placeapi_v2,,,,,,,,,,,,,,,,,,,,1
1cefa97d2de602fb73210b84,上海芳坊园林景观工程有限公司,公司企业,农林园艺,上海市,上海市,奉贤区,上海市奉贤区六墩村红星1217号临,1cefa97d2de602fb73210b84,1,1,121.479907,30.903447,,enterprise,http://api.map.baidu.com/place/detail?uid=1cefa97d2de602fb73210b84&output=html&source=placeapi_v2,,,,,,,,,,,,,,,,,,121.47992019717,30.903395548161,1
d49ebbbba1e099a3c61b75a4,上海古华公园发展有限公司苗圃,公司企业,农林园艺,上海市,上海市,奉贤区,X435(南桥环城东路),,1,0,121.480208,30.903559,,enterprise,http://api.map.baidu.com/place/detail?uid=d49ebbbba1e099a3c61b75a4&output=html&source=placeapi_v2,,,,,,,,,,,,,,,,,,,,0
da7ac1590029823dfea77841,园林景观,公司企业,农林园艺,上海市,上海市,奉贤区,上海市奉贤区金海公路杨王苑西门北侧约60米,,1,0,121.508732,30.896883,,enterprise,http://api.map.baidu.com/place/detail?uid=da7ac1590029823dfea77841&output=html&source=placeapi_v2,,,,,,,,,,,,,,,,,,121.5084326575,30.89685163053,0
f08e7195697f04c6f7231039,上海城投绿化科技发展有限公司北场,公司企业,农林园艺,上海市,上海市,奉贤区,上海市奉贤区,f08e7195697f04c6f7231039,1,0,121.540978,30.895921,,enterprise,http://api.map.baidu.com/place/detail?uid=f08e7195697f04c6f7231039&output=html&source=placeapi_v2,,,0.0,,,,,,,,1,,,,,,,,,0
7de200205e73e600d4851fa1,上海城投绿化科技发展有限公司(南场),公司企业,农林园艺,上海市,上海市,奉贤区,X412(金钱公路),,1,0,121.53734,30.893452,,enterprise,http://api.map.baidu.com/place/detail?uid=7de200205e73e600d4851fa1&output=html&source=placeapi_v2,,,5.0,,,,,,,,1,,,,,,,,,0
f46791a5de75dffd36b06c92,上海贤风蔬菜育苗场,公司企业,农林园艺,上海市,上海市,奉贤区,上海市奉贤区贤风蔬菜育苗场(竹中路西),,1,0,121.552235,30.892281,,enterprise,http://api.map.baidu.com/place/detail?uid=f46791a5de75dffd36b06c92&output=html&source=placeapi_v2,,,,,,,,,,,,,,,,,,,,0
cedda556cb6aaaf788b9885d,上海凌昌园林绿化有限公司,公司企业,农林园艺,上海市,上海市,奉贤区,上海市奉贤区青村镇桃园村1007号,,1,0,121.576688,30.885243,13585558018,enterprise,http://api.map.baidu.com/place/detail?uid=cedda556cb6aaaf788b9885d&output=html&source=placeapi_v2,0.0,,,,,,,,,,,,,,,,,,,0
29ed285b8dde22d1ecdfcaeb,上海金禾渔业申隆二村标准化基地,公司企业,农林园艺,上海市,上海市,奉贤区,沿钱公路与观光路交叉口南200米,29ed285b8dde22d1ecdfcaeb,1,1,121.564216,30.912729,,enterprise,http://api.map.baidu.com/place/detail?uid=29ed285b8dde22d1ecdfcaeb&output=html&source=placeapi_v2,,,,,,,,,,,,,,,,,,121.56451128247,30.912841095463,1
8def4da8bcb49090b6f42f2f,上海炎青粮食种植专业合作社,公司企业,农林园艺,上海市,上海市,奉贤区,上海市奉贤区盐青路9号盐行村村民委员会,,1,0,121.596907,30.896098,,enterprise,http://api.map.baidu.com/place/detail?uid=8def4da8bcb49090b6f42f2f&output=html&source=placeapi_v2,,,,,,,,,,,,,,,,,,,,0
3ed6ac8ea068a7977369d36c,钱忠村火龙果基地,公司企业,农林园艺,上海市,上海市,奉贤区,上海市奉贤区竹中路钱忠村,,1,0,121.561064,30.894211,,enterprise,http://api.map.baidu.com/place/detail?uid=3ed6ac8ea068a7977369d36c&output=html&source=placeapi_v2,,,0.0,,,,,,,,1,,,,,,,,,0
8dfae53b9a052a850ab93af7,双张果业种植专业合作社,公司企业,农林园艺,上海市,上海市,奉贤区,上海市奉贤区朱墩村团结613号,8dfae53b9a052a850ab93af7,1,0,121.609922,30.898356,,enterprise,http://api.map.baidu.com/place/detail?uid=8dfae53b9a052a850ab93af7&output=html&source=placeapi_v2,,,,,,,,,,,,,,,,,,,,0
404989658e165cdab35c6aaa,上海红艳山鸡孵化专业合作社,公司企业,农林园艺,上海市,上海市,奉贤区,奉城镇卫季村12组1246号,404989658e165cdab35c6aaa,1,1,121.610478,30.909386,(021)57170964,enterprise,http://api.map.baidu.com/place/detail?uid=404989658e165cdab35c6aaa&output=html&source=placeapi_v2,,,,,,,,,,,,,,,,,,121.61044698182,30.909376390811,1
d8304723d5c2c9fe93114ced,上海家彪蔬菜种植专业合作社,公司企业,农林园艺,上海市,上海市,奉贤区,上海市奉贤区奉城镇卫季村1241号,d8304723d5c2c9fe93114ced,1,0,121.606062,30.90933,15900982233,enterprise,http://api.map.baidu.com/place/detail?uid=d8304723d5c2c9fe93114ced&output=html&source=placeapi_v2,,,,,,,,,,,,,,,,,,,,0
04befcd664391c05bea240a3,上海茉萁粮食种植专业合作社,公司企业,农林园艺,上海市,上海市,奉贤区,上海市奉贤区奉城镇久茂村339号,,1,0,121.675284,30.900339,17702121375,enterprise,http://api.map.baidu.com/place/detail?uid=04befcd664391c05bea240a3&output=html&source=placeapi_v2,,,,,,,,,,,,,,,,,,121.67516245675,30.900305416532,0
8236cdf7e525ccb226d2bb19,上海铭辉农业科技有限公司,公司企业,农林园艺,上海市,上海市,奉贤区,上海市奉贤区新奉公路7505号,8236cdf7e525ccb226d2bb19,1,0,121.644743,30.908556,(021)37562312,enterprise,http://api.map.baidu.com/place/detail?uid=8236cdf7e525ccb226d2bb19&output=html&source=placeapi_v2,,,,,,,,,,,,,,,,,,121.64450350439,30.908506183786,0
ac34beefd9c033f42fb17e07,上海宝熠花卉种植专业合作社,公司企业,农林园艺,上海市,上海市,奉贤区,上海市奉贤区海民支路351号,ac34beefd9c033f42fb17e07,1,1,121.645532,30.899353,13918186435,enterprise,http://api.map.baidu.com/place/detail?uid=ac34beefd9c033f42fb17e07&output=html&source=placeapi_v2,,,5.0,,,,,,,,1,,,,,,,121.64554251239,30.899284289431,1
a3717b82f525c50616a1906c,上海伊雯水产养殖专业合作社,公司企业,农林园艺,上海市,上海市,奉贤区,上海市奉贤区海民一队146号,,1,0,121.648449,30.892898,13816397325,enterprise,http://api.map.baidu.com/place/detail?uid=a3717b82f525c50616a1906c&output=html&source=placeapi_v2,,00:00-24:00,,,,,,,,,,,,,,,,,,0
111d0ae640e955d9bbdf8f24,锦天园林有限公司,公司企业,农林园艺,上海市,上海市,奉贤区,上海市奉贤区平庄东路上海东篱竹隐民宿东北侧约190米,,1,0,121.71931,30.911591,,enterprise,http://api.map.baidu.com/place/detail?uid=111d0ae640e955d9bbdf8f24&output=html&source=placeapi_v2,,,,,,,,,,,,,,,,,,,,0
9113f57d69cf8a940782c2b9,申洁奶牛场,公司企业,农林园艺,上海市,上海市,奉贤区,海湾镇五四农场6队,,1,0,121.707196,30.885453,,enterprise,http://api.map.baidu.com/place/detail?uid=9113f57d69cf8a940782c2b9&output=html&source=placeapi_v2,,,,,,,,,,,,,,,,,,121.70720499991,30.885573961706,0
232ba4b275b7400276e5b624,上海玉标水产养殖专业合作社,公司企业,农林园艺,上海市,上海市,奉贤区,上海市奉贤区农展村102号,232ba4b275b7400276e5b624,1,0,121.721227,30.905824,,enterprise,http://api.map.baidu.com/place/detail?uid=232ba4b275b7400276e5b624&output=html&source=placeapi_v2,0.0,,,,,,,,,,,,,,,,,121.72120999334,30.905988505205,0
cd5a9e5805d6a1b6eb1e971f,彭镇农业合作社,公司企业,农林园艺,上海市,上海市,浦东新区,上海市浦东新区平庄东路新华新村,,1,0,121.802255,30.913623,,enterprise,http://api.map.baidu.com/place/detail?uid=cd5a9e5805d6a1b6eb1e971f&output=html&source=placeapi_v2,,,,,,,,,,,,,,,,,,,,0
945f29a66bbc5f3fe60738d2,上海绿和园艺有限公司,公司企业,农林园艺,上海市,上海市,松江区,上海市松江区叶新公路3696号,,1,0,121.137093,30.92935,,enterprise,http://api.map.baidu.com/place/detail?uid=945f29a66bbc5f3fe60738d2&output=html&source=placeapi_v2,0.0,,,,,,,,,,,,,,,,,121.13706223897,30.92923383146,0
1d3914f023b57b213010af93,森宇绿化苗圃,公司企业,农林园艺,上海市,上海市,松江区,上海市松江区东厍公路与齐心路交叉路口往南约220米,,1,0,121.148164,30.934907,18101880298,enterprise,http://api.map.baidu.com/place/detail?uid=1d3914f023b57b213010af93&output=html&source=placeapi_v2,,07:00-17:00,,,,,,,,,,,,,,,,,,0
f4343bf94001ff46f8dc8538,上海绿果蔬专业合作社(朱定公路),公司企业,农林园艺,上海市,上海市,松江区,上海市松江区朱定路358号,,1,1,121.155645,30.927882,,enterprise,http://api.map.baidu.com/place/detail?uid=f4343bf94001ff46f8dc8538&output=html&source=placeapi_v2,,,,,,,,,,,,,,,,,,,,1
559cf979086f1a04047ce81b,上海众建农业专业合作社,公司企业,农林园艺,上海市,上海市,松江区,上海市松江区朱定公路555号,,1,0,121.15603,30.927721,,enterprise,http://api.map.baidu.com/place/detail?uid=559cf979086f1a04047ce81b&output=html&source=placeapi_v2,,,,,,,,,,,,,,,,,,121.15583733796,30.927756038885,0
0fd4e66d5faa3aa1bfa240af,上海初耕农业科技发展有限公司,公司企业,农林园艺,上海市,上海市,松江区,上海市松江区西厍公路与渔场公路交叉路口往东约80米,,1,0,121.136953,30.929425,,enterprise,http://api.map.baidu.com/place/detail?uid=0fd4e66d5faa3aa1bfa240af&output=html&source=placeapi_v2,,,5.0,,,,,,,,2,,,,,,,,,0
08694e881fe447fa1811d58d,上海昶枥园林绿化有限公司,公司企业,农林园艺,上海市,上海市,松江区,上海市松江区叶新公路6088号,,1,0,121.147262,30.940382,,enterprise,http://api.map.baidu.com/place/detail?uid=08694e881fe447fa1811d58d&output=html&source=placeapi_v2,,,,,,,,,,,,,,,,,,,,0
10e38b989621a4409cf77988,爱迦俪玫瑰种植基地,公司企业,农林园艺,上海市,上海市,松江区,上海市松江区五朱公路88号,,1,1,121.144022,30.936233,,enterprise,http://api.map.baidu.com/place/detail?uid=10e38b989621a4409cf77988&output=html&source=placeapi_v2,,,,,,,,,,,,,,,,,,121.14393403987,30.936250077026,1
b98b83fd922656759cec2b48,上海鑫淼花卉种植有限公司,公司企业,农林园艺,上海市,上海市,松江区,上海市松江区五朱公路与中环公路交叉路口往北约80米,,1,0,121.143262,30.934361,,enterprise,http://api.map.baidu.com/place/detail?uid=b98b83fd922656759cec2b48&output=html&source=placeapi_v2,,,,,,,,,,,,,,,,,,,,0
4652313ebdd2da003617dc45,橙蓝生态森林农场,公司企业,农林园艺,上海市,上海市,松江区,上海市松江区朱定公路333号,4652313ebdd2da003617dc45,1,0,121.15312,30.91993,(021)57877007,enterprise,http://api.map.baidu.com/place/detail?uid=4652313ebdd2da003617dc45&output=html&source=placeapi_v2,,,,,,,,,,,,,,,,,,121.15332138096,30.919909161712,0
8bdf537de2932589882fb5c7,上海泖港葡萄良种园艺场,公司企业,农林园艺,上海市,上海市,松江区,上海市松江区五朱公路20号,,1,0,121.140477,30.921924,"(021)57878330,13918668755",enterprise,http://api.map.baidu.com/place/detail?uid=8bdf537de2932589882fb5c7&output=html&source=placeapi_v2,,05:00-17:00,,,,,,,,,,,,,,,,,,0
ba650a699f4c49979d9d68d4,上海太平洋禽蛋专业合作社,公司企业,农林园艺,上海市,上海市,松江区,上海市松江区中厍路333号,ba650a699f4c49979d9d68d4,1,1,121.147478,30.950589,,enterprise,http://api.map.baidu.com/place/detail?uid=ba650a699f4c49979d9d68d4&output=html&source=placeapi_v2,,,,,,,,,,,,,,,,,,121.14756512459,30.950606092932,1
c9d0ecb2ea9ad03fb04c4906,上海泖田湿地生态农业投资有限公司,公司企业,农林园艺,上海市,上海市,松江区,上海市松江区水产公路9号,,1,0,121.132274,30.935979,(021)57875333,life,http://api.map.baidu.com/place/detail?uid=c9d0ecb2ea9ad03fb04c4906&output=html&source=placeapi_v2,,,,,,,,,,4,1,,,,,,,121.13232883907,30.936080246322,0
5ea98dcb247f9a575d0d029b,上海保燕农业专业合作社,公司企业,农林园艺,上海市,上海市,松江区,上海市松江区掘石668号,,1,0,121.188968,30.932022,13918201524,enterprise,http://api.map.baidu.com/place/detail?uid=5ea98dcb247f9a575d0d029b&output=html&source=placeapi_v2,,,0.0,,,,,,,,,,,,,,,,,0
72e57fd7bb4742d1f8dc8545,上海为业种子繁育场,公司企业,农林园艺,上海市,上海市,松江区,上海市松江区中二路1999号,,1,0,121.184316,30.941361,,enterprise,http://api.map.baidu.com/place/detail?uid=72e57fd7bb4742d1f8dc8545&output=html&source=placeapi_v2,,,0,,,,,,,,0,,,,,,,121.18458897483,30.941354522868,0
af1a9d4e40b37d89ab059df3,上海汇民农业专业合作社,公司企业,农林园艺,上海市,上海市,松江区,上海市松江区腰泾公路1680号,,1,0,121.185821,30.939705,15821688662,enterprise,http://api.map.baidu.com/place/detail?uid=af1a9d4e40b37d89ab059df3&output=html&source=placeapi_v2,,,,,,,,,,,,,,,,,,121.185533102,30.939705745389,0
850870692b6ff89e3ce231fe,上海浦祥蔬菜专业合作社,公司企业,农林园艺,上海市,上海市,松江区,上海市松江区陆庄公路156号,,1,0,121.180896,30.946582,17765164547,enterprise,http://api.map.baidu.com/place/detail?uid=850870692b6ff89e3ce231fe&output=html&source=placeapi_v2,,,0.0,,,,,,,,1,,,,,,,121.18109537038,30.946583381356,0
a04e20e579494214c9fa5f28,佳惠园艺,公司企业,农林园艺,上海市,上海市,松江区,上海市松江区叶新公路806号,,1,0,121.25232,30.946655,"13162009282,13391326922",enterprise,http://api.map.baidu.com/place/detail?uid=a04e20e579494214c9fa5f28&output=html&source=placeapi_v2,,,0.0,,,,,,,,,,,,,,,,,0
82b3030b6c0b4958077ce8ca,新救馇莩,公司企业,农林园艺,上海市,上海市,松江区,上海市松江区叶榭镇泖港村兴艺公路善海寺西300米,,1,0,121.253537,30.941834,,enterprise,http://api.map.baidu.com/place/detail?uid=82b3030b6c0b4958077ce8ca&output=html&source=placeapi_v2,,,,,,,,,,,,,,,,,,,,0
124a105a6eeb00b8471a328e,上海泖盛绿化园林工程有限公司,公司企业,农林园艺,上海市,上海市,松江区,上海市松江区中天路655号,124a105a6eeb00b8471a328e,1,0,121.218687,30.941006,(021)57861472,enterprise,http://api.map.baidu.com/place/detail?uid=124a105a6eeb00b8471a328e&output=html&source=placeapi_v2,,,,,,,,,,,,,,,,,,121.21872713629,30.941014776098,0
2c27d509108f71c14254d7b3,鑫源园艺,公司企业,农林园艺,上海市,上海市,松江区,上海市松江区叶新公路801号803号,,1,0,121.265725,30.943803,13901608668,enterprise,http://api.map.baidu.com/place/detail?uid=2c27d509108f71c14254d7b3&output=html&source=placeapi_v2,,,,,,,,,,,,,,,,,,121.26557095425,30.943786600546,0
c7fb04bd943cb668fa0cad3d,上海禾佳园林园艺工程有限公司,公司企业,农林园艺,上海市,上海市,松江区,上海市松江区竹亭南路,c7fb04bd943cb668fa0cad3d,1,0,121.281702,30.919354,(021)33303316,enterprise,http://api.map.baidu.com/place/detail?uid=c7fb04bd943cb668fa0cad3d&output=html&source=placeapi_v2,0.0,,,,,,,,,,,,,,,,,121.28193610347,30.919974469934,0
ca27e9bf669907f331f71db1,晨灏园林绿化,公司企业,农林园艺,上海市,上海市,松江区,张泽镇南路1-7号附近,,1,0,121.283808,30.932809,,enterprise,http://api.map.baidu.com/place/detail?uid=ca27e9bf669907f331f71db1&output=html&source=placeapi_v2,,,,,,,,,,,,,,,,,,,,0
4ee72abce9d31d5759bbbc0e,茂飞园艺,公司企业,农林园艺,上海市,上海市,松江区,上海市松江区叶新公路802号,4ee72abce9d31d5759bbbc0e,1,0,121.266575,30.945407,13524975329,enterprise,http://api.map.baidu.com/place/detail?uid=4ee72abce9d31d5759bbbc0e&output=html&source=placeapi_v2,,,,,,,,,,,,,,,,,,,,0
38ce9c6154a50a4873210b89,雅芳园艺,公司企业,农林园艺,上海市,上海市,松江区,上海市松江区叶新公路与兴屋公路交叉路口往东约170米,,1,0,121.266875,30.945519,,enterprise,http://api.map.baidu.com/place/detail?uid=38ce9c6154a50a4873210b89&output=html&source=placeapi_v2,,,,,,,,,,,,,,,,,,,,0
678db469c83077395cbe864d,上海瑞心园艺,公司企业,农林园艺,上海市,上海市,松江区,上海市松江区叶新公路803号,678db469c83077395cbe864d,1,0,121.265377,30.944249,,enterprise,http://api.map.baidu.com/place/detail?uid=678db469c83077395cbe864d&output=html&source=placeapi_v2,,,,,,,,,,,,,,,,,,,,0
57e882d3d83f97d1b9df8f86,浦南苗木基地,公司企业,农林园艺,上海市,上海市,松江区,上海市松江区叶新公路789号,,1,0,121.272076,30.944639,(021)57883238,enterprise,http://api.map.baidu.com/place/detail?uid=57e882d3d83f97d1b9df8f86&output=html&source=placeapi_v2,,,,,,,,,,,,,,,,,,121.27207556828,30.944639239587,0
55f558341d953a92095cb328,三宝园林果树银杏批发基地,公司企业,农林园艺,上海市,上海市,松江区,上海市松江区叶新公路789号,,1,0,121.272753,30.944373,15964081598,enterprise,http://api.map.baidu.com/place/detail?uid=55f558341d953a92095cb328&output=html&source=placeapi_v2,,06:00-19:00,,,,,,,,,4,,,,,,,,,0
7563b0c98e682d14f82d61f6,上海佰明农机专业合作社,公司企业,农林园艺,上海市,上海市,松江区,上海市松江区大庙村385号,,1,0,121.269848,30.924456,,enterprise,http://api.map.baidu.com/place/detail?uid=7563b0c98e682d14f82d61f6&output=html&source=placeapi_v2,,,,,,,,,,,,,,,,,,,,0
ef5ec5ac42eb69ce5cd4feb9,贝玛农场,公司企业,农林园艺,上海市,上海市,松江区,上海市松江区叶繁路25号,,1,0,121.299571,30.93533,,enterprise,http://api.map.baidu.com/place/detail?uid=ef5ec5ac42eb69ce5cd4feb9&output=html&source=placeapi_v2,,,,,,,,,,,,,,,,,,,,0
9566d35c57bc659525d2bbaa,苗圃美萃园艺,公司企业,农林园艺,上海市,上海市,松江区,上海市松江区张星公路2号,,1,0,121.327693,30.938055,,enterprise,http://api.map.baidu.com/place/detail?uid=9566d35c57bc659525d2bbaa&output=html&source=placeapi_v2,,,,,,,,,,,,,,,,,,,,0
1befbe82da6b17abc9e33c48,上海凤婷绿化园艺工程有限公司,公司企业,农林园艺,上海市,上海市,松江区,上海市松江区叶校路325号,,1,0,121.32092,30.943666,,enterprise,http://api.map.baidu.com/place/detail?uid=1befbe82da6b17abc9e33c48&output=html&source=placeapi_v2,,,,,,,,,,,,,,,,,,121.32110085109,30.943669643145,0
871a9f32a077d13015c905b0,上海欢盟园林绿化有限公司,公司企业,农林园艺,上海市,上海市,松江区,上海市松江区叶校路76号501室,,1,0,121.320863,30.944716,,enterprise,http://api.map.baidu.com/place/detail?uid=871a9f32a077d13015c905b0&output=html&source=placeapi_v2,,,,,,,,,,,,,,,,,,,,0
319447c08c39b9592806ce9e,上海太平洋家禽育种公司,公司企业,农林园艺,上海市,上海市,松江区,上海市松江区杨家湾附近,319447c08c39b9592806ce9e,1,0,121.334407,30.924915,,enterprise,http://api.map.baidu.com/place/detail?uid=319447c08c39b9592806ce9e&output=html&source=placeapi_v2,,,0,,,,,,,,1,,,,,,,,,0
f350f871495eb90d72455be3,上海爱娥蔬菜种植专业合作社,公司企业,农林园艺,上海市,上海市,松江区,上海市松江区叶发路98号,,1,0,121.305767,30.934393,18721225768,enterprise,http://api.map.baidu.com/place/detail?uid=f350f871495eb90d72455be3&output=html&source=placeapi_v2,,,,,,,,,,,,,,,,,,,,0
576aeb6c78063e6fa7c75698,上海双慧农业专业合作社,公司企业,农林园艺,上海市,上海市,奉贤区,上海市奉贤区牛桥1214号,,1,0,121.376247,30.941144,13381659888,enterprise,http://api.map.baidu.com/place/detail?uid=576aeb6c78063e6fa7c75698&output=html&source=placeapi_v2,,,,,,,,,,,,,,,,,,,,0
60929535535e557fd4851fed,米花农场,公司企业,农林园艺,上海市,上海市,奉贤区,上海市奉贤区庄行镇张塘村牛桥1230号,,1,0,121.375573,30.942344,,enterprise,http://api.map.baidu.com/place/detail?uid=60929535535e557fd4851fed&output=html&source=placeapi_v2,,,,,,,,,,,,,,,,,,121.3755382153,30.942340759212,0
deae1e0cb23cfc4f2fe67b70,上海松丰蔬果专业合作社(东石路基地),公司企业,农林园艺,上海市,上海市,松江区,上海市松江区新锋路与东石公路交叉口往西240米,deae1e0cb23cfc4f2fe67b70,1,0,121.351744,30.939559,(021)57807424,enterprise,http://api.map.baidu.com/place/detail?uid=deae1e0cb23cfc4f2fe67b70&output=html&source=placeapi_v2,,,0.0,,,,,,,,1,,,,,,,,,0
749b71b614b41ecbeb56fa5a,上海普庄农业专业合作社,公司企业,农林园艺,上海市,上海市,松江区,上海市松江区普庄公路213号,,1,0,121.347247,30.944243,13564168807,enterprise,http://api.map.baidu.com/place/detail?uid=749b71b614b41ecbeb56fa5a&output=html&source=placeapi_v2,,,,,,,,,,,,,,,,,,,,0
089a1ff072d7f7fe82a12ef2,上海丰芦粮食种植专业合作社,公司企业,农林园艺,上海市,上海市,奉贤区,上海市奉贤区庄行路598号,,1,0,121.408258,30.926348,17749740628,enterprise,http://api.map.baidu.com/place/detail?uid=089a1ff072d7f7fe82a12ef2&output=html&source=placeapi_v2,,,,,,,,,,,,,,,,,,,,0
612695c8540073e91f3894b6,蔬韵生态农场,公司企业,农林园艺,上海市,上海市,奉贤区,上海市奉贤区西纬中路与西经二路交叉口西南150米,,1,0,121.401305,30.942538,18201789779,enterprise,http://api.map.baidu.com/place/detail?uid=612695c8540073e91f3894b6&output=html&source=placeapi_v2,,,,,,,,,,,,,,,,,,121.40123142104,30.942705715031,0
f2f6a00f21ff839a354aaeea,牛奋农场,公司企业,农林园艺,上海市,上海市,奉贤区,上海市奉贤区芦庄路995弄,,1,0,121.395969,30.932397,13501912019,enterprise,http://api.map.baidu.com/place/detail?uid=f2f6a00f21ff839a354aaeea&output=html&source=placeapi_v2,,09:00-22:00,,,,,,,,,,,,,,,,,,0
60e651300ae0575ef423100e,米犁小镇农业专业合作社,公司企业,农林园艺,上海市,上海市,奉贤区,上海市奉贤区芦庄路332号,,1,0,121.402037,30.920545,,enterprise,http://api.map.baidu.com/place/detail?uid=60e651300ae0575ef423100e&output=html&source=placeapi_v2,,,,,,,,,,,,,,,,,,,,0
bd800d727c5c7b5372455b9d,上海礼和渔业养殖专业合作社,公司企业,农林园艺,上海市,上海市,奉贤区,上海市奉贤区庄行路第一住宅区北侧约130米,bd800d727c5c7b5372455b9d,1,0,121.409495,30.920418,,enterprise,http://api.map.baidu.com/place/detail?uid=bd800d727c5c7b5372455b9d&output=html&source=placeapi_v2,,,,,,,,,,,,,,,,,,,,0
256cc0626ea8ca1a2b06ce1a,上海贺禧粮食种植专业合作社,公司企业,农林园艺,上海市,上海市,奉贤区,上海市奉贤区西纬四路,256cc0626ea8ca1a2b06ce1a,1,0,121.398473,30.945895,(021)57406591,enterprise,http://api.map.baidu.com/place/detail?uid=256cc0626ea8ca1a2b06ce1a&output=html&source=placeapi_v2,0.0,,,,,,,,,,,,,,,,,,,0
2652ba6cbfea00c940e192d7,上海奉贤区南美白对虾育苗基地,公司企业,农林园艺,上海市,上海市,奉贤区,上海市奉贤区庄行路651号,2652ba6cbfea00c940e192d7,1,0,121.40943,30.920505,,enterprise,http://api.map.baidu.com/place/detail?uid=2652ba6cbfea00c940e192d7&output=html&source=placeapi_v2,,,,,,,,,,,,,,,,,,121.40942628941,30.920407247519,0
9e40451c79252f19e607381a,仁忠育苗场,公司企业,农林园艺,上海市,上海市,奉贤区,上海市奉贤区光明中心路与芦庄路交叉路口往东南约280米,,1,0,121.401281,30.923402,,enterprise,http://api.map.baidu.com/place/detail?uid=9e40451c79252f19e607381a&output=html&source=placeapi_v2,,,,,,,,,,,,,,,,,,,,0
ea67eeeee1947594db13189e,上海礼和绿色中华鳖养殖基地,公司企业,农林园艺,上海市,上海市,奉贤区,上海市奉贤区庄行路第一住宅区北侧约120米,ea67eeeee1947594db13189e,1,0,121.40952,30.920359,,enterprise,http://api.map.baidu.com/place/detail?uid=ea67eeeee1947594db13189e&output=html&source=placeapi_v2,,,,,,,,,,,,,,,,,,,,0
ac589ad474321967f5c59cf1,海南短┖Ｑ笊物科技有限公司上海礼和虾苗联合基地,公司企业,农林园艺,上海市,上海市,奉贤区,上海市奉贤区庄行路第一住宅区北侧约130米,,1,0,121.409495,30.920418,,enterprise,http://api.map.baidu.com/place/detail?uid=ac589ad474321967f5c59cf1&output=html&source=placeapi_v2,,,,,,,,,,,,,,,,,,,,0
433bdd991c4784ebf503b872,海盗农场,公司企业,农林园艺,上海市,上海市,奉贤区,上海市奉贤区南桥路865号3号楼1楼,,1,0,121.460235,30.933174,15021142963,enterprise,http://api.map.baidu.com/place/detail?uid=433bdd991c4784ebf503b872&output=html&source=placeapi_v2,,08:00-21:00,,,,,,,,,,,,,,,,121.46019179661,30.933260834185,0
7c6de1658ff74d8416c90544,上海树园盆景花木有限公司,公司企业,农林园艺,上海市,上海市,奉贤区,上海市奉贤区新建中路658号,7c6de1658ff74d8416c90544,1,0,121.461348,30.922792,,enterprise,http://api.map.baidu.com/place/detail?uid=7c6de1658ff74d8416c90544&output=html&source=placeapi_v2,,,,,,,,,,,,,,,,,,121.4613679552,30.922590535271,0
b3eab9bea83f00af07fef543,上海芳坊园林景观工程有限公司,公司企业,农林园艺,上海市,上海市,奉贤区,上海市奉贤区新建中路怡莱酒店(上海奉贤南桥路店)南侧约40米,b3eab9bea83f00af07fef543,1,0,121.461361,30.922736,,enterprise,http://api.map.baidu.com/place/detail?uid=b3eab9bea83f00af07fef543&output=html&source=placeapi_v2,,,,,,,,,,,,,,,,,,,,0
2101f34310e7e271c2f1cf7a,上海陆盛绿化工程有限公司,公司企业,农林园艺,上海市,上海市,奉贤区,上海市奉贤区沪发路50号,2101f34310e7e271c2f1cf7a,1,1,121.440097,30.924042,,enterprise,http://api.map.baidu.com/place/detail?uid=2101f34310e7e271c2f1cf7a&output=html&source=placeapi_v2,,,,,,,,,,,,,,,,,,121.44002488732,30.923999117998,1
cdb057a84008063e354aaeda,上海德臣园林建设有限公司,公司企业,农林园艺,上海市,上海市,奉贤区,庙泾新村51号,cdb057a84008063e354aaeda,1,0,121.495265,30.922873,,enterprise,http://api.map.baidu.com/place/detail?uid=cdb057a84008063e354aaeda&output=html&source=placeapi_v2,,,,,,,,,,,,,,,,,,,,0
bee68480cb228e60fa0cadf8,上海义伯生态农产品有限公司(来一篮品牌运营中心),公司企业,农林园艺,上海市,上海市,奉贤区,上海市奉贤区南桥镇南奉公路8519号南方国际大厦11楼BCD室,,1,0,121.490311,30.922137,,enterprise,http://api.map.baidu.com/place/detail?uid=bee68480cb228e60fa0cadf8&output=html&source=placeapi_v2,,,5,,,,,,,,2,,,,,,,,,0
4c30e0f3407f03fc00897292,红阳红心猕猴桃种植基地,公司企业,农林园艺,上海市,上海市,奉贤区,方岳路与陆家南路交叉口西150米,,1,1,121.533994,30.940237,,enterprise,http://api.map.baidu.com/place/detail?uid=4c30e0f3407f03fc00897292&output=html&source=placeapi_v2,,,,,,,,,,,,,,,,,,121.53401615498,30.940524715399,1
9508df04055d90624151c06f,上海兴贺景观园艺有限公司,公司企业,农林园艺,上海市,上海市,奉贤区,上海市奉贤区南奉公路6111号亿丰广场197号,,1,0,121.519486,30.924691,"13166433548,18721013801",enterprise,http://api.map.baidu.com/place/detail?uid=9508df04055d90624151c06f&output=html&source=placeapi_v2,,,,,,,,,,,,,,,,,,,,0
b44ddc3b78eddb1133870a02,上海威原农业科技有限公司,公司企业,农林园艺,上海市,上海市,奉贤区,上海市奉贤区于庄路426号,,1,1,121.547305,30.945247,13052310359,enterprise,http://api.map.baidu.com/place/detail?uid=b44ddc3b78eddb1133870a02&output=html&source=placeapi_v2,,,0,,,,,,,,0,,,,,,,,,1
bfe83d15deedff528f55ec8c,上海众汇水产养殖专业合作社,公司企业,农林园艺,上海市,上海市,奉贤区,上海市奉贤区方岳路与于庄路交叉路口往西约110米,,1,0,121.546759,30.941649,,enterprise,http://api.map.baidu.com/place/detail?uid=bfe83d15deedff528f55ec8c&output=html&source=placeapi_v2,,,,,,,,,,,,,,,,,,,,0
cbd7703356ccc4ea3010aff1,上海锦香桃业种植专业合作社,公司企业,农林园艺,上海市,上海市,奉贤区,工农村366号,cbd7703356ccc4ea3010aff1,1,1,121.531306,30.924646,,enterprise,http://api.map.baidu.com/place/detail?uid=cbd7703356ccc4ea3010aff1&output=html&source=placeapi_v2,,,,,,,,,,,,,,,,,,,,1
fa5cd81470fb9834a80dd80d,上海亿民农业温室工程有限公司,公司企业,农林园艺,上海市,上海市,奉贤区,上海市奉贤区人民路826号,,1,1,121.5872,30.938776,,enterprise,http://api.map.baidu.com/place/detail?uid=fa5cd81470fb9834a80dd80d&output=html&source=placeapi_v2,,,,,,,,,,,,,,,,,,121.58718685812,30.938565613408,1
37c1d2c24003b0dc980050ad,上海青叶农业专业合作社,公司企业,农林园艺,上海市,上海市,奉贤区,上海市奉贤区青村镇西吴村民安956号,37c1d2c24003b0dc980050ad,1,0,121.586881,30.948516,,enterprise,http://api.map.baidu.com/place/detail?uid=37c1d2c24003b0dc980050ad&output=html&source=placeapi_v2,,,0.0,,,,,,,,0,,,,,,,,,0
bfb05bba75ec486985420ef6,上海惠群蔬菜种植专业合作社,公司企业,农林园艺,上海市,上海市,奉贤区,上海市奉贤区青村镇和中村,,1,0,121.561403,30.946717,,enterprise,http://api.map.baidu.com/place/detail?uid=bfb05bba75ec486985420ef6&output=html&source=placeapi_v2,,,,,,,,,,,,,,,,,,,,0
0249c09004e76a37a7c7564c,奉贤区蔬菜研究开发中心种源基地,公司企业,农林园艺,上海市,上海市,奉贤区,上海市奉贤区青村镇人民路826号,0249c09004e76a37a7c7564c,1,1,121.589615,30.940151,,enterprise,http://api.map.baidu.com/place/detail?uid=0249c09004e76a37a7c7564c&output=html&source=placeapi_v2,,,,,,,,,,,,,,,,,,121.58959431688,30.940044623011,1
bd0f2dad1e71b826b1077d26,上海市奉城东庄农业合作社,公司企业,农林园艺,上海市,上海市,奉贤区,上海市奉贤区南幸福路609号,bd0f2dad1e71b826b1077d26,1,0,121.664064,30.937156,13801841807,enterprise,http://api.map.baidu.com/place/detail?uid=bd0f2dad1e71b826b1077d26&output=html&source=placeapi_v2,,,,,,,,,,,,,,,,,,,,0
61ca9e71aeb7eddf616858f3,上海明浩园艺有限公司,公司企业,农林园艺,上海市,上海市,奉贤区,上海市奉贤区南幸福路865号,,1,0,121.655835,30.94054,13917359125,enterprise,http://api.map.baidu.com/place/detail?uid=61ca9e71aeb7eddf616858f3&output=html&source=placeapi_v2,,,,,,,,,,,,,,,,,,,,0
9b4b684431061044cae33c97,上海渝开食用菌专业合作社,公司企业,农林园艺,上海市,上海市,奉贤区,上海市奉贤区小农场路,,1,0,121.718726,30.934082,,enterprise,http://api.map.baidu.com/place/detail?uid=9b4b684431061044cae33c97&output=html&source=placeapi_v2,,,,,,,,,,,,,,,,,,,,0
c5e3f88ac0a9d4282b06ce5d,上海御珠蜜桃种植专业合作社,公司企业,农林园艺,上海市,上海市,奉贤区,上海市奉贤区小农场路1548号,,1,0,121.717477,30.931712,18601639807,enterprise,http://api.map.baidu.com/place/detail?uid=c5e3f88ac0a9d4282b06ce5d&output=html&source=placeapi_v2,,,,,,,,,,,,,,,,,,,,0
079390818b143e632fe67bbc,上海军洁水产养殖专业合作社,公司企业,农林园艺,上海市,上海市,奉贤区,上海市奉贤区名新区路559号,,1,0,121.722544,30.940208,18121325388,enterprise,http://api.map.baidu.com/place/detail?uid=079390818b143e632fe67bbc&output=html&source=placeapi_v2,,,,,,,,,,,,,,,,,,,,0
00c1a9711ef4c5c109a8d412,上海沐恩农业专业合作社,公司企业,农林园艺,上海市,上海市,奉贤区,上海市奉贤区运河路401号,,1,0,121.756401,30.934957,13621866188,enterprise,http://api.map.baidu.com/place/detail?uid=00c1a9711ef4c5c109a8d412&output=html&source=placeapi_v2,,,,,,,,,,,,,,,,,,,,0
db8f3e6ef356104b9e9d6823,上海臣丰源生态专业合作社,公司企业,农林园艺,上海市,上海市,奉贤区,上海市奉贤区四团镇五四村216号,,1,0,121.732091,30.928333,,enterprise,http://api.map.baidu.com/place/detail?uid=db8f3e6ef356104b9e9d6823&output=html&source=placeapi_v2,,,,,,,,,,,,,,,,,,121.73209117247,30.928333253948,0
8a1e05cdd180ef1607026f7f,上海玉叶虾业合作社,公司企业,农林园艺,上海市,上海市,奉贤区,上海市奉贤区四团镇川南奉公路与Y545交口东南角,8a1e05cdd180ef1607026f7f,1,0,121.74837,30.950931,,enterprise,http://api.map.baidu.com/place/detail?uid=8a1e05cdd180ef1607026f7f&output=html&source=placeapi_v2,,,,,,,,,,,,,,,,,,121.7483213989,30.9511229726,0
e44ea3cf37ebe37aa0d23084,上海祥都渔业合作社,公司企业,农林园艺,上海市,上海市,奉贤区,上海市奉贤区四团镇三坎村范家宅C102北450米,,1,1,121.726703,30.93191,,enterprise,http://api.map.baidu.com/place/detail?uid=e44ea3cf37ebe37aa0d23084&output=html&source=placeapi_v2,,,,,,,,,,,,,,,,,,,,1
97e009c57443e9ccd03ce3a2,上海亦博果蔬种植专业合作社,公司企业,农林园艺,上海市,上海市,奉贤区,上海市奉贤区四团镇新四街,97e009c57443e9ccd03ce3a2,1,0,121.726615,30.933974,15900436350,enterprise,http://api.map.baidu.com/place/detail?uid=97e009c57443e9ccd03ce3a2&output=html&source=placeapi_v2,,08:00-17:00,,,,,,,,,,,,,,,,,,0
8bfd4dacae4602df03ec013a,上海兴鹊农业科技发展有限公司,公司企业,农林园艺,上海市,上海市,浦东新区,上海市浦东新区金石村董村540号,,1,0,121.786345,30.95104,,enterprise,http://api.map.baidu.com/place/detail?uid=8bfd4dacae4602df03ec013a&output=html&source=placeapi_v2,,,,,,,,,,,,,,,,,,,,0
273a8587fed18a4fbbbd6392,科智(上海)果蔬种植专业合作社,公司企业,农林园艺,上海市,上海市,浦东新区,泥城镇马厂村水船472号,,1,0,121.8042,30.93089,15921351976,enterprise,http://api.map.baidu.com/place/detail?uid=273a8587fed18a4fbbbd6392&output=html&source=placeapi_v2,,,,,,,,,,,,,,,,,,,,0
875ebbcaf472afaaf119378e,上海汇蓝农业股份有限公司,公司企业,农林园艺,上海市,上海市,松江区,上海市松江区蔷薇娄路108号,875ebbcaf472afaaf119378e,1,0,121.155495,30.957188,,enterprise,http://api.map.baidu.com/place/detail?uid=875ebbcaf472afaaf119378e&output=html&source=placeapi_v2,,,,,,,,,,,,,,,,,,121.15546289638,30.957047778008,0
1f892b008fde2b5f901fc9b6,上海鼎优农业科技有限公司,公司企业,农林园艺,上海市,上海市,松江区,徐库公路西50米,,1,0,121.16232,30.961947,,enterprise,http://api.map.baidu.com/place/detail?uid=1f892b008fde2b5f901fc9b6&output=html&source=placeapi_v2,,,,,,,,,,,,,,,,,,,,0
3911e4d8908d652c6d47601e,上海歧创农业科技有限公司,公司企业,农林园艺,上海市,上海市,松江区,上海市松江区闵塔路2998号,,1,0,121.152425,30.979543,13601733455,enterprise,http://api.map.baidu.com/place/detail?uid=3911e4d8908d652c6d47601e&output=html&source=placeapi_v2,,,5.0,,,,,,,,1,,,,,,,,,0
ba650a699f4c49979d9d68d4,上海太平洋禽蛋专业合作社,公司企业,农林园艺,上海市,上海市,松江区,上海市松江区中厍路333号,ba650a699f4c49979d9d68d4,1,1,121.147478,30.950589,,enterprise,http://api.map.baidu.com/place/detail?uid=ba650a699f4c49979d9d68d4&output=html&source=placeapi_v2,,,,,,,,,,,,,,,,,,121.14756512459,30.950606092932,1
174e3453898da1a2c056acc4,上海捷洁绿化园艺有限公司,公司企业,农林园艺,上海市,上海市,松江区,上海市松江区塔汇公路中国农业银行(上海塔汇分理处)西北侧约130米,,1,0,121.184431,30.98048,,enterprise,http://api.map.baidu.com/place/detail?uid=174e3453898da1a2c056acc4&output=html&source=placeapi_v2,,,,,,,,,,,,,,,,,,,,0
9e4da3548ebbbbb78af15d1d,上海凯盛园林工程有限公司,公司企业,农林园艺,上海市,上海市,松江区,上海市松江区唐明路666号,9e4da3548ebbbbb78af15d1d,1,0,121.191662,30.97874,,enterprise,http://api.map.baidu.com/place/detail?uid=9e4da3548ebbbbb78af15d1d&output=html&source=placeapi_v2,,,,,,,,,,,,,,,,,,121.1916705121,30.978662512375,0
6c9d73ced7b4d5070869d9f1,万英生态农场,公司企业,农林园艺,上海市,上海市,松江区,上海市松江区邱家公路,,1,0,121.20255,30.961677,13661476108,enterprise,http://api.map.baidu.com/place/detail?uid=6c9d73ced7b4d5070869d9f1&output=html&source=placeapi_v2,,09:30-18:00,5,,,,,,,,1,,,,,,,121.20290831403,30.961662983794,0
438d3c05a1e50d5fc336446c,上海源江农产品专业合作社,公司企业,农林园艺,上海市,上海市,松江区,上海市松江区石湖荡镇金胜村长胜278号,,1,0,121.20324,30.962589,13661476108,enterprise,http://api.map.baidu.com/place/detail?uid=438d3c05a1e50d5fc336446c&output=html&source=placeapi_v2,,,5.0,,,,,,,,1,,,,,,,,,0
5bb07aa1dfa68629ed74f8b4,上海鸿晟园林景观工程有限公司,公司企业,农林园艺,上海市,上海市,松江区,上海市松江区辰塔路与长塔路交叉路口往东约220米,,1,0,121.19637,30.981711,(021)57838728,enterprise,http://api.map.baidu.com/place/detail?uid=5bb07aa1dfa68629ed74f8b4&output=html&source=placeapi_v2,,,,,,,,,,,,,,,,,,121.19635883772,30.981935253797,0
c03a897f387ae4a5f02d83b8,松林畜禽养殖专业合作社新建种养结合家庭农场,公司企业,农林园艺,上海市,上海市,松江区,焦家公路西50米,c03a897f387ae4a5f02d83b8,1,0,121.232313,30.95794,,enterprise,http://api.map.baidu.com/place/detail?uid=c03a897f387ae4a5f02d83b8&output=html&source=placeapi_v2,,,,,,,,,,,,,,,,,,,,0
e4456c173ee7909f4e554748,六六米(上海)农业专业合作社,公司企业,农林园艺,上海市,上海市,松江区,上海市松江区张米路16号,,1,0,121.249352,30.956103,13917707823,enterprise,http://api.map.baidu.com/place/detail?uid=e4456c173ee7909f4e554748&output=html&source=placeapi_v2,,,0.0,,,,,,,,1,,,,,,,,,0
31f6326d8657cb0cee74f870,上海恒艺园林绿化有限公司,公司企业,农林园艺,上海市,上海市,松江区,上海市松江区吴家桥615号,,1,0,121.28684,30.975012,13817061000,enterprise,http://api.map.baidu.com/place/detail?uid=31f6326d8657cb0cee74f870&output=html&source=placeapi_v2,,,,,,,,,,,,,,,,,,121.28645944181,30.975009534437,0
8261077340dae65c40024567,上海紫圆农业科技有限公司,公司企业,农林园艺,上海市,上海市,松江区,上海市松江区华长公路,8261077340dae65c40024567,1,0,121.291778,30.981888,,enterprise,http://api.map.baidu.com/place/detail?uid=8261077340dae65c40024567&output=html&source=placeapi_v2,,,,,,,,,,,,,,,,,,,,0
e17f2edf71360593b42655ff,打铁桥欣怡葡萄园,公司企业,农林园艺,上海市,上海市,松江区,上海市松江区车墩镇松卫北路1999号,e17f2edf71360593b42655ff,1,0,121.271323,30.983013,13585628080,enterprise,http://api.map.baidu.com/place/detail?uid=e17f2edf71360593b42655ff&output=html&source=placeapi_v2,,,,,,,,,,,,,,,,,,,,0
b156d27d0d4c893f744ff178,上海宝靓果业专业合作社葡萄基地,公司企业,农林园艺,上海市,上海市,松江区,上海市松江区车墩镇华长路长敬290号,,1,1,121.292412,30.979087,,enterprise,http://api.map.baidu.com/place/detail?uid=b156d27d0d4c893f744ff178&output=html&source=placeapi_v2,,,,,,,,,,,,,,,,,,,,1
5c4fa95f812c967949fd3f73,上海里白园艺有限公司,公司企业,农林园艺,上海市,上海市,松江区,上海市松江区东兴桥与埝泾公路交叉路口往南约100米,,1,0,121.328668,30.975009,15221178415,enterprise,http://api.map.baidu.com/place/detail?uid=5c4fa95f812c967949fd3f73&output=html&source=placeapi_v2,,,,,,,,,,,,,,,,,,,,0
288eff9988d65d76d8131835,源都园艺,公司企业,农林园艺,上海市,上海市,松江区,上海市松江区埝泾路518号,,1,0,121.331401,30.976868,13701820955,enterprise,http://api.map.baidu.com/place/detail?uid=288eff9988d65d76d8131835&output=html&source=placeapi_v2,,00:00-24:00,,,,,,,,,,,,,,,,,,0
8d7cab913084af6d9a005034,上海晟开园林绿化有限公司,公司企业,农林园艺,上海市,上海市,松江区,上海市松江区叶榭镇堰泾村求城路念经公路交叉口,8d7cab913084af6d9a005034,1,0,121.329732,30.974721,15221178415,enterprise,http://api.map.baidu.com/place/detail?uid=8d7cab913084af6d9a005034&output=html&source=placeapi_v2,,,,,,,,,,,,,,,,,,,,0
857e2787d71374479222e092,上海奉贤辉煌养殖场,公司企业,农林园艺,上海市,上海市,奉贤区,上海市奉贤区庄行镇邬桥社区新叶村新光,,1,0,121.368584,30.969708,"(021)37583028,13321934018",enterprise,http://api.map.baidu.com/place/detail?uid=857e2787d71374479222e092&output=html&source=placeapi_v2,,,,,,,,,,,,,,,,,,,,0
7c9346c5f42d3a27f60e7763,智家(上海)农业科技有限公司,公司企业,农林园艺,上海市,上海市,奉贤区,上海市奉贤区北环路与新张路交叉路口东北侧,7c9346c5f42d3a27f60e7763,1,0,121.379156,30.963979,15921393479,enterprise,http://api.map.baidu.com/place/detail?uid=7c9346c5f42d3a27f60e7763&output=html&source=placeapi_v2,,,0.0,,,,,,,,0,,,,,,,121.37916585951,30.963955728095,0
000820d8a605d3e45b1093d1,上海龙胜蔬菜专业合作社,公司企业,农林园艺,上海市,上海市,松江区,上海市松江区大叶公路与东石公路交叉路口往南约160米,,1,0,121.352451,30.956622,,enterprise,http://api.map.baidu.com/place/detail?uid=000820d8a605d3e45b1093d1&output=html&source=placeapi_v2,,,,,,,,,,,,,,,,,,,,0
d8c4aaf78496d385c156acce,上海茸业机械设备有限公司,公司企业,农林园艺,上海市,上海市,奉贤区,上海市奉贤区叶张路1008号,,1,0,121.383783,30.963799,18101701152,enterprise,http://api.map.baidu.com/place/detail?uid=d8c4aaf78496d385c156acce&output=html&source=placeapi_v2,,,,,,,,,,,,,,,,,,,,0
6d7f04dda75ea41043ab9a3f,上海申权农业专业合作社,公司企业,农林园艺,上海市,上海市,松江区,上海市松江区东勤公路,,1,0,121.34833,30.966182,,enterprise,http://api.map.baidu.com/place/detail?uid=6d7f04dda75ea41043ab9a3f&output=html&source=placeapi_v2,,,,,,,,,,,,,,,,,,,,0
e804ec471cd0013f9cf779f5,上海松丰蔬果专业合作社(虹洋路基地),公司企业,农林园艺,上海市,上海市,松江区,上海市松江区虹洋路5号,e804ec471cd0013f9cf779f5,1,1,121.362881,30.956438,(021)57807424,enterprise,http://api.map.baidu.com/place/detail?uid=e804ec471cd0013f9cf779f5&output=html&source=placeapi_v2,,06:00-20:00,0.0,,,,,,,,1,,,,,,,121.36270281924,30.95644816775,1
fa2333ab440909852802e17f,邬桥镇种畜场,公司企业,农林园艺,上海市,上海市,奉贤区,上海市奉贤区大叶公路与安东路交叉路口往东南约270米,fa2333ab440909852802e17f,1,0,121.412567,30.96151,,enterprise,http://api.map.baidu.com/place/detail?uid=fa2333ab440909852802e17f&output=html&source=placeapi_v2,,,,,,,,,,,,,,,,,,,,0
16b93716b594112272455b04,上海平力农业温室工程有限公司,公司企业,农林园艺,上海市,上海市,奉贤区,上海市奉贤区大叶公路1975号,16b93716b594112272455b04,1,1,121.389964,30.961069,(021)57407240,enterprise,http://api.map.baidu.com/place/detail?uid=16b93716b594112272455b04&output=html&source=placeapi_v2,0.0,,,,,,,,,,,,,,,,,121.39021158845,30.961054058691,1
a51042f9c2940178283a9f35,渔沥农场,公司企业,农林园艺,上海市,上海市,奉贤区,上海市奉贤区邬桥・友谊路渔沥村1236号,a51042f9c2940178283a9f35,1,0,121.392897,30.979313,,enterprise,http://api.map.baidu.com/place/detail?uid=a51042f9c2940178283a9f35&output=html&source=placeapi_v2,,,,,,,,,,,,,,,,,,121.39273063742,30.97927756021,0
f608bef9bf7b29fd3517dc9d,上海怡绿造林工程有限公司,公司企业,农林园艺,上海市,上海市,奉贤区,上海市奉贤区陈桥路上海奉贤区培英幼儿园西南侧约30米,,1,0,121.451826,30.969443,,enterprise,http://api.map.baidu.com/place/detail?uid=f608bef9bf7b29fd3517dc9d&output=html&source=placeapi_v2,,,,,,,,,,,,,,,,,,,,0
8e4fe8c6b7304573ec74f88e,上海好美园艺有限公司,公司企业,农林园艺,上海市,上海市,奉贤区,上海市奉贤区沪杭公路590号,8e4fe8c6b7304573ec74f88e,1,1,121.444328,30.982061,(021)57433559,enterprise,http://api.map.baidu.com/place/detail?uid=8e4fe8c6b7304573ec74f88e&output=html&source=placeapi_v2,,,,,,,,,,,,,,,,,,121.44461078725,30.982082360885,1
21c080518b7e91cc4151c07e,艺术园林,公司企业,农林园艺,上海市,上海市,奉贤区,上海市奉贤区金钱公路齐贤雅苑南侧约230米,,1,0,121.512182,30.96403,,enterprise,http://api.map.baidu.com/place/detail?uid=21c080518b7e91cc4151c07e&output=html&source=placeapi_v2,,,,,,,,,,,,,,,,,,,,0
f7e20cc827792a214f3a5990,上海奉贤农业发展有限公司,公司企业,农林园艺,上海市,上海市,奉贤区,上海市奉贤区金海公路5885号1207室,f7e20cc827792a214f3a5990,1,0,121.491251,30.956838,,enterprise,http://api.map.baidu.com/place/detail?uid=f7e20cc827792a214f3a5990&output=html&source=placeapi_v2,,,,,,,,,,,,,,,,,,,,0
d16b06ab690c11f531870acd,琢景(上海)农业科技有限公司,公司企业,农林园艺,上海市,上海市,奉贤区,上海市奉贤区金齐路868号4396室,d16b06ab690c11f531870acd,1,0,121.489634,30.955449,,enterprise,http://api.map.baidu.com/place/detail?uid=d16b06ab690c11f531870acd&output=html&source=placeapi_v2,,,,,,,,,,,,,,,,,,,,0
437f8ef7ec0510272806ce63,上海恒浦农业发展有限公司,公司企业,农林园艺,上海市,上海市,奉贤区,上海市奉贤区金海公路7001号,437f8ef7ec0510272806ce63,1,1,121.488464,30.975331,(021)37196185,enterprise,http://api.map.baidu.com/place/detail?uid=437f8ef7ec0510272806ce63&output=html&source=placeapi_v2,,,,,,,,,,,,,,,,,,121.48860778072,30.975353128692,1
f7e94e70da22bfb54d55473e,上海景谷园林绿化有限公司,公司企业,农林园艺,上海市,上海市,奉贤区,上海市奉贤区金海公路5885号1501室,f7e94e70da22bfb54d55473e,1,0,121.49105,30.956932,,enterprise,http://api.map.baidu.com/place/detail?uid=f7e94e70da22bfb54d55473e&output=html&source=placeapi_v2,,,,,,,,,,,,,,,,,,,,0
582f198e80f1a6b5132935fd,上海佳淳农业发展有限公司,公司企业,农林园艺,上海市,上海市,奉贤区,上海市奉贤区茂园路718号,,1,0,121.484377,30.968055,,enterprise,http://api.map.baidu.com/place/detail?uid=582f198e80f1a6b5132935fd&output=html&source=placeapi_v2,,,,,,,,,,,,,,,,,,,,0
0dfe807e0642744c7c29bdef,上海景宜园艺有限公司,公司企业,农林园艺,上海市,上海市,奉贤区,上海市奉贤区陶宅村820号,,1,0,121.542,30.955503,13162844923,enterprise,http://api.map.baidu.com/place/detail?uid=0dfe807e0642744c7c29bdef&output=html&source=placeapi_v2,,,,,,,,,,,,,,,,,,,,0
7326fd02ec23a97ead31e55d,漫生活园艺,公司企业,农林园艺,上海市,上海市,奉贤区,上海市奉贤区X011(航南公路)沿港村121号,7326fd02ec23a97ead31e55d,1,0,121.544971,30.969388,15921617577,enterprise,http://api.map.baidu.com/place/detail?uid=7326fd02ec23a97ead31e55d&output=html&source=placeapi_v2,,10:00-22:00,5,,,,,,,,1,,,,,,,,,0
3f59a3c731627d79bb17e709,小全园艺多肉苗圃,公司企业,农林园艺,上海市,上海市,奉贤区,上海市奉贤区航南公路2880号,3f59a3c731627d79bb17e709,1,0,121.53667,30.973061,15721533735,enterprise,http://api.map.baidu.com/place/detail?uid=3f59a3c731627d79bb17e709&output=html&source=placeapi_v2,,,3.7,,,,,,,,3,,,,,,,,,0
a8b51a134a6a45a83362124c,上海茂秀园艺有限公司,公司企业,农林园艺,上海市,上海市,奉贤区,上海市奉贤区航南公路2506号,a8b51a134a6a45a83362124c,1,0,121.541002,30.976335,13551082129,enterprise,http://api.map.baidu.com/place/detail?uid=a8b51a134a6a45a83362124c&output=html&source=placeapi_v2,,,5,,,,,,,,4,,,,,,,121.54124367768,30.976427450678,0
a2e5b395845e0877a3acc4d1,上海菇缘农业科技有限公司,公司企业,农林园艺,上海市,上海市,奉贤区,上海市奉贤区航南公路2880号,d9011122ac6665077369d370,1,0,121.53057,30.970441,(021)57576007,enterprise,http://api.map.baidu.com/place/detail?uid=a2e5b395845e0877a3acc4d1&output=html&source=placeapi_v2,,,0,,,,,,,,1,,,,,,,121.53056971606,30.970440737655,0
bc664e0f340fd03b167643cd,上海沿港芥菜种植专业合作社,公司企业,农林园艺,上海市,上海市,奉贤区,上海市奉贤区航南公路2668号,bc664e0f340fd03b167643cd,1,1,121.535891,30.969348,,enterprise,http://api.map.baidu.com/place/detail?uid=bc664e0f340fd03b167643cd&output=html&source=placeapi_v2,,,,,,,,,,,,,,,,,,,,1
4481c6bec54f4eccfda7786b,上海欣农祉源农业发展有限公司,公司企业,农林园艺,上海市,上海市,奉贤区,上海市奉贤区沿钱公路999号,,1,0,121.554534,30.966073,18144444482,enterprise,http://api.map.baidu.com/place/detail?uid=4481c6bec54f4eccfda7786b&output=html&source=placeapi_v2,,,,,,,,,,,,,,,,,,,,0
d497160d6a7af3e993114c82,上海玖童农业专业合作社,公司企业,农林园艺,上海市,上海市,奉贤区,上海市奉贤区金汇镇百曲村1251号,,1,0,121.532526,30.957529,13301692888,enterprise,http://api.map.baidu.com/place/detail?uid=d497160d6a7af3e993114c82&output=html&source=placeapi_v2,,08:00-19:00,,,,,,,,,,,,,,,,121.53232041828,30.95755104469,0
6bb0c35878dd527c9d9d68a8,上海侬霖蔬果种植专业合作社,公司企业,农林园艺,上海市,上海市,奉贤区,上海市奉贤区金汇镇南陈村六组,,1,0,121.548557,30.971922,,enterprise,http://api.map.baidu.com/place/detail?uid=6bb0c35878dd527c9d9d68a8&output=html&source=placeapi_v2,,08:00-17:00,,,,,,,,,,,,,,,,,,0
ddb185b4287835e0d22dd667,上海海弘农业科技发展有限公司,公司企业,农林园艺,上海市,上海市,奉贤区,南陈路,,1,1,121.548556,30.971921,,enterprise,http://api.map.baidu.com/place/detail?uid=ddb185b4287835e0d22dd667&output=html&source=placeapi_v2,,,,,,,,,,,,,,,,,,,,1
30e152dc47734b1c1b11d56c,上海延安王鸽生态养殖场,公司企业,农林园艺,上海市,上海市,奉贤区,上海市奉贤区沿钱路649号,,1,1,121.552544,30.971983,18930552959,enterprise,http://api.map.baidu.com/place/detail?uid=30e152dc47734b1c1b11d56c&output=html&source=placeapi_v2,,00:00-24:00,,,,,,,,,,,,,,,,121.55238650266,30.971903535007,1
938b05a9dca45809f4e73bf6,上海华清园艺,公司企业,农林园艺,上海市,上海市,奉贤区,上海市奉贤区南陈东西路115号,,1,0,121.564863,30.974353,,enterprise,http://api.map.baidu.com/place/detail?uid=938b05a9dca45809f4e73bf6&output=html&source=placeapi_v2,,,,,,,,,,,,,,,,,,121.56503462628,30.974388384903,0
1b223291f57cd210d418b791,上海顺芬蔬菜种植专业合作社,公司企业,农林园艺,上海市,上海市,奉贤区,上海市奉贤区金汇镇北丁村620号,,1,0,121.569652,30.966543,,enterprise,http://api.map.baidu.com/place/detail?uid=1b223291f57cd210d418b791&output=html&source=placeapi_v2,,,0.0,,,,,,,,1,,,,,,,,,0
ded41d0a65568affe9f853a6,上海行民粮食种植专业合作社,公司企业,农林园艺,上海市,上海市,奉贤区,上海市奉贤区梁典南路108号,,1,0,121.581527,30.962017,,enterprise,http://api.map.baidu.com/place/detail?uid=ded41d0a65568affe9f853a6&output=html&source=placeapi_v2,,,,,,,,,,,,,,,,,,,,0
3022d839fa1851574f776e86,金汇花卉苗木产业园,公司企业,农林园艺,上海市,上海市,奉贤区,上海市奉贤区大叶公路6758号,3022d839fa1851574f776e86,1,0,121.576644,30.985535,,enterprise,http://api.map.baidu.com/place/detail?uid=3022d839fa1851574f776e86&output=html&source=placeapi_v2,,07:00-06:00,,,,,,,,,,,,,,,,121.57661517641,30.985809850962,0
422eeddf43d4a5728c55ec41,上海华清园艺光辉西面苗圃,公司企业,农林园艺,上海市,上海市,奉贤区,上海市奉贤区大叶公路6758弄,,1,0,121.575268,30.986178,,enterprise,http://api.map.baidu.com/place/detail?uid=422eeddf43d4a5728c55ec41&output=html&source=placeapi_v2,,,0.0,,,,,,,,1,,,,,,,,,0
84191300b32ba087a9f729ad,德诚金农业科技有限公司,公司企业,农林园艺,上海市,上海市,奉贤区,上海市奉贤区金汇镇梁典村1713号,84191300b32ba087a9f729ad,1,0,121.597436,30.967683,,enterprise,http://api.map.baidu.com/place/detail?uid=84191300b32ba087a9f729ad&output=html&source=placeapi_v2,,,,,,,,,,,,,,,,,,,,0
222c0cabef3f2b8a9ee3210b,上海奉兴水产养殖专业合作社,公司企业,农林园艺,上海市,上海市,奉贤区,上海市奉贤区金汇镇航塘公路吴窑路路口,,1,1,121.610559,30.96668,13661626548,enterprise,http://api.map.baidu.com/place/detail?uid=222c0cabef3f2b8a9ee3210b&output=html&source=placeapi_v2,,,4.0,,,,,,,,,,,,,,,,,1
285a36458c68cce86e20b9dd,上海琴龙水产养殖专业合作社,公司企业,农林园艺,上海市,上海市,奉贤区,上海市奉贤区梁典村202号,285a36458c68cce86e20b9dd,1,0,121.605483,30.96109,15900637506,enterprise,http://api.map.baidu.com/place/detail?uid=285a36458c68cce86e20b9dd&output=html&source=placeapi_v2,,,,,,,,,,,,,,,,,,,,0
f3c4a00523b66f4a9122e023,上海德诚金农业科技有限公司(航塘公路),公司企业,农林园艺,上海市,上海市,奉贤区,上海市奉贤区航塘公路342号,f3c4a00523b66f4a9122e023,1,0,121.606833,30.978664,13661611076,enterprise,http://api.map.baidu.com/place/detail?uid=f3c4a00523b66f4a9122e023&output=html&source=placeapi_v2,,,,,,,,,,,,,,,,,,,,0
76d1ca93112c57d29e9d6815,上海瑞香景观绿化有限公司(总部),公司企业,农林园艺,上海市,上海市,奉贤区,上海市奉贤区新奉公路2958号,,1,0,121.651712,30.982206,18901874888,enterprise,http://api.map.baidu.com/place/detail?uid=76d1ca93112c57d29e9d6815&output=html&source=placeapi_v2,,,,,,,,,,,,,,,,,,,,0
c27975bbd69f1457861541b3,上海海磊果蔬专业合作社,公司企业,农林园艺,上海市,上海市,奉贤区,上海市奉贤区蔡家桥中心路与蔡桥路交叉路口西北侧,,1,0,121.64811,30.98065,,enterprise,http://api.map.baidu.com/place/detail?uid=c27975bbd69f1457861541b3&output=html&source=placeapi_v2,,,0.0,,,,,,,,1,,,,,,,,,0
b9ab50408322de879de321ef,上海南锦虾业养殖专业合作社,公司企业,农林园艺,上海市,上海市,奉贤区,上海市奉贤区四团镇大桥村134一1号南,b9ab50408322de879de321ef,1,1,121.716102,30.958392,13501754358,enterprise,http://api.map.baidu.com/place/detail?uid=b9ab50408322de879de321ef&output=html&source=placeapi_v2,,,,,,,,,,,,,,,,,,121.71570884765,30.958572881465,1
8421cf048e249d3e3913fd7e,阿强鸡蛋凤晨蛋鸡场,公司企业,农林园艺,上海市,上海市,奉贤区,上海市奉贤区张家中心路828号8组,8421cf048e249d3e3913fd7e,1,0,121.69475,30.973927,"(021)57538108,13122900981",enterprise,http://api.map.baidu.com/place/detail?uid=8421cf048e249d3e3913fd7e&output=html&source=placeapi_v2,,,,,,,,,,,,,,,,,,,,0
66838111c8bb24d917b54b06,神兜兜的农场,公司企业,农林园艺,上海市,上海市,奉贤区,上海市奉贤区四团镇小荡村蒲基318号,,1,0,121.71164,30.984223,,enterprise,http://api.map.baidu.com/place/detail?uid=66838111c8bb24d917b54b06&output=html&source=placeapi_v2,,,5,,,,,,,,1,,,,,,,,,0
83cd314be310cdfd7adbd2aa,上海蒲基种鸽养殖专业合作社,公司企业,农林园艺,上海市,上海市,奉贤区,上海市奉贤区四团镇小荡村蒲基818号,,1,0,121.715994,30.980411,,enterprise,http://api.map.baidu.com/place/detail?uid=83cd314be310cdfd7adbd2aa&output=html&source=placeapi_v2,,,0.0,,,,,,,,1,,,,,,,,,0
d9f2a6815cb103c24f3a59b6,佳飞园艺,公司企业,农林园艺,上海市,上海市,奉贤区,团南中路与新四平公路交叉口西北50米,d9f2a6815cb103c24f3a59b6,1,0,121.736899,30.958986,(021)57534920,enterprise,http://api.map.baidu.com/place/detail?uid=d9f2a6815cb103c24f3a59b6&output=html&source=placeapi_v2,,,,,,,,,,,,,,,,,,121.73686908072,30.958857164976,0
a64362daf0f7ff89f02d8366,惠丰家庭农场,公司企业,农林园艺,上海市,上海市,浦东新区,上海市浦东新区大芦西路,,1,0,121.76771,30.968683,,enterprise,http://api.map.baidu.com/place/detail?uid=a64362daf0f7ff89f02d8366&output=html&source=placeapi_v2,,,,,,,,,,,,,,,,,,121.76787018687,30.968650871384,0
8a1e05cdd180ef1607026f7f,上海玉叶虾业合作社,公司企业,农林园艺,上海市,上海市,奉贤区,上海市奉贤区四团镇川南奉公路与Y545交口东南角,8a1e05cdd180ef1607026f7f,1,0,121.74837,30.950931,,enterprise,http://api.map.baidu.com/place/detail?uid=8a1e05cdd180ef1607026f7f&output=html&source=placeapi_v2,,,,,,,,,,,,,,,,,,121.7483213989,30.9511229726,0
495783783e46a73babf0cd10,上海欣桥粮食种植专业合作社,公司企业,农林园艺,上海市,上海市,奉贤区,上海市奉贤区六团公路780号,,1,0,121.732074,30.965025,"(021)57539695,13918495450",enterprise,http://api.map.baidu.com/place/detail?uid=495783783e46a73babf0cd10&output=html&source=placeapi_v2,,07:00-19:00,5.0,,,,,,,,7,,,,,,,,,0
